suburb,address,rooms,type,price,method,sellerg,date,distance,postcode,bedrooms,bathrooms,car,landsize,buildingarea,build_year,councilarea,latitude,longitude,regionname,propertycount
Abbotsford,25 Bloomburg St,0.1428571428571428,h,0.1019280640432968,S,Biggin,4/02/2016,0.0527426160337552,0.0685772773797337,0.2222222222222222,0.0,0.0,0.0042162162162162,0.0253856041131105,0.856447688564477,Yarra,0.5043866465111719,0.4583731376654043,Northern Metropolitan,0.1707351488641174
Abbotsford,5 Charles St,0.2857142857142857,h,0.1504115458338031,SP,Biggin,4/03/2017,0.0527426160337552,0.0685772773797337,0.3333333333333333,0.1428571428571428,0.0,0.0036216216216216,0.0482005141388174,0.856447688564477,Yarra,0.5024087704674827,0.459389418484136,Northern Metropolitan,0.1707351488641174
Abbotsford,55a Park St,0.4285714285714285,h,0.1656331040703574,VB,Nelson,4/06/2016,0.0527426160337552,0.0685772773797337,0.3333333333333333,0.0,0.2,0.0032432432432432,0.0456298200514138,0.9951338199513382,Yarra,0.5053755845330059,0.4590845342385137,Northern Metropolitan,0.1707351488641174
Abbotsford,124 Yarra St,0.2857142857142857,h,0.1967527342428684,S,Nelson,7/05/2016,0.0527426160337552,0.0685772773797337,0.4444444444444444,0.1428571428571428,0.0,0.0066216216216216,0.0674807197943444,0.8686131386861315,Yarra,0.5121568738256386,0.4643691944958164,Northern Metropolitan,0.1707351488641174
Abbotsford,98 Charles St,0.1428571428571428,h,0.1696921862667719,S,Nelson,8/10/2016,0.0527426160337552,0.0685772773797337,0.2222222222222222,0.0,0.2,0.0069189189189189,0.0343830334190231,0.8442822384428224,Yarra,0.5070709068561712,0.4604056993028109,Northern Metropolitan,0.1707351488641174
Abbotsford,10 Valiant St,0.1428571428571428,h,0.1089187056037884,S,Biggin,8/10/2016,0.0527426160337552,0.0685772773797337,0.3333333333333333,0.0,0.2,0.0059459459459459,0.0241002570694087,0.856447688564477,Yarra,0.5141347498693136,0.4639626821683293,Northern Metropolitan,0.1707351488641174
Abbotsford,40 Nicholson St,0.2857142857142857,h,0.1374450332619235,VB,Nelson,12/11/2016,0.0527426160337552,0.0685772773797337,0.3333333333333333,0.1428571428571428,0.2,0.0057837837837837,0.0610539845758354,0.9841849148418492,Yarra,0.5035389853495857,0.4614219801215427,Northern Metropolitan,0.1707351488641174
Abbotsford,123/56 Nicholson St,0.1428571428571428,u,0.0697936633216822,S,Biggin,12/11/2016,0.0527426160337552,0.0685772773797337,0.2222222222222222,0.1428571428571428,0.1,0.0,0.0302056555269922,0.9890510948905112,Yarra,0.5045279233714339,0.4615236082034073,Northern Metropolitan,0.1707351488641174
Abbotsford,16 William St,0.1428571428571428,h,0.1329349419325741,S,Jellis,15/10/2016,0.0527426160337552,0.0685772773797337,0.2222222222222222,0.0,0.2,0.0064324324324324,0.0311696658097686,0.8442822384428224,Yarra,0.5028326010482758,0.4626415171040037,Northern Metropolitan,0.1707351488641174
Abbotsford,42 Henry St,0.2857142857142857,h,0.1205321907768632,S,Jellis,16/07/2016,0.0527426160337552,0.0685772773797337,0.3333333333333333,0.1428571428571428,0.1,0.003054054054054,0.0353470437017994,0.8321167883211678,Yarra,0.5076360142972192,0.4579666253379173,Northern Metropolitan,0.1707351488641174
Abbotsford,78 Yarra St,0.2857142857142857,h,0.1178825121208704,S,LITTLE,16/07/2016,0.0527426160337552,0.0685772773797337,0.2222222222222222,0.0,0.1,0.0037297297297297,0.0337403598971722,0.8442822384428224,Yarra,0.5125807044064246,0.4615236082034073,Northern Metropolitan,0.1707351488641174
Abbotsford,42 Valiant St,0.1428571428571428,h,0.0855789829744052,S,Biggin,17/09/2016,0.0527426160337552,0.0685772773797337,0.2222222222222222,0.0,0.1,0.004054054054054,0.0234575835475578,0.9598540145985404,Yarra,0.5139934730090587,0.4654871033964127,Northern Metropolitan,0.1707351488641174
Abbotsford,3/72 Charles St,0.4285714285714285,h,0.1351899875972488,PI,Kay,18/03/2017,0.0527426160337552,0.0685772773797337,0.4444444444444444,0.1428571428571428,0.2,0.021081081081081,0.0433804627249357,0.856447688564477,Yarra,0.505234307672751,0.4602024431391101,Northern Metropolitan,0.1707351488641174
Abbotsford,6/219 Nicholson St,0.1428571428571428,u,0.0416055925132483,S,Collins,18/06/2016,0.0527426160337552,0.0685772773797337,0.2222222222222222,0.0,0.1,0.0,0.0192802056555269,0.9416058394160582,Yarra,0.5134283655680107,0.4622350047765167,Northern Metropolitan,0.1707351488641174
Abbotsford,52a William St,0.1428571428571428,h,0.1092569624534896,PI,Biggin,18/06/2016,0.0527426160337552,0.0685772773797337,0.2222222222222222,0.1428571428571428,0.1,0.0033513513513513,0.0433804627249357,0.9939172749391728,Yarra,0.5043866465111719,0.4627431451858967,Northern Metropolitan,0.1707351488641174
Abbotsford,49 Park St,0.1428571428571428,h,0.1334987033487428,S,Marshall,19/11/2016,0.0527426160337552,0.0685772773797337,0.2222222222222222,0.0,0.0,0.0039729729729729,0.0273136246786632,0.856447688564477,Yarra,0.5042453696509028,0.4589829061566206,Northern Metropolitan,0.1707351488641174
Abbotsford,48 Abbotsford St,0.2857142857142857,h,0.1484383808772127,PI,Nelson,22/08/2016,0.0527426160337552,0.0685772773797337,0.3333333333333333,0.2857142857142857,0.1,0.0044864864864864,0.0559125964010282,0.9927007299270072,Yarra,0.5131458118474796,0.4651822191507904,Northern Metropolitan,0.1707351488641174
Abbotsford,159 Park St,0.1428571428571428,h,0.1132032923666704,S,Nelson,22/08/2016,0.0527426160337552,0.0685772773797337,0.2222222222222222,0.1428571428571428,0.2,0.0026486486486486,0.0411311053984575,0.8807785888077861,Yarra,0.5148411341706378,0.4602024431391101,Northern Metropolitan,0.1707351488641174
Abbotsford,60 Stafford St,0.2857142857142857,h,0.1306798962678994,S,Biggin,25/02/2017,0.0527426160337552,0.0685772773797337,0.3333333333333333,0.0,0.1,0.0045405405405405,0.0398457583547557,0.9172749391727496,Yarra,0.5145585804501067,0.4608122116303264,Northern Metropolitan,0.1707351488641174
Abbotsford,11/205 Gipps St,0.0,u,0.0382230240162363,S,Nelson,26/07/2016,0.0527426160337552,0.0685772773797337,0.1111111111111111,0.0,0.1,0.0,0.0160668380462724,0.9939172749391728,Yarra,0.5077772911574812,0.4611170958759487,Northern Metropolitan,0.1707351488641174
Abbotsford,47 Studley St,0.1428571428571428,h,0.1182771451121885,S,Jellis,27/11/2016,0.0527426160337552,0.0685772773797337,0.2222222222222222,0.0,0.0,0.0043783783783783,0.0292416452442159,0.856447688564477,Yarra,0.5132870887077416,0.4606089554665686,Northern Metropolitan,0.1707351488641174
Abbotsford,45 Yarra St,0.2857142857142857,h,0.1199684293606945,SP,Jellis,27/11/2016,0.0527426160337552,0.0685772773797337,0.3333333333333333,0.1428571428571428,0.1,0.0032432432432432,0.0411311053984575,0.975669099756691,Yarra,0.5124394275461626,0.4604056993028109,Northern Metropolitan,0.1707351488641174
Abbotsford,200 Nicholson St,0.1428571428571428,h,0.0993911376705378,S,Nelson,28/05/2016,0.0527426160337552,0.0685772773797337,0.2222222222222222,0.0,0.0,0.0049189189189189,0.0263496143958868,0.856447688564477,Yarra,0.5125807044064246,0.4626415171040037,Northern Metropolitan,0.1707351488641174
Abbotsford,27 Charles St,0.1428571428571428,h,0.1013643026271282,S,Biggin,30/07/2016,0.0527426160337552,0.0685772773797337,0.2222222222222222,0.0,0.1,0.0046486486486486,0.0260282776349614,0.8929440389294403,Yarra,0.5033977084893309,0.4595926746478369,Northern Metropolitan,0.1707351488641174
Airport West,154 Halsey Rd,0.2857142857142857,t,0.0799413688127184,PI,Nelson,3/09/2016,0.2848101265822784,0.0429887410440121,0.3333333333333333,0.1428571428571428,0.1,0.0081891891891891,0.0723007712082262,0.9975669099756692,Moonee Valley,0.6313945438876516,0.3410943311855874,Western Metropolitan,0.1446310145336531
Airport West,50 Bedford St,0.2857142857142857,h,0.0675386176570075,VB,Nelson,3/12/2016,0.2848101265822784,0.0429887410440121,0.3333333333333333,0.1428571428571428,0.1,0.0,0.0465938303341902,0.9355231143552312,Moonee Valley,0.6281451761016044,0.3385536291388007,Western Metropolitan,0.1446310145336531
Airport West,50 Bedford St,0.2857142857142857,h,0.0720487089863569,SP,Nelson,4/03/2017,0.2848101265822784,0.0429887410440121,0.3333333333333333,0.1428571428571428,0.1,0.0,0.0465938303341902,0.9355231143552312,Moonee Valley,0.6281451761016044,0.3385536291388007,Western Metropolitan,0.1446310145336531
Airport West,23 Hart St,0.1428571428571428,h,0.0532190776863231,S,Nelson,4/03/2017,0.2848101265822784,0.0429887410440121,0.2222222222222222,0.0,0.1,0.0073513513513513,0.0269922879177377,0.9172749391727496,Moonee Valley,0.6152889818176703,0.3512571393727626,Western Metropolitan,0.1446310145336531
Airport West,1/80 Hawker St,0.2857142857142857,t,0.0641560491599955,S,Brad,4/03/2017,0.2848101265822784,0.0429887410440121,0.3333333333333333,0.1428571428571428,0.2,0.0064594594594594,0.0430591259640102,0.9890510948905112,Moonee Valley,0.6260260231976602,0.3468871318522701,Western Metropolitan,0.1446310145336531
Airport West,1/37 Hillside Gr,0.2857142857142857,h,0.0528808208366219,S,Maddison,4/03/2017,0.2848101265822784,0.0429887410440121,0.2222222222222222,0.0,0.1,0.0078378378378378,0.0372750642673521,0.9537712895377128,Moonee Valley,0.6182557958831936,0.3374357202382327,Western Metropolitan,0.1446310145336531
Airport West,2/49 McIntosh St,0.1428571428571428,u,0.0416055925132483,VB,Barry,4/03/2017,0.2848101265822784,0.0429887410440121,0.2222222222222222,0.0,0.1,0.0045405405405405,0.0276349614395886,0.9914841849148416,Moonee Valley,0.6264498537784533,0.3496310900628145,Western Metropolitan,0.1446310145336531
Airport West,2/252 Parer Rd,0.1428571428571428,t,0.0359679783515616,S,Barry,7/05/2016,0.2848101265822784,0.0429887410440121,0.2222222222222222,0.0,0.1,0.0029729729729729,0.0289203084832904,0.9963503649635036,Moonee Valley,0.6263085769181842,0.333980365454579,Western Metropolitan,0.1446310145336531
Airport West,3/19 Hart St,0.1428571428571428,u,0.0432968767617544,S,Barry,7/11/2016,0.2848101265822784,0.0429887410440121,0.2222222222222222,0.0,0.1,0.0038108108108108,0.0234575835475578,0.9939172749391728,Moonee Valley,0.6147238743766223,0.3515620236183565,Western Metropolitan,0.1446310145336531
Airport West,2/62 Clydesdale Rd,0.1428571428571428,u,0.0449881610102604,S,Nelson,10/09/2016,0.2848101265822784,0.0429887410440121,0.2222222222222222,0.0,0.1,0.0032432432432432,0.0302056555269922,0.9927007299270072,Moonee Valley,0.6237655934334541,0.3423138681680484,Western Metropolitan,0.1446310145336531
Airport West,13 Etzel St,0.2857142857142857,h,0.0759950388995377,S,Nelson,10/12/2016,0.2848101265822784,0.0429887410440121,0.3333333333333333,0.0,0.1,0.0,0.0337403598971722,0.9172749391727496,Moonee Valley,0.6261673000579293,0.3413992154312097,Western Metropolitan,0.1446310145336531
Airport West,1/43 Cameron St,0.2857142857142857,u,0.0700191678881497,S,Nelson,11/02/2017,0.2848101265822784,0.0429887410440121,0.3333333333333333,0.0,0.1,0.0071621621621621,0.0417737789203084,0.969586374695864,Moonee Valley,0.6141587669355602,0.3487164373259759,Western Metropolitan,0.1446310145336531
Airport West,2/40 Earl St,0.2857142857142857,t,0.0641560491599955,PI,Brad,15/10/2016,0.2848101265822784,0.0429887410440121,0.3333333333333333,0.1428571428571428,0.2,0.0044594594594594,0.0427377892030848,0.9890510948905112,Moonee Valley,0.6186796264639867,0.3502408585540308,Western Metropolitan,0.1446310145336531
Airport West,180 Parer Rd,0.2857142857142857,h,0.0788138459803811,S,Barry,16/04/2016,0.2848101265822784,0.0429887410440121,0.3333333333333333,0.0,0.2,0.0262432432432432,0.0363110539845758,0.929440389294404,Moonee Valley,0.6305468827260725,0.3390617695481523,Western Metropolitan,0.1446310145336531
Airport West,174 Parer Rd,0.1428571428571428,h,0.061337242079152,S,Barry,16/07/2016,0.2848101265822784,0.0429887410440121,0.2222222222222222,0.0,0.1,0.0165405405405405,0.0321336760925449,0.9476885644768858,Moonee Valley,0.6304056058658176,0.339569909957504,Western Metropolitan,0.1446310145336531
Airport West,478 Fullarton Rd,0.2857142857142857,h,0.0765588003157064,PI,Barry,18/03/2017,0.2848101265822784,0.0429887410440121,0.3333333333333333,0.2857142857142857,0.2,0.015,0.0616966580976863,0.9537712895377128,Moonee Valley,0.6165604735600425,0.3323543161446594,Western Metropolitan,0.1446310145336531
Airport West,144 Marshall Rd,0.2857142857142857,h,0.0658473334085015,S,Rendina,18/03/2017,0.2848101265822784,0.0429887410440121,0.3333333333333333,0.1428571428571428,0.2,0.0114054054054054,0.0404884318766066,0.9720194647201944,Moonee Valley,0.6336549736518649,0.3423138681680484,Western Metropolitan,0.1446310145336531
Airport West,3/7 South Rd,0.2857142857142857,t,0.0461156838425978,SP,Nelson,18/06/2016,0.2848101265822784,0.0429887410440121,0.2222222222222222,0.1428571428571428,0.1,0.0043513513513513,0.0324550128534704,0.9902676399026766,Moonee Valley,0.62418942401424,0.3433301489867801,Western Metropolitan,0.1446310145336531
Airport West,37 North St,0.2857142857142857,t,0.0782500845642124,SP,Barry,19/11/2016,0.2848101265822784,0.0429887410440121,0.3333333333333333,0.1428571428571428,0.1,0.0079189189189189,0.0327763496143958,0.929440389294404,Moonee Valley,0.6285690066823975,0.3406878188581004,Western Metropolitan,0.1446310145336531
Airport West,10 Hilbert Rd,0.2857142857142857,h,0.0624647649114894,S,Barry,22/05/2016,0.2848101265822784,0.0429887410440121,0.3333333333333333,0.0,0.1,0.0156486486486486,0.0363110539845758,0.9476885644768858,Moonee Valley,0.6248958083155571,0.3363178113376364,Western Metropolitan,0.1446310145336531
Airport West,85 Roberts Rd,0.4285714285714285,h,0.0867065058067425,S,Harcourts,27/11/2016,0.2848101265822784,0.0429887410440121,0.4444444444444444,0.1428571428571428,0.3,0.0169729729729729,0.0469151670951156,0.9476885644768858,Moonee Valley,0.6206575025076617,0.3369275798288527,Western Metropolitan,0.1446310145336531
Albert Park,105 Kerferd Rd,0.1428571428571428,h,0.1289886120193933,S,hockingstuart,3/09/2016,0.0696202531645569,0.2108495394063458,0.2222222222222222,0.0,0.0,0.0032432432432432,0.0263496143958868,0.856447688564477,Port Phillip,0.4507014396112083,0.4198560946360601,Southern Metropolitan,0.1359766708997695
Albert Park,94 Graham St,0.2857142857142857,h,0.1938211748787912,S,Greg,4/03/2017,0.0696202531645569,0.2108495394063458,0.3333333333333333,0.1428571428571428,0.0,0.0034594594594594,0.0427377892030848,0.8442822384428224,Port Phillip,0.4516903776330494,0.413047013150674,Southern Metropolitan,0.1359766708997695
Albert Park,396 Montague St,0.1428571428571428,h,0.1471417296200248,S,RT,4/03/2017,0.0696202531645569,0.2108495394063458,0.2222222222222222,0.0,0.0,0.0035135135135135,0.0260282776349614,0.856447688564477,Port Phillip,0.4546571916985726,0.4208723754547918,Southern Metropolitan,0.1359766708997695
Albert Park,104 Richardson St,0.4285714285714285,h,0.2445597023339722,S,Marshall,7/05/2016,0.0696202531645569,0.2108495394063458,0.4444444444444444,0.1428571428571428,0.1,0.0041351351351351,0.0578406169665809,0.8321167883211678,Port Phillip,0.4523967619343594,0.4166039960161924,Southern Metropolitan,0.1359766708997695
Albert Park,1 Moubray St,0.2857142857142857,h,0.1881835607171045,VB,Greg,7/11/2016,0.0696202531645569,0.2108495394063458,0.3333333333333333,0.1428571428571428,0.1,0.0035675675675675,0.0510925449871465,0.97323600973236,Port Phillip,0.4569176214627788,0.4162991117705701,Southern Metropolitan,0.1359766708997695
Albert Park,29 Faussett St,0.1428571428571428,h,0.2242642913518998,S,Greg,10/09/2016,0.0696202531645569,0.2108495394063458,0.2222222222222222,0.0,0.1,0.0053783783783783,0.0343830334190231,0.856447688564477,Port Phillip,0.4559286834409448,0.4197544665541954,Southern Metropolitan,0.1359766708997695
Albert Park,24 Kerferd Pl,0.2857142857142857,h,0.1881835607171045,S,Marshall,10/09/2016,0.0696202531645569,0.2108495394063458,0.3333333333333333,0.1428571428571428,0.1,0.0024324324324324,0.0392030848329048,0.856447688564477,Port Phillip,0.4560699603011997,0.4214821439460081,Southern Metropolitan,0.1359766708997695
Albert Park,4a Gatehouse La,0.2857142857142857,h,0.1397000789265982,S,Greg,12/06/2016,0.0696202531645569,0.2108495394063458,0.3333333333333333,0.1428571428571428,0.2,0.0,0.0273136246786632,0.978102189781022,Port Phillip,0.4518316544933114,0.415384459033703,Southern Metropolitan,0.1359766708997695
Albert Park,65 Graham St,0.1428571428571428,h,0.1343443454729958,S,Greg,15/10/2016,0.0696202531645569,0.2108495394063458,0.2222222222222222,0.0,0.0,0.004027027027027,0.031491002570694,0.8442822384428224,Port Phillip,0.4529618693754216,0.4123356165775931,Southern Metropolitan,0.1359766708997695
Albert Park,364 Montague St,0.1428571428571428,h,0.1614048934490923,S,Greg,15/10/2016,0.0696202531645569,0.2108495394063458,0.2222222222222222,0.0,0.0,0.0038108108108108,0.0266709511568123,0.8442822384428224,Port Phillip,0.4556461297204137,0.4205674912091695,Southern Metropolitan,0.1359766708997695
Albert Park,86 Mills St,0.2857142857142857,h,0.2107340173638516,VB,RT,16/04/2016,0.0696202531645569,0.2108495394063458,0.3333333333333333,0.1428571428571428,0.1,0.0057027027027027,0.0472365038560411,0.856447688564477,Port Phillip,0.4491473941483122,0.4218886562735235,Southern Metropolitan,0.1359766708997695
Albert Park,55 Merton St,0.2857142857142857,h,0.2220092456872251,SP,Marshall,23/04/2016,0.0696202531645569,0.2108495394063458,0.2222222222222222,0.0,0.1,0.0032432432432432,0.0395244215938303,0.856447688564477,Port Phillip,0.4552222991396206,0.4189414418992214,Southern Metropolitan,0.1359766708997695
Albert Park,49 Page St,0.2857142857142857,h,0.2107340173638516,PI,Marshall,24/09/2016,0.0696202531645569,0.2108495394063458,0.3333333333333333,0.0,0.1,0.0064324324324324,0.0420951156812339,0.8442822384428224,Port Phillip,0.4504188858906843,0.4171121364255441,Southern Metropolitan,0.1359766708997695
Albert Park,13/52 Moubray St,0.0,u,0.0351223362273086,S,Marshall,25/02/2017,0.0696202531645569,0.2108495394063458,0.1111111111111111,0.0,0.0,0.0,0.0109254498714652,0.9416058394160582,Port Phillip,0.4560699603011997,0.4159942275249477,Southern Metropolitan,0.1359766708997695
Albert Park,27 Barrett St,0.4285714285714285,h,0.2265193370165746,S,Greg,27/06/2016,0.0696202531645569,0.2108495394063458,0.3333333333333333,0.1428571428571428,0.1,0.0049459459459459,0.0465938303341902,0.8321167883211678,Port Phillip,0.4542333611177795,0.4137584097237834,Southern Metropolitan,0.1359766708997695
Albert Park,6 Brooke St,0.1428571428571428,h,0.0957266884654414,S,Greg,28/05/2016,0.0696202531645569,0.2108495394063458,0.2222222222222222,0.0,0.0,0.0021351351351351,0.0218508997429305,0.8442822384428224,Port Phillip,0.4608733735501431,0.416197483688677,Southern Metropolitan,0.1359766708997695
Albert Park,17 Reed St,0.2857142857142857,h,0.1814184237230804,PI,Marshall,28/08/2016,0.0696202531645569,0.2108495394063458,0.3333333333333333,0.1428571428571428,0.2,0.0039729729729729,0.0430591259640102,0.8442822384428224,Port Phillip,0.4522554850741045,0.409490030285184,Southern Metropolitan,0.1359766708997695
Albert Park,9 Durham St,0.0,h,0.0962904498816101,S,Marshall,30/07/2016,0.0696202531645569,0.2108495394063458,0.1111111111111111,0.0,0.0,0.0021891891891891,0.0173521850899742,0.856447688564477,Port Phillip,0.4574827289038339,0.4139616658875127,Southern Metropolitan,0.1359766708997695
Alphington,44 Shiers St,0.4285714285714285,h,0.1788814973503213,S,Collins,8/10/2016,0.1350210970464135,0.0798362333674513,0.4444444444444444,0.1428571428571428,0.1,0.0161891891891891,0.0652313624678663,0.8868613138686132,Darebin,0.5555288699263912,0.4965852964491262,Northern Metropolitan,0.0856968157659564
Alphington,3/19 Harker St,0.1428571428571428,u,0.0444807757357086,S,Miles,12/11/2016,0.1350210970464135,0.0798362333674513,0.2222222222222222,0.0,0.1,0.0023783783783783,0.0192802056555269,0.929440389294404,Darebin,0.5450743822669324,0.4961787841216107,Northern Metropolitan,0.0856968157659564
Alphington,4/2 Miller St,0.1428571428571428,t,0.0759950388995377,S,Miles,12/11/2016,0.1350210970464135,0.0798362333674513,0.2222222222222222,0.1428571428571428,0.3,0.0041891891891891,0.0449871465295629,0.9829683698296836,Darebin,0.5432377830835122,0.4963820402853685,Northern Metropolitan,0.0856968157659564
Alphington,10 Bennett St,0.4285714285714285,h,0.1915661292141166,S,Nelson,19/11/2016,0.1350210970464135,0.0798362333674513,0.4444444444444444,0.1428571428571428,0.2,0.0163783783783783,0.0359897172236503,0.9416058394160582,Darebin,0.551855671559558,0.4971950649403425,Northern Metropolitan,0.0856968157659564
Alphington,38 Bennett St,0.4285714285714285,h,0.2220092456872251,S,Nelson,19/11/2016,0.1350210970464135,0.0798362333674513,0.4444444444444444,0.1428571428571428,0.2,0.0155405405405405,0.0870822622107969,0.9878345498783456,Darebin,0.5546812087648121,0.4974999491859648,Northern Metropolitan,0.0856968157659564
Alphington,2c Hamilton St,0.2857142857142857,h,0.0827601758935618,SP,hockingstuart,22/05/2016,0.1350210970464135,0.0798362333674513,0.3333333333333333,0.0,0.1,0.0048648648648648,0.0420951156812339,0.9902676399026766,Darebin,0.5435203368040362,0.4897762149637401,Northern Metropolitan,0.0856968157659564
Alphington,5/5 Yarana Rd,0.1428571428571428,u,0.0292028413575374,VB,Nelson,22/05/2016,0.1350210970464135,0.0798362333674513,0.2222222222222222,0.0,0.1,0.0,0.0192802056555269,0.929440389294404,Darebin,0.5476173657516696,0.4969918087765848,Northern Metropolitan,0.0856968157659564
Alphington,1/14 Fulham Rd,0.1428571428571428,u,0.0429586199120532,S,Love,25/02/2017,0.1350210970464135,0.0798362333674513,0.2222222222222222,0.0,0.1,0.0,0.0196015424164524,0.9355231143552312,Darebin,0.5430965062232431,0.4917071485192537,Northern Metropolitan,0.0856968157659564
Alphington,11 Margaret Gr,0.4285714285714285,h,0.199458789040478,SP,McGrath,27/11/2016,0.1350210970464135,0.0798362333674513,0.4444444444444444,0.1428571428571428,0.2,0.015027027027027,0.0874035989717223,0.8929440389294403,Yarra,0.5375867086729897,0.4879469094900344,Northern Metropolitan,0.0856968157659564
Alphington,42 Shiers St,0.4285714285714285,h,0.2050964032021648,S,Jellis,30/07/2016,0.1350210970464135,0.0798362333674513,0.4444444444444444,0.1428571428571428,0.3,0.0159189189189189,0.0674807197943444,0.8807785888077861,Darebin,0.5552463162058672,0.4964836683672331,Northern Metropolitan,0.0856968157659564
Altona,158 Queen St,0.2857142857142857,h,0.0438606381779231,VB,Greg,3/09/2016,0.2911392405063291,0.0184237461617193,0.3333333333333333,0.1428571428571428,0.1,0.0095135135135135,0.0777634961439588,0.9963503649635036,Hobsons Bay,0.4166537162878114,0.2872314477936299,Western Metropolitan,0.2310333474436762
Altona,1/123 Blyth St,0.1428571428571428,t,0.0664110948246702,S,hockingstuart,4/02/2016,0.2911392405063291,0.0184237461617193,0.2222222222222222,0.0,0.2,0.0078918918918918,0.0401670951156812,0.9939172749391728,Hobsons Bay,0.4184903154712316,0.2818451594544626,Western Metropolitan,0.2310333474436762
Altona,4 Blyth St,0.2857142857142857,h,0.1115120081181644,S,Barlow,4/03/2017,0.2911392405063291,0.0184237461617193,0.3333333333333333,0.0,0.2,0.0136756756756756,0.0385604113110539,0.8929440389294403,Hobsons Bay,0.4176426543096454,0.2999349580276202,Western Metropolitan,0.2310333474436762
Altona,1/170 Blyth St,0.2857142857142857,u,0.056263389333634,S,Barlow,6/08/2016,0.2911392405063291,0.0184237461617193,0.2222222222222222,0.0,0.2,0.0084054054054054,0.0302056555269922,0.9233576642335766,Hobsons Bay,0.4163711625672874,0.2763572430334022,Western Metropolitan,0.2310333474436762
Altona,156 Maidstone St,0.2857142857142857,h,0.059645957830646,VB,Greg,7/05/2016,0.2911392405063291,0.0184237461617193,0.3333333333333333,0.0,0.1,0.0162702702702702,0.0395244215938303,0.9233576642335766,Hobsons Bay,0.4285209725499044,0.2736132848228578,Western Metropolitan,0.2310333474436762
Altona,1/136 Queen St,0.1428571428571428,u,0.0506257751719472,S,Barlow,8/10/2016,0.2911392405063291,0.0184237461617193,0.2222222222222222,0.0,0.1,0.006081081081081,0.0298843187660668,0.9635036496350364,Hobsons Bay,0.4172188237288665,0.2892640094310934,Western Metropolitan,0.2310333474436762
Altona,3/26 Grieve Pde,0.1428571428571428,u,0.0427331153455857,S,Village,10/09/2016,0.2911392405063291,0.0184237461617193,0.2222222222222222,0.0,0.1,0.0034324324324324,0.0244215938303341,0.9659367396593674,Hobsons Bay,0.4186315923314936,0.2803207382263792,Western Metropolitan,0.2310333474436762
Altona,4/5 Rose St,0.1428571428571428,u,0.0331491712707182,S,hockingstuart,10/09/2016,0.2911392405063291,0.0184237461617193,0.2222222222222222,0.0,0.2,0.0031081081081081,0.0183161953727506,0.9537712895377128,Hobsons Bay,0.4152409476851773,0.2806256224720016,Western Metropolitan,0.2310333474436762
Altona,4/31 Millers Rd,0.1428571428571428,u,0.0293155936407712,SP,Greg,11/02/2017,0.2911392405063291,0.0184237461617193,0.2222222222222222,0.0,0.1,0.0,0.0208868894601542,0.9355231143552312,Hobsons Bay,0.4197618072135967,0.3008496107644589,Western Metropolitan,0.2310333474436762
Altona,24 Wren St,0.4285714285714285,h,0.0805051302288871,S,hockingstuart,11/02/2017,0.2911392405063291,0.0184237461617193,0.4444444444444444,0.0,0.2,0.0201351351351351,0.0417737789203084,0.9172749391727496,Hobsons Bay,0.4225873444188579,0.2775767800158348,Western Metropolitan,0.2310333474436762
Altona,4/57 Blyth St,0.2857142857142857,u,0.0675386176570075,SP,Barlow,13/08/2016,0.2911392405063291,0.0184237461617193,0.3333333333333333,0.1428571428571428,0.1,0.0018648648648648,0.0453084832904884,0.9951338199513382,Hobsons Bay,0.4194792534930656,0.290890058741013,Western Metropolitan,0.2310333474436762
Altona,3/46 Sargood St,0.1428571428571428,u,0.0356297215018604,S,Burnham,15/10/2016,0.2911392405063291,0.0184237461617193,0.2222222222222222,0.0,0.1,0.0037027027027027,0.0247429305912596,0.9659367396593674,Hobsons Bay,0.423011174999651,0.2922112238053671,Western Metropolitan,0.2310333474436762
Altona,22 Fenfield St,0.2857142857142857,h,0.0616754989288533,S,hockingstuart,16/04/2016,0.2911392405063291,0.0184237461617193,0.3333333333333333,0.0,0.2,0.0163783783783783,0.0279562982005141,0.9172749391727496,Hobsons Bay,0.4296511874320146,0.2744263094778318,Western Metropolitan,0.2310333474436762
Altona,5/8 David St,0.1428571428571428,u,0.0506257751719472,PI,Biggin,16/07/2016,0.2911392405063291,0.0184237461617193,0.2222222222222222,0.1428571428571428,0.1,0.0047297297297297,0.0244215938303341,0.9939172749391728,Hobsons Bay,0.4184903154712316,0.2890607532673357,Western Metropolitan,0.2310333474436762
Altona,27 McIntyre Dr,0.2857142857142857,h,0.0799413688127184,SP,Greg,18/03/2017,0.2911392405063291,0.0184237461617193,0.3333333333333333,0.1428571428571428,0.2,0.0144324324324324,0.0437017994858611,0.9355231143552312,Hobsons Bay,0.4307814023141176,0.2867233073843067,Western Metropolitan,0.2310333474436762
Altona,3/20 Mulga St,0.2857142857142857,u,0.050287518322246,S,Williams,23/04/2016,0.2911392405063291,0.0184237461617193,0.3333333333333333,0.1428571428571428,0.1,0.0055405405405405,0.0363110539845758,0.98661800486618,Hobsons Bay,0.4189141460520176,0.2770686396064832,Western Metropolitan,0.2310333474436762
Altona,104 Maidstone St,0.1428571428571428,h,0.0818581576276919,SP,hockingstuart,27/11/2016,0.2911392405063291,0.0184237461617193,0.2222222222222222,0.1428571428571428,0.1,0.0182432432432432,0.0321336760925449,0.9172749391727496,Hobsons Bay,0.423293728720175,0.2749344498872119,Western Metropolitan,0.2310333474436762
Altona,5/57 Blyth St,0.2857142857142857,u,0.0675386176570075,SP,Barlow,28/05/2016,0.2911392405063291,0.0184237461617193,0.3333333333333333,0.1428571428571428,0.1,0.0018918918918918,0.0009640102827763,0.9951338199513382,Hobsons Bay,0.4194792534930656,0.2907884306591484,Western Metropolitan,0.2310333474436762
Altona,2/60 David St,0.1428571428571428,h,0.0456195737963693,SP,Compton,30/07/2016,0.2911392405063291,0.0184237461617193,0.2222222222222222,0.0,0.1,0.0041621621621621,0.0292416452442159,0.97323600973236,Hobsons Bay,0.424282666742009,0.2894672655948227,Western Metropolitan,0.2310333474436762
Altona North,4 Knapp St,0.2857142857142857,h,0.073288984101928,S,Jas,3/09/2016,0.2341772151898734,0.0255885363357215,0.3333333333333333,0.0,0.2,0.0144054054054054,0.0375964010282776,0.9416058394160582,Hobsons Bay,0.4744359521354084,0.2973942559808336,Western Metropolitan,0.2230845209538592
Altona North,3/66 Marion St,0.1428571428571428,t,0.0326981621377832,S,hockingstuart,4/03/2017,0.2341772151898734,0.0255885363357215,0.2222222222222222,0.0,0.1,0.002081081081081,0.0247429305912596,0.9890510948905112,Hobsons Bay,0.4659593405196247,0.3155856826358274,Western Metropolitan,0.2230845209538592
Altona North,33 Carthy St,0.2857142857142857,h,0.0622392603450219,S,FN,4/06/2016,0.2341772151898734,0.0255885363357215,0.3333333333333333,0.0,0.2,0.0144324324324324,0.0536632390745501,0.9379562043795622,Hobsons Bay,0.4754248901572424,0.2979023963901568,Western Metropolitan,0.2230845209538592
Altona North,1/5 Little St,0.2857142857142857,h,0.0664110948246702,VB,Greg,6/08/2016,0.2341772151898734,0.0255885363357215,0.3333333333333333,0.1428571428571428,0.1,0.0,0.0417737789203084,0.9927007299270072,Hobsons Bay,0.4620035884322533,0.3210735990569162,Western Metropolitan,0.2230845209538592
Altona North,1/95 Mills St,0.2857142857142857,h,0.0515277934378171,S,Williams,7/05/2016,0.2341772151898734,0.0255885363357215,0.3333333333333333,0.0,0.1,0.0088648648648648,0.037917737789203,0.9416058394160582,Hobsons Bay,0.4618623115719842,0.3182280127644787,Western Metropolitan,0.2230845209538592
Altona North,5 Binns St,0.2857142857142857,h,0.0652835719923328,PI,Village,7/11/2016,0.2341772151898734,0.0255885363357215,0.3333333333333333,0.0,0.3,0.0145945945945945,0.0372750642673521,0.929440389294404,Hobsons Bay,0.4740121215546082,0.3002398422732142,Western Metropolitan,0.2230845209538592
Altona North,2/36 May St,0.2857142857142857,h,0.061337242079152,S,hockingstuart,14/05/2016,0.2341772151898734,0.0255885363357215,0.3333333333333333,0.1428571428571428,0.2,0.0046216216216216,0.035025706940874,0.9927007299270072,Hobsons Bay,0.4679372165632998,0.3181263846826141,Western Metropolitan,0.2230845209538592
Altona North,11 Beevers St,0.2857142857142857,h,0.0650580674258653,S,Greg,15/10/2016,0.2341772151898734,0.0255885363357215,0.3333333333333333,0.0,0.2,0.0158108108108108,0.0311696658097686,0.929440389294404,Hobsons Bay,0.4790980885240827,0.3149759141446111,Western Metropolitan,0.2230845209538592
Altona North,2 Gadsden St,0.2857142857142857,h,0.0673694892321569,S,Jas,22/08/2016,0.2341772151898734,0.0255885363357215,0.3333333333333333,0.0,0.1,0.0143513513513513,0.0504498714652956,0.929440389294404,Hobsons Bay,0.4764138281790835,0.3009512388463236,Western Metropolitan,0.2230845209538592
Altona North,24 Hansen St,0.2857142857142857,h,0.0902018265869883,S,hockingstuart,22/08/2016,0.2341772151898734,0.0255885363357215,0.3333333333333333,0.1428571428571428,0.1,0.0159459459459459,0.0514138817480719,0.9172749391727496,Hobsons Bay,0.4615797578514602,0.3277810524604092,Western Metropolitan,0.2230845209538592
Altona North,6 Hill St,0.2857142857142857,h,0.077122561731875,S,hockingstuart,25/02/2017,0.2341772151898734,0.0255885363357215,0.3333333333333333,0.1428571428571428,0.3,0.015,0.0417737789203084,0.929440389294404,Hobsons Bay,0.470621476908299,0.3012561230919175,Western Metropolitan,0.2230845209538592
Altona North,4/221 Blackshaws Rd,0.1428571428571428,u,0.0181531176006314,S,Jas,28/08/2016,0.2341772151898734,0.0255885363357215,0.2222222222222222,0.0,0.1,0.0041351351351351,0.0224935732647814,0.9416058394160582,Hobsons Bay,0.4686436008646168,0.3277810524604092,Western Metropolitan,0.2230845209538592
Armadale,8/19 Mercer Rd,0.1428571428571428,u,0.0527680685533882,S,Jellis,3/09/2016,0.1329113924050632,0.1463664278403276,0.2222222222222222,0.0,0.1,0.0,0.0244215938303341,0.9343065693430656,Stonnington,0.4388341833491083,0.4917071485192537,Southern Metropolitan,0.2091623159776116
Armadale,14/71 Denbigh Rd,0.2857142857142857,u,0.0974179727139474,S,Marshall,3/12/2016,0.1329113924050632,0.1463664278403276,0.3333333333333333,0.1428571428571428,0.2,0.0,0.0321336760925449,0.975669099756691,Stonnington,0.4375626916067361,0.4813410841683776,Southern Metropolitan,0.2091623159776116
Armadale,4/769 High St,0.2857142857142857,t,0.1210959521930319,S,Jellis,3/12/2016,0.1329113924050632,0.1463664278403276,0.3333333333333333,0.1428571428571428,0.2,0.0027297297297297,0.0337403598971722,0.978102189781022,Stonnington,0.4392580139299014,0.4788003821215909,Southern Metropolitan,0.2091623159776116
Armadale,7 Llaneast St,0.2857142857142857,h,0.2038561280865937,S,Jellis,3/12/2016,0.1329113924050632,0.1463664278403276,0.3333333333333333,0.1428571428571428,0.2,0.008,0.0482005141388174,0.8430656934306568,Stonnington,0.4288035262704284,0.4929266855017431,Southern Metropolitan,0.2091623159776116
Armadale,28 Cambridge St,0.2857142857142857,h,0.196076220543466,S,Hodges,4/03/2017,0.1329113924050632,0.1463664278403276,0.3333333333333333,0.0,0.1,0.0058648648648648,0.0372750642673521,0.8418491484184913,Stonnington,0.4319116171962207,0.4835769019695703,Southern Metropolitan,0.2091623159776116
Armadale,3/20 Mercer Rd,0.2857142857142857,t,0.2014883301386853,SP,Jellis,4/03/2017,0.1329113924050632,0.1463664278403276,0.3333333333333333,0.1428571428571428,0.2,0.0,0.0530205655526992,0.9720194647201944,Stonnington,0.4396818445106802,0.4922152889286337,Southern Metropolitan,0.2091623159776116
Armadale,12 Willis St,0.2857142857142857,h,0.2163716315255383,S,Marshall,4/03/2017,0.1329113924050632,0.1463664278403276,0.3333333333333333,0.1428571428571428,0.1,0.0055405405405405,0.0372750642673521,0.8686131386861315,Stonnington,0.434454600680958,0.493638082074824,Southern Metropolitan,0.2091623159776116
Armadale,10 William St,0.0,h,0.147028977336791,SP,Jellis,8/10/2016,0.1329113924050632,0.1463664278403276,0.2222222222222222,0.1428571428571428,0.1,0.0038918918918918,0.0343830334190231,0.856447688564477,Stonnington,0.435867369283585,0.4882517937356283,Southern Metropolitan,0.2091623159776116
Armadale,15/405 Dandenong Rd,0.0,u,0.0168000902018265,PI,hockingstuart,10/09/2016,0.1329113924050632,0.1463664278403276,0.1111111111111111,0.0,0.1,0.0,0.012210796915167,0.9476885644768858,Stonnington,0.4280971419691184,0.4838817862151643,Southern Metropolitan,0.2091623159776116
Armadale,8/58 Sutherland Rd,0.1428571428571428,u,0.0520351787123689,S,hockingstuart,10/12/2016,0.1329113924050632,0.1463664278403276,0.2222222222222222,0.0,0.1,0.0,0.0234575835475578,0.9416058394160582,Stonnington,0.434454600680958,0.4827638773145963,Southern Metropolitan,0.2091623159776116
Armadale,40 New St,0.1428571428571428,h,0.1216597136092006,S,Marshall,12/11/2016,0.1329113924050632,0.1463664278403276,0.2222222222222222,0.0,0.0,0.0067297297297297,0.0308483290488431,0.8686131386861315,Stonnington,0.4388341833491083,0.4813410841683776,Southern Metropolitan,0.2091623159776116
Armadale,791 High St,0.2857142857142857,h,0.1881835607171045,PI,RT,15/10/2016,0.1329113924050632,0.1463664278403276,0.3333333333333333,0.1428571428571428,0.2,0.0109459459459459,0.0388817480719794,0.8686131386861315,Stonnington,0.4385516296285843,0.4798166629402942,Southern Metropolitan,0.2091623159776116
Armadale,25 Llaneast St,0.4285714285714285,h,0.2332844740105987,PI,Jellis,15/10/2016,0.1329113924050632,0.1463664278403276,0.4444444444444444,0.0,0.2,0.0133783783783783,0.0523778920308483,0.856447688564477,Stonnington,0.4289448031306975,0.4919104046830114,Southern Metropolitan,0.2091623159776116
Armadale,10/581 Orrong Rd,0.0,u,0.0348404555192242,SP,Jellis,18/03/2017,0.1329113924050632,0.1463664278403276,0.1111111111111111,0.0,0.1,0.0,0.0170308483290488,0.9416058394160582,Stonnington,0.4405295056722664,0.4767678204841559,Southern Metropolitan,0.2091623159776116
Armadale,14 New St,0.2857142857142857,h,0.1318074191002367,VB,Jellis,18/06/2016,0.1329113924050632,0.1463664278403276,0.2222222222222222,0.0,0.2,0.0057297297297297,0.0340616966580976,0.856447688564477,Stonnington,0.4389754602093774,0.4802231752678096,Southern Metropolitan,0.2091623159776116
Armadale,6/51 Armadale St,0.1428571428571428,u,0.0646070582929304,SP,Greg,19/11/2016,0.1329113924050632,0.1463664278403276,0.2222222222222222,0.0,0.1,0.0,0.0237789203084832,0.9403892944038932,Stonnington,0.4345958775412128,0.4839834142970289,Southern Metropolitan,0.2091623159776116
Armadale,12/41 Kooyong Rd,0.1428571428571428,u,0.0551358665012966,VB,Marshall,19/11/2016,0.1329113924050632,0.1463664278403276,0.3333333333333333,0.0,0.1,0.0,0.031491002570694,0.9416058394160582,Stonnington,0.4313465097551656,0.48520295127949,Southern Metropolitan,0.2091623159776116
Armadale,63 Denbigh Rd,0.2857142857142857,h,0.199458789040478,S,Marshall,22/05/2016,0.1329113924050632,0.1463664278403276,0.3333333333333333,0.0,0.2,0.0088648648648648,0.0347043701799485,0.856447688564477,Stonnington,0.4365737535849021,0.4811378280046483,Southern Metropolitan,0.2091623159776116
Armadale,1/14 Denbigh Rd,0.1428571428571428,u,0.0526553162701544,S,hockingstuart,25/02/2017,0.1329113924050632,0.1463664278403276,0.2222222222222222,0.0,0.1,0.0,0.0282776349614395,0.9416058394160582,Stonnington,0.4317703403359587,0.4809345718408906,Southern Metropolitan,0.2091623159776116
Armadale,75 Sutherland Rd,0.2857142857142857,h,0.1301161348517307,S,Marshall,25/02/2017,0.1329113924050632,0.1463664278403276,0.3333333333333333,0.0,0.2,0.005027027027027,0.0257069408740359,0.8807785888077861,Stonnington,0.4372801378862121,0.4826622492327033,Southern Metropolitan,0.2091623159776116
Armadale,1/403 Dandenong Rd,0.1428571428571428,u,0.0438606381779231,S,hockingstuart,27/06/2016,0.1329113924050632,0.1463664278403276,0.1111111111111111,0.0,0.1,0.0,0.0244215938303341,0.9416058394160582,Stonnington,0.4282384188293804,0.483678530051435,Southern Metropolitan,0.2091623159776116
Armadale,3/769 High St,0.2857142857142857,t,0.1093697147367234,S,Jellis,27/11/2016,0.1329113924050632,0.1463664278403276,0.3333333333333333,0.0,0.2,0.0027837837837837,0.0009640102827763,0.978102189781022,Stonnington,0.4389754602093774,0.4788003821215909,Southern Metropolitan,0.2091623159776116
Armadale,1/31 Mercer Rd,0.2857142857142857,u,0.0832111850264968,S,Jellis,28/05/2016,0.1329113924050632,0.1463664278403276,0.2222222222222222,0.0,0.1,0.0,0.0292416452442159,0.9051094890510948,Stonnington,0.4406707825325284,0.4919104046830114,Southern Metropolitan,0.2091623159776116
Armadale,5/555 Orrong Rd,0.0,u,0.0491599954899086,S,hockingstuart,28/08/2016,0.1329113924050632,0.1463664278403276,0.1111111111111111,0.0,0.1,0.0,0.0170308483290488,0.9939172749391728,Stonnington,0.4379865221875292,0.4765645643204266,Southern Metropolitan,0.2091623159776116
Ascot Vale,30 Rothwell St,0.2857142857142857,h,0.091216597136092,S,Nelson,3/12/2016,0.1244725738396624,0.0327533265097237,0.3333333333333333,0.0,0.2,0.008054054054054,0.0347043701799485,0.8807785888077861,Moonee Valley,0.5470522583106074,0.3832699851622863,Western Metropolitan,0.2905789944028973
Ascot Vale,9/5 Rothwell St,0.1428571428571428,u,0.0378847671665351,SP,Brad,3/12/2016,0.1244725738396624,0.0327533265097237,0.2222222222222222,0.0,0.1,0.0,0.0199228791773778,0.9537712895377128,Moonee Valley,0.5493126880748207,0.383879753653531,Western Metropolitan,0.2905789944028973
Ascot Vale,7 Francis St,0.2857142857142857,h,0.1408276017589356,SP,Nelson,4/03/2017,0.1244725738396624,0.0327533265097237,0.3333333333333333,0.1428571428571428,0.2,0.0074864864864864,0.0559125964010282,0.8686131386861315,Moonee Valley,0.5470522583106074,0.385912315290966,Western Metropolitan,0.2905789944028973
Ascot Vale,2/21 Harold St,0.1428571428571428,u,0.040478069680911,VB,Jellis,4/03/2017,0.1244725738396624,0.0327533265097237,0.2222222222222222,0.0,0.1,0.0114324324324324,0.0199228791773778,0.9416058394160582,Moonee Valley,0.5528446095813919,0.3649769304253993,Western Metropolitan,0.2905789944028973
Ascot Vale,44 The Parade,0.4285714285714285,h,0.1938211748787912,S,Brad,4/03/2017,0.1244725738396624,0.0327533265097237,0.4444444444444444,0.2857142857142857,0.1,0.0129189189189189,0.0867609254498714,0.856447688564477,Moonee Valley,0.5538335476032401,0.3816439358523666,Western Metropolitan,0.2905789944028973
Ascot Vale,98 Epsom Rd,0.2857142857142857,h,0.0947119179163378,SP,Nelson,4/06/2016,0.1244725738396624,0.0327533265097237,0.3333333333333333,0.1428571428571428,0.2,0.0077027027027027,0.0411311053984575,0.856447688564477,Moonee Valley,0.5508667335377169,0.3727006646476525,Western Metropolitan,0.2905789944028973
Ascot Vale,8 Geddes St,0.1428571428571428,h,0.0652835719923328,PI,Nelson,4/06/2016,0.1244725738396624,0.0327533265097237,0.2222222222222222,0.0,0.1,0.0057837837837837,0.0247429305912596,0.8442822384428224,Moonee Valley,0.5471935351708765,0.3778836968230905,Western Metropolitan,0.2905789944028973
Ascot Vale,119 Roseberry St,0.1428571428571428,h,0.0697936633216822,SP,Maddison,4/06/2016,0.1244725738396624,0.0327533265097237,0.2222222222222222,0.0,0.1,0.0061081081081081,0.0295629820051413,0.8807785888077861,Moonee Valley,0.5515731178390268,0.3729039208114102,Western Metropolitan,0.2905789944028973
Ascot Vale,10 Fenton St,0.1428571428571428,h,0.1039576051415041,S,Nelson,6/08/2016,0.1244725738396624,0.0327533265097237,0.2222222222222222,0.0,0.1,0.0072702702702702,0.035025706940874,0.856447688564477,Moonee Valley,0.5511492872582409,0.3929246529401098,Western Metropolitan,0.2905789944028973
Ascot Vale,10 McCully St,0.2857142857142857,h,0.1404893449092344,S,Nelson,6/08/2016,0.1244725738396624,0.0327533265097237,0.3333333333333333,0.0,0.1,0.0112702702702702,0.0539845758354755,0.856447688564477,Moonee Valley,0.5500190723761378,0.3845911502266403,Western Metropolitan,0.2905789944028973
Ascot Vale,120 Epsom Rd,0.2857142857142857,h,0.094599165633104,S,Brad,7/05/2016,0.1244725738396624,0.0327533265097237,0.3333333333333333,0.0,0.2,0.0094594594594594,0.0401670951156812,0.861313868613139,Moonee Valley,0.5495952417953447,0.3736153173844911,Western Metropolitan,0.2905789944028973
Ascot Vale,63 Kent St,0.1428571428571428,h,0.069906415604916,PI,Nelson,7/05/2016,0.1244725738396624,0.0327533265097237,0.2222222222222222,0.0,0.1,0.0031891891891891,0.0253856041131105,0.8442822384428224,Moonee Valley,0.5428139525027191,0.3927213967763521,Western Metropolitan,0.2905789944028973
Ascot Vale,4 The Parade,0.1428571428571428,h,0.0923441199684293,SP,Raine,7/05/2016,0.1244725738396624,0.0327533265097237,0.2222222222222222,0.0,0.1,0.0046756756756756,0.0327763496143958,0.856447688564477,Moonee Valley,0.5535509938827161,0.3843878940628826,Western Metropolitan,0.2905789944028973
Ascot Vale,1/17 Epsom Rd,0.1428571428571428,u,0.0624647649114894,S,Brad,7/11/2016,0.1244725738396624,0.0327533265097237,0.2222222222222222,0.0,0.2,0.0061621621621621,0.0289203084832904,0.9720194647201944,Moonee Valley,0.5553875930661363,0.3701599626008658,Western Metropolitan,0.2905789944028973
Ascot Vale,41 Monash St,0.2857142857142857,h,0.1239147592738753,S,Nelson,8/10/2016,0.1244725738396624,0.0327533265097237,0.4444444444444444,0.0,0.2,0.016054054054054,0.0475578406169665,0.929440389294404,Moonee Valley,0.541118630179561,0.3699567064371081,Western Metropolitan,0.2905789944028973
Ascot Vale,51 Francis St,0.1428571428571428,h,0.0720487089863569,PI,Nelson,10/09/2016,0.1244725738396624,0.0327533265097237,0.2222222222222222,0.0,0.1,0.0061081081081081,0.0279562982005141,0.856447688564477,Moonee Valley,0.5474760888914005,0.3823553324254476,Western Metropolitan,0.2905789944028973
Ascot Vale,12 Mirams St,0.4285714285714285,h,0.0855789829744052,SP,Raine,10/12/2016,0.1244725738396624,0.0327533265097237,0.4444444444444444,0.0,0.1,0.0081081081081081,0.0594473007712082,0.8442822384428224,Moonee Valley,0.5486063037735036,0.3779853249049836,Western Metropolitan,0.2905789944028973
Ascot Vale,78 The Parade,0.2857142857142857,h,0.1475927387529597,S,Nelson,11/02/2017,0.1244725738396624,0.0327533265097237,0.3333333333333333,0.0,0.1,0.0131621621621621,0.0420951156812339,0.856447688564477,Moonee Valley,0.5543986550442881,0.3782902091506059,Western Metropolitan,0.2905789944028973
Ascot Vale,26 Newsom St,0.2857142857142857,h,0.0979817341301161,PI,Brad,12/11/2016,0.1244725738396624,0.0327533265097237,0.3333333333333333,0.1428571428571428,0.2,0.0118918918918918,0.0385604113110539,0.9233576642335766,Moonee Valley,0.5514318409787649,0.3666029797353474,Western Metropolitan,0.2905789944028973
Ascot Vale,8 Pentland St,0.2857142857142857,h,0.147028977336791,S,Nelson,12/11/2016,0.1244725738396624,0.0327533265097237,0.3333333333333333,0.1428571428571428,0.2,0.0143783783783783,0.0472365038560411,0.9172749391727496,Moonee Valley,0.552703332721137,0.367517632472186,Western Metropolitan,0.2905789944028973
Ascot Vale,8/129 The Parade,0.0,u,0.0292028413575374,S,Alexkarbon,12/11/2016,0.1244725738396624,0.0327533265097237,0.1111111111111111,0.0,0.1,0.0,0.018637532133676,0.9440389294403893,Moonee Valley,0.5546812087648121,0.3730055488932748,Western Metropolitan,0.2905789944028973
Ascot Vale,52 Monash St,0.2857142857142857,h,0.1459014545044537,PI,Jellis,13/08/2016,0.1244725738396624,0.0327533265097237,0.3333333333333333,0.1428571428571428,0.2,0.0133783783783783,0.0446658097686375,0.8807785888077861,Moonee Valley,0.540836076459037,0.3690420537002694,Western Metropolitan,0.2905789944028973
Ascot Vale,58 Fenton St,0.4285714285714285,h,0.1363175104295862,S,Nelson,14/05/2016,0.1244725738396624,0.0327533265097237,0.3333333333333333,0.1428571428571428,0.2,0.0184594594594594,0.0745501285347043,0.9513381995133824,Moonee Valley,0.5508667335377169,0.395973495396305,Western Metropolitan,0.2905789944028973
Ascot Vale,70 Munro St,0.2857142857142857,h,0.092907881384598,S,Brad,14/05/2016,0.1244725738396624,0.0327533265097237,0.3333333333333333,0.0,0.1,0.0071081081081081,0.0375964010282776,0.8686131386861315,Moonee Valley,0.5504429029569238,0.3752413666944392,Western Metropolitan,0.2905789944028973
Ascot Vale,3/28 Ormond Rd,0.1428571428571428,u,0.0339384372533543,S,Biggin,15/10/2016,0.1244725738396624,0.0327533265097237,0.2222222222222222,0.0,0.1,0.0,0.0199228791773778,0.9513381995133824,Moonee Valley,0.553692270742971,0.394245818004407,Western Metropolitan,0.2905789944028973
Ascot Vale,7 Angler Pde,0.4285714285714285,h,0.1701431953997068,S,Raine,16/04/2016,0.1244725738396624,0.0327533265097237,0.4444444444444444,0.2857142857142857,0.2,0.0151891891891891,0.0655526992287917,0.8442822384428224,Moonee Valley,0.5409773533193061,0.3665013516534827,Western Metropolitan,0.2905789944028973
Ascot Vale,26 Ayr St,0.7142857142857142,h,0.1464652159206224,S,Nelson,16/04/2016,0.1244725738396624,0.0327533265097237,0.4444444444444444,0.1428571428571428,0.1,0.0124594594594594,0.0919023136246786,0.856447688564477,Moonee Valley,0.5438028905245602,0.3934327933494614,Western Metropolitan,0.2905789944028973
Ascot Vale,2/127 Epsom Rd,0.1428571428571428,u,0.0540083436689593,SP,Brad,16/04/2016,0.1244725738396624,0.0327533265097237,0.2222222222222222,0.0,0.1,0.0081351351351351,0.0334190231362467,0.9720194647201944,Moonee Valley,0.5450743822669324,0.3776804406593612,Western Metropolitan,0.2905789944028973
Ascot Vale,57 The Parade,0.2857142857142857,h,0.091216597136092,S,Nelson,16/04/2016,0.1244725738396624,0.0327533265097237,0.3333333333333333,0.2857142857142857,0.1,0.0132702702702702,0.0408097686375321,0.9172749391727496,Moonee Valley,0.5541161013237641,0.3772739283318742,Western Metropolitan,0.2905789944028973
Ascot Vale,62 Mirams St,0.2857142857142857,h,0.0855789829744052,SP,Brad,16/07/2016,0.1244725738396624,0.0327533265097237,0.3333333333333333,0.0,0.1,0.0065405405405405,0.0353470437017994,0.8807785888077861,Moonee Valley,0.5487475806337727,0.3750381105306815,Western Metropolitan,0.2905789944028973
Ascot Vale,67 Hurtle St,0.2857142857142857,h,0.1182771451121885,SP,Brad,17/09/2016,0.1244725738396624,0.0327533265097237,0.3333333333333333,0.1428571428571428,0.2,0.0166756756756756,0.047879177377892,0.8929440389294403,Moonee Valley,0.5519969484198199,0.3695501941096495,Western Metropolitan,0.2905789944028973
Ascot Vale,95 Walter St,0.4285714285714285,h,0.1521028300823091,S,Raine,17/09/2016,0.1244725738396624,0.0327533265097237,0.4444444444444444,0.1428571428571428,0.2,0.0161351351351351,0.0578406169665809,0.9038929440389294,Moonee Valley,0.5498777955158758,0.3723957804020585,Western Metropolitan,0.2905789944028973
Ascot Vale,3/8 Walter St,0.1428571428571428,t,0.0827601758935618,SP,Nelson,18/03/2017,0.1244725738396624,0.0327533265097237,0.2222222222222222,0.1428571428571428,0.1,0.0039459459459459,0.0424164524421593,0.9963503649635036,Moonee Valley,0.5560939773674534,0.3673143763084567,Western Metropolitan,0.2905789944028973
Ascot Vale,12/9 Milton St,0.1428571428571428,u,0.0350659600856917,S,Alexkarbon,18/06/2016,0.1244725738396624,0.0327533265097237,0.2222222222222222,0.0,0.1,0.0,0.0199228791773778,0.9476885644768858,Moonee Valley,0.553268440162185,0.3857090591272083,Western Metropolitan,0.2905789944028973
Ascot Vale,21A Geddes St,0.2857142857142857,h,0.1022099447513812,S,Alexkarbon,19/11/2016,0.1244725738396624,0.0327533265097237,0.3333333333333333,0.0,0.2,0.0136756756756756,0.0353470437017994,0.8807785888077861,Moonee Valley,0.5467697045900834,0.3769690440862518,Western Metropolitan,0.2905789944028973
Ascot Vale,1/20 Newsom St,0.2857142857142857,t,0.1036193482918029,S,Jellis,19/11/2016,0.1244725738396624,0.0327533265097237,0.3333333333333333,0.1428571428571428,0.2,0.0085945945945945,0.0514138817480719,0.9939172749391728,Moonee Valley,0.551714394699296,0.3670094920628628,Western Metropolitan,0.2905789944028973
Ascot Vale,4/27 Roseberry St,0.1428571428571428,u,0.0348404555192242,S,McDonald,19/11/2016,0.1244725738396624,0.0327533265097237,0.2222222222222222,0.0,0.1,0.0,0.0208868894601542,0.9416058394160582,Moonee Valley,0.5510080103979718,0.3773755564137673,Western Metropolitan,0.2905789944028973
Ascot Vale,43 Bloomfield Rd,0.4285714285714285,h,0.1464652159206224,S,Nelson,22/05/2016,0.1244725738396624,0.0327533265097237,0.4444444444444444,0.1428571428571428,0.0,0.0112972972972972,0.050771208226221,0.856447688564477,Moonee Valley,0.5486063037735036,0.3824569605073407,Western Metropolitan,0.2905789944028973
Ascot Vale,21 Middle St,0.2857142857142857,h,0.1126395309505017,S,Nelson,23/04/2016,0.1244725738396624,0.0327533265097237,0.3333333333333333,0.1428571428571428,0.1,0.0073513513513513,0.0504498714652956,0.856447688564477,Moonee Valley,0.5474760888914005,0.3919083721213781,Western Metropolitan,0.2905789944028973
Ascot Vale,78 Francis St,0.2857142857142857,h,0.1132032923666704,S,Brad,24/09/2016,0.1244725738396624,0.0327533265097237,0.3333333333333333,0.0,0.1,0.008,0.0334190231362467,0.8686131386861315,Moonee Valley,0.5480411963324485,0.3813390516067443,Western Metropolitan,0.2905789944028973
Ascot Vale,25 Geddes St,0.4285714285714285,h,0.0923441199684293,PI,Nelson,24/09/2016,0.1244725738396624,0.0327533265097237,0.4444444444444444,0.1428571428571428,0.1,0.008054054054054,0.0472365038560411,0.8807785888077861,Moonee Valley,0.5469109814503526,0.3767657879224941,Western Metropolitan,0.2905789944028973
Ascot Vale,15 Mirams St,0.4285714285714285,h,0.1368812718457548,S,Jellis,25/02/2017,0.1244725738396624,0.0327533265097237,0.4444444444444444,0.0,0.1,0.0149189189189189,0.0498071979434447,0.8807785888077861,Moonee Valley,0.5481824731927176,0.3774771844956319,Western Metropolitan,0.2905789944028973
Ascot Vale,44 Walter St,0.2857142857142857,h,0.1409967301837862,S,Barry,25/02/2017,0.1244725738396624,0.0327533265097237,0.3333333333333333,0.1428571428571428,0.2,0.0112432432432432,0.0539845758354755,0.856447688564477,Moonee Valley,0.5541161013237641,0.3690420537002694,Western Metropolitan,0.2905789944028973
Ascot Vale,25 Dalgety Dr,0.2857142857142857,h,0.091216597136092,S,Jellis,26/07/2016,0.1244725738396624,0.0327533265097237,0.3333333333333333,0.1428571428571428,0.2,0.0077027027027027,0.0552699228791773,0.9914841849148416,Moonee Valley,0.5469109814503526,0.3696518221915141,Western Metropolitan,0.2905789944028973
Ascot Vale,7 Dalgety Dr,0.2857142857142857,h,0.0974179727139474,S,Nelson,26/07/2016,0.1244725738396624,0.0327533265097237,0.3333333333333333,0.1428571428571428,0.1,0.0084864864864864,0.0568766066838046,0.9902676399026766,Moonee Valley,0.5469109814503526,0.3677208886359437,Western Metropolitan,0.2905789944028973
Ascot Vale,6 Waller Ct,0.2857142857142857,h,0.0738527455180967,S,Brad,26/07/2016,0.1244725738396624,0.0327533265097237,0.3333333333333333,0.1428571428571428,0.1,0.0155675675675675,0.0385604113110539,0.9051094890510948,Moonee Valley,0.5415424607603541,0.3855058029634506,Western Metropolitan,0.2905789944028973
Ascot Vale,17 Ascot St,0.1428571428571428,h,0.0647198105761641,PI,Nelson,27/06/2016,0.1244725738396624,0.0327533265097237,0.2222222222222222,0.0,0.3,0.0068108108108108,0.0347043701799485,0.8686131386861315,Moonee Valley,0.540270969017989,0.3843878940628826,Western Metropolitan,0.2905789944028973
Ascot Vale,73 Kent St,0.1428571428571428,h,0.0709211861540196,PI,Nelson,27/06/2016,0.1244725738396624,0.0327533265097237,0.2222222222222222,0.0,0.1,0.0033513513513513,0.0247429305912596,0.856447688564477,Moonee Valley,0.5428139525027191,0.3924165125307581,Western Metropolitan,0.2905789944028973
Ascot Vale,1 East St,0.2857142857142857,t,0.0979817341301161,S,Nelson,27/11/2016,0.1244725738396624,0.0327533265097237,0.3333333333333333,0.1428571428571428,0.2,0.0054054054054054,0.0462724935732647,0.981751824817518,Moonee Valley,0.5486063037735036,0.3916034878757557,Western Metropolitan,0.2905789944028973
Ascot Vale,1 Bloomfield Rd,0.2857142857142857,h,0.1323711805164054,S,Barry,28/05/2016,0.1244725738396624,0.0327533265097237,0.2222222222222222,0.0,0.1,0.0075135135135135,0.0533419023136246,0.856447688564477,Moonee Valley,0.5483237500529796,0.3861155714547237,Western Metropolitan,0.2905789944028973
Ascot Vale,58 Bloomfield Rd,0.2857142857142857,h,0.1222234750253692,S,Stockdale,28/08/2016,0.1244725738396624,0.0327533265097237,0.3333333333333333,0.0,0.1,0.0122162162162162,0.0562339331619537,0.929440389294404,Moonee Valley,0.5491714112145516,0.3811357954429866,Western Metropolitan,0.2905789944028973
Ascot Vale,1/91 Epsom Rd,0.1428571428571428,u,0.0466794452587664,S,Nelson,28/08/2016,0.1244725738396624,0.0327533265097237,0.2222222222222222,0.0,0.2,0.0052432432432432,0.0228149100257069,0.856447688564477,Moonee Valley,0.5477586426119245,0.3754446228581969,Western Metropolitan,0.2905789944028973
Ashburton,69 Albion Rd,0.2857142857142857,h,0.1735257638967189,S,Jellis,3/12/2016,0.2320675105485232,0.150460593654043,0.3333333333333333,0.1428571428571428,0.2,0.0161891891891891,0.0706940874035989,0.8929440389294403,Boroondara,0.4204681915149137,0.5350007113965773,Southern Metropolitan,0.1252528103099572
Ashburton,3 Dunlop St,0.2857142857142857,h,0.1605592513248393,S,Jellis,4/06/2016,0.2320675105485232,0.150460593654043,0.3333333333333333,0.1428571428571428,0.2,0.0197567567567567,0.047879177377892,0.8990267639902678,Boroondara,0.4214571295367548,0.5337811744141163,Southern Metropolitan,0.1252528103099572
Ashburton,16a Nicholas St,0.2857142857142857,h,0.1092569624534896,PI,Marshall,8/10/2016,0.2320675105485232,0.150460593654043,0.3333333333333333,0.2857142857142857,0.2,0.0074594594594594,0.05719794344473,0.9829683698296836,Boroondara,0.4167949931480734,0.5441472387650208,Southern Metropolitan,0.1252528103099572
Ashburton,5 Nicholas St,0.2857142857142857,h,0.135979253579885,S,Buxton,8/10/2016,0.2320675105485232,0.150460593654043,0.3333333333333333,0.0,0.2,0.0157567567567567,0.0359897172236503,0.9172749391727496,Boroondara,0.4187728691917627,0.5449602634199948,Southern Metropolitan,0.1252528103099572
Ashburton,1/1 Nairn St,0.2857142857142857,h,0.1563874168451911,S,Jellis,10/09/2016,0.2320675105485232,0.150460593654043,0.3333333333333333,0.1428571428571428,0.2,0.0139459459459459,0.0465938303341902,0.8807785888077861,Boroondara,0.4201856377943898,0.5329681497591423,Southern Metropolitan,0.1252528103099572
Ashburton,9 Gona Ct,0.2857142857142857,h,0.1780358552260683,S,hockingstuart,10/12/2016,0.2320675105485232,0.150460593654043,0.3333333333333333,0.0,0.2,0.0217837837837837,0.0324550128534704,0.9172749391727496,Boroondara,0.4173601005891214,0.5504481798410552,Southern Metropolitan,0.1252528103099572
Ashburton,45 Yuile St,0.2857142857142857,h,0.1718344796482128,S,Jellis,10/12/2016,0.2320675105485232,0.150460593654043,0.3333333333333333,0.0,0.3,0.021081081081081,0.0488431876606683,0.9051094890510948,Boroondara,0.4309226791743725,0.5479074777942685,Southern Metropolitan,0.1252528103099572
Ashburton,47 Yuile St,0.4285714285714285,h,0.1599954899086706,VB,Marshall,12/11/2016,0.2320675105485232,0.150460593654043,0.4444444444444444,0.1428571428571428,0.2,0.021081081081081,0.0578406169665809,0.902676399026764,Boroondara,0.4307814023141176,0.5481107339580262,Southern Metropolitan,0.1252528103099572
Ashburton,6a Glen Rd,0.2857142857142857,h,0.172623745630849,S,Jellis,14/05/2016,0.2320675105485232,0.150460593654043,0.3333333333333333,0.1428571428571428,0.2,0.0094864864864864,0.0732647814910025,0.9854014598540146,Boroondara,0.4107200881567578,0.53622024837901,Southern Metropolitan,0.1252528103099572
Ashburton,18 Glen Rd,0.2857142857142857,h,0.1729620024805502,S,Jellis,15/10/2016,0.2320675105485232,0.150460593654043,0.3333333333333333,0.1428571428571428,0.3,0.0189729729729729,0.0465938303341902,0.9111922141119224,Boroondara,0.4114264724580749,0.5357121079696867,Southern Metropolitan,0.1252528103099572
Ashburton,2/17 Ashburn Gr,0.2857142857142857,t,0.0867065058067425,S,Jellis,19/11/2016,0.2320675105485232,0.150460593654043,0.3333333333333333,0.1428571428571428,0.2,0.0041351351351351,0.0353470437017994,0.9659367396593674,Boroondara,0.423011174999651,0.5471960812211591,Southern Metropolitan,0.1252528103099572
Ashburton,3 Mustang Ct,0.2857142857142857,h,0.1543578757469838,VB,Jellis,22/08/2016,0.2320675105485232,0.150460593654043,0.3333333333333333,0.1428571428571428,0.2,0.0191891891891891,0.0446658097686375,0.9111922141119224,Boroondara,0.423293728720175,0.556240980507738,Southern Metropolitan,0.1252528103099572
Ashburton,4 Vears Rd,0.2857142857142857,h,0.1915661292141166,S,Jellis,25/02/2017,0.2320675105485232,0.150460593654043,0.3333333333333333,0.1428571428571428,0.3,0.0195675675675675,0.0539845758354755,0.9051094890510948,Boroondara,0.4280971419691184,0.5544116750340322,Southern Metropolitan,0.1252528103099572
Ashburton,14 Lucerne St,0.2857142857142857,h,0.1447739316721163,S,Buxton,27/06/2016,0.2320675105485232,0.150460593654043,0.3333333333333333,0.0,0.1,0.0163513513513513,0.0356683804627249,0.9172749391727496,Boroondara,0.4162298857070183,0.5437407264375338,Southern Metropolitan,0.1252528103099572
Ashburton,5 Pitt St,0.1428571428571428,h,0.1475927387529597,PI,Jellis,27/06/2016,0.2320675105485232,0.150460593654043,0.2222222222222222,0.0,0.1,0.0185675675675675,0.0334190231362467,0.9051094890510948,Boroondara,0.4138281790825502,0.5354072237240644,Southern Metropolitan,0.1252528103099572
Ashburton,1/65 Ashburn Gr,0.4285714285714285,t,0.1261698049385499,VB,Noel,27/11/2016,0.2320675105485232,0.150460593654043,0.4444444444444444,0.1428571428571428,0.2,0.0086756756756756,0.0639460154241645,0.98661800486618,Boroondara,0.4176426543096454,0.5463830565662136,Southern Metropolitan,0.1252528103099572
Ashburton,5 Taylor St,0.4285714285714285,h,0.1949486977111286,S,Jellis,27/11/2016,0.2320675105485232,0.150460593654043,0.4444444444444444,0.1428571428571428,0.3,0.0188108108108108,0.0880462724935732,0.978102189781022,Boroondara,0.4150996708249153,0.5408951401451247,Southern Metropolitan,0.1252528103099572
Ashburton,33 Highgate Gr,0.4285714285714285,h,0.1870560378847671,PI,hockingstuart,28/05/2016,0.2320675105485232,0.150460593654043,0.4444444444444444,0.1428571428571428,0.2,0.0138918918918918,0.0771208226221079,0.8990267639902678,Boroondara,0.4217396832572788,0.5435374702737761,Southern Metropolitan,0.1252528103099572
Ashburton,9 Pitt St,0.4285714285714285,h,0.2050964032021648,S,Tim,28/05/2016,0.2320675105485232,0.150460593654043,0.4444444444444444,0.1428571428571428,0.2,0.0228108108108108,0.089331619537275,0.9051094890510948,Boroondara,0.4145345633838673,0.5350007113965773,Southern Metropolitan,0.1252528103099572
Ashburton,19 Poulter St,0.2857142857142857,h,0.1712707182320441,S,Marshall,28/08/2016,0.2320675105485232,0.150460593654043,0.3333333333333333,0.0,0.1,0.0188378378378378,0.0526992287917737,0.913625304136253,Boroondara,0.4256954353446502,0.5568507489989827,Southern Metropolitan,0.1252528103099572
Ashwood,1/53 Winbirra Pde,0.4285714285714285,h,0.1205321907768632,SP,Purplebricks,4/03/2017,0.2573839662447257,0.150460593654043,0.4444444444444444,0.2857142857142857,0.2,0.010054054054054,0.0645886889460154,0.9975669099756692,Monash,0.4143932865235982,0.566607044858614,Southern Metropolitan,0.1178213630591223
Ashwood,18 Montrose St,0.1428571428571428,h,0.1064381553726463,VB,Jellis,4/06/2016,0.2573839662447257,0.150460593654043,0.2222222222222222,0.0,0.2,0.0187837837837837,0.0366323907455012,0.9172749391727496,Monash,0.4175013774493905,0.5610175003557174,Southern Metropolitan,0.1178213630591223
Ashwood,4 Scenic Dr,0.4285714285714285,h,0.1543578757469838,S,Fletchers,6/08/2016,0.2573839662447257,0.150460593654043,0.2222222222222222,0.1428571428571428,0.2,0.0167837837837837,0.0652313624678663,0.978102189781022,Monash,0.4241413898817541,0.5690461188235645,Southern Metropolitan,0.1178213630591223
Ashwood,1/7 Farmer St,0.1428571428571428,t,0.0641560491599955,S,hockingstuart,7/11/2016,0.2573839662447257,0.150460593654043,0.2222222222222222,0.0,0.2,0.0099189189189189,0.0353470437017994,0.9416058394160582,Monash,0.4220222369778099,0.5758552003089505,Southern Metropolitan,0.1178213630591223
Ashwood,95 Huntingdale Rd,0.4285714285714285,h,0.1092569624534896,VB,Tim,10/12/2016,0.2573839662447257,0.150460593654043,0.3333333333333333,0.1428571428571428,0.2,0.0217027027027027,0.0488431876606683,0.9416058394160582,Monash,0.4278145882485944,0.5795138112563052,Southern Metropolitan,0.1178213630591223
Ashwood,1/7 Murra Ct,0.1428571428571428,u,0.0630285263276581,S,Ray,14/05/2016,0.2573839662447257,0.150460593654043,0.2222222222222222,0.0,0.1,0.0058378378378378,0.0289203084832904,0.981751824817518,Monash,0.4150996708249153,0.5684363503323198,Southern Metropolitan,0.1178213630591223
Ashwood,58 Ashwood Dr,0.2857142857142857,h,0.1691284248506032,S,Jellis,15/10/2016,0.2573839662447257,0.150460593654043,0.3333333333333333,0.1428571428571428,0.3,0.0211351351351351,0.0690874035989717,0.9172749391727496,Monash,0.4278145882485944,0.5688428626598068,Southern Metropolitan,0.1178213630591223
Ashwood,3 Harold St,0.4285714285714285,h,0.1543578757469838,S,Buxton,15/10/2016,0.2573839662447257,0.150460593654043,0.4444444444444444,0.1428571428571428,0.1,0.016027027027027,0.0819408740359897,0.8929440389294403,Monash,0.423011174999651,0.562643549665637,Southern Metropolitan,0.1178213630591223
Ashwood,4/36 Queens Pde,0.1428571428571428,u,0.0528808208366219,S,Noel,18/03/2017,0.2573839662447257,0.150460593654043,0.2222222222222222,0.0,0.1,0.0041351351351351,0.0257069408740359,0.9416058394160582,Monash,0.4172188237288665,0.5628468058293947,Southern Metropolitan,0.1178213630591223
Ashwood,17 Parkhill Dr,0.4285714285714285,h,0.1250422821062126,S,Tim,19/11/2016,0.2573839662447257,0.150460593654043,0.4444444444444444,0.1428571428571428,0.2,0.0207027027027027,0.0616966580976863,0.9172749391727496,Monash,0.4266843733664842,0.5765665968820599,Southern Metropolitan,0.1178213630591223
Ashwood,2/6 Murra Ct,0.1428571428571428,u,0.0641560491599955,S,hockingstuart,22/08/2016,0.2573839662447257,0.150460593654043,0.2222222222222222,0.0,0.2,0.0051891891891891,0.0282776349614395,0.98661800486618,Monash,0.4153822245454464,0.5687412345779421,Southern Metropolitan,0.1178213630591223
Ashwood,4 Teck St,0.1428571428571428,h,0.110384485285827,S,Fletchers,24/09/2016,0.2573839662447257,0.150460593654043,0.2222222222222222,0.0,0.1,0.0158378378378378,0.0276349614395886,0.9172749391727496,Monash,0.4190554229122867,0.5750421756539765,Southern Metropolitan,0.1178213630591223
Ashwood,14 Ashwood Dr,0.2857142857142857,h,0.1323711805164054,S,Jellis,25/02/2017,0.2573839662447257,0.150460593654043,0.3333333333333333,0.0,0.1,0.0205405405405405,0.0385604113110539,0.929440389294404,Monash,0.4336069395193789,0.5705705400516194,Southern Metropolitan,0.1178213630591223
Ashwood,1/2 Condah Ct,0.2857142857142857,h,0.0816326530612245,S,Noel,25/02/2017,0.2573839662447257,0.150460593654043,0.3333333333333333,0.1428571428571428,0.1,0.0086486486486486,0.0273136246786632,0.9270072992700732,Monash,0.4166537162878114,0.5771763653732762,Southern Metropolitan,0.1178213630591223
Ashwood,1/16 Raymond St,0.2857142857142857,t,0.0867628819483594,S,Jellis,27/11/2016,0.2573839662447257,0.150460593654043,0.3333333333333333,0.1428571428571428,0.2,0.0069189189189189,0.0430591259640102,0.9927007299270072,Monash,0.423011174999651,0.5764649688001668,Southern Metropolitan,0.1178213630591223
Ashwood,4 Newbury Ct,0.2857142857142857,h,0.1205321907768632,VB,Buxton,28/05/2016,0.2573839662447257,0.150460593654043,0.3333333333333333,0.1428571428571428,0.2,0.0226756756756756,0.063624678663239,0.9416058394160582,Monash,0.4288035262704284,0.5766682249639246,Southern Metropolitan,0.1178213630591223
Ashwood,2/53 Salisbury Rd,0.2857142857142857,t,0.0788138459803811,S,Barry,28/08/2016,0.2573839662447257,0.150460593654043,0.2222222222222222,0.0,0.2,0.0057297297297297,0.0417737789203084,0.9927007299270072,Monash,0.4134043485017571,0.5757535722270859,Southern Metropolitan,0.1178213630591223
Avondale Heights,8 Norma Ct,0.2857142857142857,h,0.0810688916450558,S,Moonee,3/09/2016,0.2215189873417721,0.0348004094165812,0.3333333333333333,0.0,0.1,0.016027027027027,0.037917737789203,0.9416058394160582,Moonee Valley,0.5611799443369208,0.3303217545071959,Western Metropolitan,0.1934528009030619
Avondale Heights,9 Rogerson St,0.2857142857142857,h,0.0697936633216822,SP,Moonee,3/09/2016,0.2215189873417721,0.0348004094165812,0.3333333333333333,0.0,0.1,0.0,0.0330976863753213,0.9537712895377128,Moonee Valley,0.5672548493282363,0.3239191853492968,Western Metropolitan,0.1934528009030619
Avondale Heights,157 Canning St,0.2857142857142857,t,0.0811816439282895,S,Nelson,3/12/2016,0.2215189873417721,0.0348004094165812,0.3333333333333333,0.2857142857142857,0.1,0.015054054054054,0.0581619537275064,0.9987834549878348,Moonee Valley,0.5579305765508664,0.3199556901563198,Western Metropolitan,0.1934528009030619
Avondale Heights,2 Arbor Tce,0.4285714285714285,h,0.1154583380313451,S,Nelson,4/06/2016,0.2215189873417721,0.0348004094165812,0.3333333333333333,0.1428571428571428,0.2,0.0153783783783783,0.0723007712082262,0.9878345498783456,Moonee Valley,0.564429312122968,0.3283908209516539,Western Metropolitan,0.1934528009030619
Avondale Heights,68 Thompson St,0.2857142857142857,h,0.0619010034953207,S,Nelson,6/08/2016,0.2215189873417721,0.0348004094165812,0.3333333333333333,0.0,0.2,0.0154054054054054,0.0385604113110539,0.9416058394160582,Moonee Valley,0.5733297543195448,0.3169068477001531,Western Metropolitan,0.1934528009030619
Avondale Heights,97 Military Rd,0.2857142857142857,h,0.0559815086255496,SP,Moonee,8/10/2016,0.2215189873417721,0.0348004094165812,0.3333333333333333,0.0,0.1,0.0148648648648648,0.0459511568123393,0.9416058394160582,Moonee Valley,0.5675374030487603,0.3250370942498932,Western Metropolitan,0.1934528009030619
Avondale Heights,3 Clive Ct,0.4285714285714285,h,0.0923441199684293,S,Moonee,10/12/2016,0.2215189873417721,0.0348004094165812,0.4444444444444444,0.2857142857142857,0.3,0.0205675675675675,0.0902956298200514,0.9416058394160582,Moonee Valley,0.5827953039571625,0.334386877782066,Western Metropolitan,0.1934528009030619
Avondale Heights,8 Herbert St,0.2857142857142857,h,0.0647198105761641,S,Nelson,22/05/2016,0.2215189873417721,0.0348004094165812,0.3333333333333333,0.0,0.1,0.0157027027027027,0.0340616966580976,0.929440389294404,Moonee Valley,0.5592020682932315,0.3202605744019138,Western Metropolitan,0.1934528009030619
Avondale Heights,20 Westminster Dr,0.2857142857142857,h,0.0858608636824895,S,Nelson,22/05/2016,0.2215189873417721,0.0348004094165812,0.3333333333333333,0.0,0.1,0.0158378378378378,0.037917737789203,0.9355231143552312,Moonee Valley,0.566124634446119,0.3231061606943228,Western Metropolitan,0.1934528009030619
Avondale Heights,1/24 Bordeaux St,0.1428571428571428,h,0.0441425188860074,S,Nelson,24/09/2016,0.2215189873417721,0.0348004094165812,0.2222222222222222,0.0,0.1,0.0059459459459459,0.0324550128534704,0.9720194647201944,Moonee Valley,0.5777093369876951,0.3269680278054636,Western Metropolitan,0.1934528009030619
Avondale Heights,72 Military Rd,0.4285714285714285,h,0.0619010034953207,PI,Nelson,24/09/2016,0.2215189873417721,0.0348004094165812,0.4444444444444444,0.1428571428571428,0.2,0.0149729729729729,0.0449871465295629,0.929440389294404,Moonee Valley,0.5651356964242851,0.3261550031504896,Western Metropolitan,0.1934528009030619
Avondale Heights,2 Drake Ct,0.2857142857142857,h,0.0838876987258992,S,Edward,25/02/2017,0.2215189873417721,0.0348004094165812,0.3333333333333333,0.0,0.3,0.0219459459459459,0.0375964010282776,0.929440389294404,Moonee Valley,0.564994419564016,0.3205654586475361,Western Metropolitan,0.1934528009030619
Avondale Heights,109 North Rd,0.4285714285714285,h,0.0711466907204871,S,Nelson,26/07/2016,0.2215189873417721,0.0348004094165812,0.4444444444444444,0.1428571428571428,0.2,0.0159189189189189,0.0482005141388174,0.9306569343065696,Moonee Valley,0.575872737804275,0.3160938230451791,Western Metropolitan,0.1934528009030619
Avondale Heights,2/4 Carmyle Ct,0.1428571428571428,u,0.0315706393054459,PI,Barry,27/11/2016,0.2215189873417721,0.0348004094165812,0.2222222222222222,0.0,0.1,0.0,0.0273136246786632,0.9720194647201944,Moonee Valley,0.5709280476950624,0.3258501189048672,Western Metropolitan,0.1934528009030619
Avondale Heights,10 Skewes St,0.2857142857142857,h,0.0759950388995377,S,Nelson,27/11/2016,0.2215189873417721,0.0348004094165812,0.3333333333333333,0.1428571428571428,0.2,0.016027027027027,0.0330976863753213,0.9416058394160582,Moonee Valley,0.5710693245553315,0.3208703428931585,Western Metropolitan,0.1934528009030619
Avondale Heights,43 Skewes St,0.2857142857142857,h,0.0567143984665689,S,Nelson,28/05/2016,0.2215189873417721,0.0348004094165812,0.4444444444444444,0.1428571428571428,0.1,0.0157297297297297,0.0491645244215938,0.9172749391727496,Moonee Valley,0.5743186923413788,0.3195491778288044,Western Metropolitan,0.1934528009030619
Balaclava,18 Linton St,0.4285714285714285,h,0.1903258540985455,S,Gary,3/09/2016,0.1392405063291139,0.1873080859774822,0.3333333333333333,0.1428571428571428,0.1,0.0065945945945945,0.0578406169665809,0.856447688564477,Port Phillip,0.4211745758162308,0.4577633691741596,Southern Metropolitan,0.1205493626828465
Balaclava,7/72 Grosvenor St,0.1428571428571428,u,0.0314578870222122,PI,hockingstuart,3/12/2016,0.1392405063291139,0.1873080859774822,0.2222222222222222,0.0,0.2,0.0,0.0196015424164524,0.9355231143552312,Port Phillip,0.412274133619654,0.4608122116303264,Southern Metropolitan,0.1205493626828465
Balaclava,1/34 Gourlay St,0.1428571428571428,t,0.0996730183786221,S,Gary,7/11/2016,0.1392405063291139,0.1873080859774822,0.2222222222222222,0.0,0.2,0.003081081081081,0.0385604113110539,0.978102189781022,Port Phillip,0.4134043485017571,0.4611170958759487,Southern Metropolitan,0.1205493626828465
Balaclava,4/9 Gourlay St,0.1428571428571428,u,0.0418874732213327,S,Buxton,15/10/2016,0.1392405063291139,0.1873080859774822,0.2222222222222222,0.0,0.1,0.0,0.0208868894601542,0.929440389294404,Port Phillip,0.4131217947812331,0.4602024431391101,Southern Metropolitan,0.1205493626828465
Balaclava,1/22 Sycamore Gr,0.1428571428571428,u,0.0438606381779231,S,Gary,15/10/2016,0.1392405063291139,0.1873080859774822,0.2222222222222222,0.0,0.0,0.0,0.018637532133676,0.9416058394160582,Port Phillip,0.4107200881567578,0.4622350047765167,Southern Metropolitan,0.1205493626828465
Balaclava,6/23 Gourlay St,0.1428571428571428,u,0.0350659600856917,SP,Buxton,17/09/2016,0.1392405063291139,0.1873080859774822,0.2222222222222222,0.0,0.1,0.0,0.0196015424164524,0.929440389294404,Port Phillip,0.4129805179209711,0.4612187239577849,Southern Metropolitan,0.1205493626828465
Balaclava,6 Blenheim St,0.2857142857142857,h,0.119742924794227,S,McGrath,18/06/2016,0.1392405063291139,0.1873080859774822,0.3333333333333333,0.0,0.1,0.0048108108108108,0.0321336760925449,0.8807785888077861,Port Phillip,0.4218809601175408,0.4597959308115946,Southern Metropolitan,0.1205493626828465
Balaclava,3/20 Orange Gr,0.1428571428571428,u,0.0321344007216146,S,Chisholm,18/06/2016,0.1392405063291139,0.1873080859774822,0.2222222222222222,0.0,0.1,0.0,0.015745501285347,0.929440389294404,Port Phillip,0.4197618072135967,0.4616252362853004,Southern Metropolitan,0.1205493626828465
Balaclava,2/19 Camden St,0.1428571428571428,u,0.0386740331491712,S,hockingstuart,22/05/2016,0.1392405063291139,0.1873080859774822,0.2222222222222222,0.0,0.1,0.0,0.0189588688946015,0.9416058394160582,Port Phillip,0.4213158526764857,0.4566454602735916,Southern Metropolitan,0.1205493626828465
Balaclava,1/17 Albion St,0.1428571428571428,h,0.0958394407486751,S,Buxton,25/02/2017,0.1392405063291139,0.1873080859774822,0.2222222222222222,0.0,0.0,0.0042972972972972,0.0269922879177377,0.8929440389294403,Port Phillip,0.4110026418772818,0.4582715095835397,Southern Metropolitan,0.1205493626828465
Balaclava,10 Grosvenor St,0.2857142857142857,h,0.1757808095613936,S,McGrath,25/02/2017,0.1392405063291139,0.1873080859774822,0.3333333333333333,0.1428571428571428,0.2,0.0091621621621621,0.0510925449871465,0.8442822384428224,Port Phillip,0.4138281790825502,0.4558324356186176,Southern Metropolitan,0.1205493626828465
Balaclava,3/33 Gourlay St,0.1428571428571428,u,0.0461156838425978,VB,McGrath,27/06/2016,0.1392405063291139,0.1873080859774822,0.2222222222222222,0.0,0.1,0.013054054054054,0.0163881748071979,0.9416058394160582,Port Phillip,0.412839241060702,0.4619301205309227,Southern Metropolitan,0.1205493626828465
Balwyn,166 Gordon St,0.1428571428571428,h,0.2220092456872251,S,Marshall,3/09/2016,0.2046413502109704,0.1054247697031729,0.2222222222222222,0.0,0.1,0.0178108108108108,0.0395244215938303,0.8807785888077861,Boroondara,0.5022674936072278,0.5470944531392945,Southern Metropolitan,0.2489534829029678
Balwyn,36 Narrak Rd,0.4285714285714285,h,0.1881835607171045,VB,Marshall,3/09/2016,0.2046413502109704,0.1054247697031729,0.4444444444444444,0.1428571428571428,0.2,0.0193243243243243,0.070051413881748,0.9598540145985404,Boroondara,0.5000070638430145,0.5624402935019077,Southern Metropolitan,0.2489534829029678
Balwyn,2/16 Westminster St,0.1428571428571428,t,0.1267335663547186,S,Noel,3/09/2016,0.2046413502109704,0.1054247697031729,0.2222222222222222,0.0,0.1,0.0056216216216216,0.041452442159383,0.978102189781022,Boroondara,0.4974640803582772,0.5641679708937204,Southern Metropolitan,0.2489534829029678
Balwyn,2/74 Balwyn Rd,0.2857142857142857,u,0.1058743939564776,SA,Philip,3/12/2016,0.2046413502109704,0.1054247697031729,0.3333333333333333,0.1428571428571428,0.2,0.0055675675675675,0.0359897172236503,0.975669099756691,Boroondara,0.492801943969603,0.5476025935486462,Southern Metropolitan,0.2489534829029678
Balwyn,5/14 Parring Rd,0.1428571428571428,u,0.0761077911827714,S,Noel,3/12/2016,0.2046413502109704,0.1054247697031729,0.2222222222222222,0.0,0.1,0.0032972972972972,0.0311696658097686,0.9501216545012168,Boroondara,0.4980291877993323,0.5581719140632799,Southern Metropolitan,0.2489534829029678
Balwyn,142 Balwyn Rd,0.1428571428571428,h,0.1938211748787912,VB,Fletchers,6/08/2016,0.2046413502109704,0.1054247697031729,0.3333333333333333,0.0,0.1,0.0274324324324324,0.0533419023136246,0.8929440389294403,Boroondara,0.5050930308124819,0.5490253866948649,Southern Metropolitan,0.2489534829029678
Balwyn,4/3 King St,0.2857142857142857,h,0.0641560491599955,VB,Marshall,7/05/2016,0.2046413502109704,0.1054247697031729,0.3333333333333333,0.0,0.1,0.005081081081081,0.0353470437017994,0.9416058394160582,Boroondara,0.5063645225548541,0.5311388442854366,Southern Metropolitan,0.2489534829029678
Balwyn,3/18 Weir St,0.1428571428571428,h,0.0416055925132483,S,Marshall,7/05/2016,0.2046413502109704,0.1054247697031729,0.2222222222222222,0.0,0.1,0.0,0.0231362467866323,0.929440389294404,Boroondara,0.4926606671093338,0.5505498079229199,Southern Metropolitan,0.2489534829029678
Balwyn,3 Westminster St,0.2857142857142857,h,0.2248280527680685,SP,Jellis,7/05/2016,0.2046413502109704,0.1054247697031729,0.3333333333333333,0.1428571428571428,0.2,0.0188918918918918,0.0809768637532133,0.9598540145985404,Boroondara,0.4957687580351191,0.5632533181568533,Southern Metropolitan,0.2489534829029678
Balwyn,13 Naroo St,0.4285714285714285,h,0.1881835607171045,PI,Jellis,8/10/2016,0.2046413502109704,0.1054247697031729,0.3333333333333333,0.1428571428571428,0.2,0.0155945945945945,0.0642673521850899,0.9148418491484184,Boroondara,0.5110266589435355,0.535508851805929,Southern Metropolitan,0.2489534829029678
Balwyn,101/201 Whitehorse Rd,0.1428571428571428,u,0.0568271507498026,S,Fletchers,8/10/2016,0.2046413502109704,0.1054247697031729,0.2222222222222222,0.0,0.1,0.0,0.0224935732647814,0.9951338199513382,Boroondara,0.4991594026814354,0.538659322343932,Southern Metropolitan,0.2489534829029678
Balwyn,1/252 Union Rd,0.1428571428571428,u,0.0445371518773255,S,hockingstuart,10/09/2016,0.2046413502109704,0.1054247697031729,0.2222222222222222,0.0,0.1,0.0,0.0234575835475578,0.929440389294404,Boroondara,0.4952036505940711,0.5659972763673977,Southern Metropolitan,0.2489534829029678
Balwyn,1/18 Belmore Rd,0.2857142857142857,h,0.0872702672229112,S,Kay,10/12/2016,0.2046413502109704,0.1054247697031729,0.3333333333333333,0.0,0.2,0.0075945945945945,0.0482005141388174,0.9720194647201944,Boroondara,0.5137109192885347,0.5313421004491943,Southern Metropolitan,0.2489534829029678
Balwyn,11/22 Brenbeal St,0.1428571428571428,t,0.0709211861540196,S,Christopher,10/12/2016,0.2046413502109704,0.1054247697031729,0.2222222222222222,0.0,0.1,0.0032702702702702,0.0321336760925449,0.929440389294404,Boroondara,0.4997245101224905,0.5546149311977899,Southern Metropolitan,0.2489534829029678
Balwyn,3/3 Iramoo St,0.2857142857142857,t,0.139361822076897,S,Jellis,10/12/2016,0.2046413502109704,0.1054247697031729,0.3333333333333333,0.1428571428571428,0.2,0.0059189189189189,0.0526992287917737,0.981751824817518,Boroondara,0.4978879109390703,0.5513628325778939,Southern Metropolitan,0.2489534829029678
Balwyn,2/8 Evelina St,0.4285714285714285,t,0.1430826474236103,PI,Noel,12/11/2016,0.2046413502109704,0.1054247697031729,0.4444444444444444,0.2857142857142857,0.2,0.0065135135135135,0.0771208226221079,0.9890510948905112,Boroondara,0.5096138903409013,0.5709770523791065,Southern Metropolitan,0.2489534829029678
Balwyn,6/10 Brenbeal St,0.1428571428571428,u,0.0556996279174653,PI,Jellis,13/08/2016,0.2046413502109704,0.1054247697031729,0.2222222222222222,0.0,0.1,0.0031081081081081,0.0334190231362467,0.929440389294404,Boroondara,0.4983117415198634,0.5544116750340322,Southern Metropolitan,0.2489534829029678
Balwyn,6/29 Weir St,0.1428571428571428,u,0.0370955011838989,VB,Jellis,16/04/2016,0.2046413502109704,0.1054247697031729,0.2222222222222222,0.0,0.1,0.0,0.0253856041131105,0.9172749391727496,Boroondara,0.494073435711968,0.5503465517591906,Southern Metropolitan,0.2489534829029678
Balwyn,3/94 Balwyn Rd,0.1428571428571428,u,0.1039576051415041,S,Fletchers,16/07/2016,0.2046413502109704,0.1054247697031729,0.2222222222222222,0.0,0.2,0.0062432432432432,0.031491002570694,0.9598540145985404,Boroondara,0.4981704646595943,0.5485172462854848,Southern Metropolitan,0.2489534829029678
Balwyn,1/32 Yerrin St,0.2857142857142857,t,0.1512008118164392,S,Noel,16/07/2016,0.2046413502109704,0.1054247697031729,0.3333333333333333,0.1428571428571428,0.2,0.0082702702702702,0.0546272493573264,0.9720194647201944,Boroondara,0.5005721712840625,0.5512612044960292,Southern Metropolitan,0.2489534829029678
Balwyn,5/95 Balwyn Rd,0.1428571428571428,u,0.0702446724546172,PI,Marshall,18/03/2017,0.2046413502109704,0.1054247697031729,0.2222222222222222,0.0,0.1,0.0023513513513513,0.0282776349614395,0.9659367396593674,Boroondara,0.4966164191966982,0.5473993373849453,Southern Metropolitan,0.2489534829029678
Balwyn,29 Bevan St,0.4285714285714285,h,0.2319314466117938,S,Marshall,19/11/2016,0.2046413502109704,0.1054247697031729,0.4444444444444444,0.1428571428571428,0.2,0.0203243243243243,0.0812982005141388,0.9549878345498783,Boroondara,0.494497266292754,0.5409967682269894,Southern Metropolitan,0.2489534829029678
Balwyn,2/30 Kalimna St,0.1428571428571428,u,0.0703574247378509,PI,Noel,19/11/2016,0.2046413502109704,0.1054247697031729,0.2222222222222222,0.0,0.1,0.0057567567567567,0.0295629820051413,0.9537712895377128,Boroondara,0.5025500473277518,0.5452651476656172,Southern Metropolitan,0.2489534829029678
Balwyn,4/35 Weir St,0.1428571428571428,u,0.0585184349983087,S,Jellis,24/09/2016,0.2046413502109704,0.1054247697031729,0.2222222222222222,0.0,0.1,0.0,0.0482005141388174,0.929440389294404,Boroondara,0.494779820013278,0.5504481798410552,Southern Metropolitan,0.2489534829029678
Balwyn,165 Balwyn Rd,0.4285714285714285,h,0.199458789040478,S,Mandy,27/11/2016,0.2046413502109704,0.1054247697031729,0.4444444444444444,0.1428571428571428,0.1,0.0179729729729729,0.0498071979434447,0.9051094890510948,Boroondara,0.5074947374369501,0.5489237586130002,Southern Metropolitan,0.2489534829029678
Balwyn,47 Naroo St,0.2857142857142857,h,0.1825459465554177,VB,Jellis,27/11/2016,0.2046413502109704,0.1054247697031729,0.3333333333333333,0.1428571428571428,0.3,0.0165675675675675,0.0620179948586118,0.9087591240875914,Boroondara,0.5076360142972192,0.5350007113965773,Southern Metropolitan,0.2489534829029678
Balwyn,3/12 Brenbeal St,0.1428571428571428,u,0.0675386176570075,S,hockingstuart,28/08/2016,0.2046413502109704,0.1054247697031729,0.2222222222222222,0.0,0.1,0.0035135135135135,0.0257069408740359,0.929440389294404,Boroondara,0.4985942952403874,0.5541067907884383,Southern Metropolitan,0.2489534829029678
Balwyn,321a Union Rd,0.2857142857142857,h,0.1543578757469838,SP,Noel,28/08/2016,0.2046413502109704,0.1054247697031729,0.3333333333333333,0.1428571428571428,0.2,0.0109189189189189,0.0610539845758354,0.9914841849148416,Boroondara,0.504951753952227,0.5678265818411035,Southern Metropolitan,0.2489534829029678
Balwyn,33 Power St,0.4285714285714285,h,0.1769083323937309,VB,Marshall,30/07/2016,0.2046413502109704,0.1054247697031729,0.3333333333333333,0.0,0.1,0.0181621621621621,0.0369537275064267,0.8990267639902678,Boroondara,0.5015611093059107,0.5455700319112111,Southern Metropolitan,0.2489534829029678
Balwyn North,3/41 Clifton St,0.2857142857142857,t,0.1334987033487428,S,hockingstuart,3/09/2016,0.1940928270042194,0.1064483111566017,0.3333333333333333,0.1428571428571428,0.2,0.007027027027027,0.0536632390745501,0.978102189781022,Boroondara,0.5203509317208983,0.5688428626598068,Southern Metropolitan,0.3489958139316119
Balwyn North,153 Doncaster Rd,0.2857142857142857,h,0.1543578757469838,PI,Jellis,3/09/2016,0.1940928270042194,0.1064483111566017,0.3333333333333333,0.1428571428571428,0.1,0.021027027027027,0.0494858611825192,0.9172749391727496,Boroondara,0.5241654069479935,0.5452651476656172,Southern Metropolitan,0.3489958139316119
Balwyn North,25 Bolinda Rd,0.4285714285714285,h,0.2000225504566467,S,Noel,3/12/2016,0.1940928270042194,0.1064483111566017,0.4444444444444444,0.1428571428571428,0.2,0.0174864864864864,0.0594473007712082,0.9233576642335766,Boroondara,0.5272734978737859,0.5532937661334643,Southern Metropolitan,0.3489958139316119
Balwyn North,30 Hood St,0.4285714285714285,h,0.199458789040478,VB,Fletchers,3/12/2016,0.1940928270042194,0.1064483111566017,0.4444444444444444,0.1428571428571428,0.2,0.0173513513513513,0.0690874035989717,0.9233576642335766,Boroondara,0.517242840795106,0.5388625785076897,Southern Metropolitan,0.3489958139316119
Balwyn North,36 Kenny St,0.2857142857142857,h,0.2390348404555192,S,Marshall,3/12/2016,0.1940928270042194,0.1064483111566017,0.3333333333333333,0.0,0.2,0.024,0.0440231362467866,0.9172749391727496,Boroondara,0.5152649647514309,0.5615256407650406,Southern Metropolitan,0.3489958139316119
Balwyn North,13 Riverview Rd,0.4285714285714285,h,0.2338482354267674,PI,RW,3/12/2016,0.1940928270042194,0.1064483111566017,0.4444444444444444,0.1428571428571428,0.2,0.0202702702702702,0.0687660668380462,0.9172749391727496,Boroondara,0.528827543336682,0.5451635195837241,Southern Metropolitan,0.3489958139316119
Balwyn North,43 Sweyn St,0.2857142857142857,h,0.127861089187056,S,hockingstuart,3/12/2016,0.1940928270042194,0.1064483111566017,0.3333333333333333,0.1428571428571428,0.1,0.0093783783783783,0.0514138817480719,0.9914841849148416,Boroondara,0.5230351920658904,0.5702656558059971,Southern Metropolitan,0.3489958139316119
Balwyn North,14 Kawarren St,0.4285714285714285,h,0.1825459465554177,S,Kay,4/03/2017,0.1940928270042194,0.1064483111566017,0.4444444444444444,0.1428571428571428,0.2,0.0181891891891891,0.0594473007712082,0.929440389294404,Boroondara,0.5358913863498245,0.5583751702270376,Southern Metropolitan,0.3489958139316119
Balwyn North,88 Longview Rd,0.2857142857142857,h,0.148720261585297,VB,Jellis,4/03/2017,0.1940928270042194,0.1064483111566017,0.3333333333333333,0.0,0.2,0.0179729729729729,0.0398457583547557,0.9172749391727496,Boroondara,0.5350437251882525,0.5444521230106432,Southern Metropolitan,0.3489958139316119
Balwyn North,6 Stuart Ct,0.4285714285714285,h,0.1910023677979479,S,Fletchers,4/03/2017,0.1940928270042194,0.1064483111566017,0.4444444444444444,0.1428571428571428,0.3,0.0198918918918918,0.0723007712082262,0.9270072992700732,Boroondara,0.5234590226466764,0.5695542592329161,Southern Metropolitan,0.3489958139316119
Balwyn North,15 Ellendale St,0.2857142857142857,t,0.1148945766151764,S,Christopher,6/08/2016,0.1940928270042194,0.1064483111566017,0.3333333333333333,0.1428571428571428,0.1,0.0055945945945945,0.0462724935732647,0.981751824817518,Boroondara,0.5306641425201022,0.5585784263907954,Southern Metropolitan,0.3489958139316119
Balwyn North,5 Carrington St,0.4285714285714285,h,0.1938211748787912,VB,Jellis,7/11/2016,0.1940928270042194,0.1064483111566017,0.4444444444444444,0.1428571428571428,0.2,0.0167297297297297,0.0816195372750642,0.9659367396593674,Boroondara,0.5120155969653695,0.5507530640866776,Southern Metropolitan,0.3489958139316119
Balwyn North,3 Clive Ct,0.4285714285714285,h,0.2253918141842372,PI,RW,8/10/2016,0.1940928270042194,0.1064483111566017,0.4444444444444444,0.2857142857142857,0.2,0.0344324324324324,0.0883676092544987,0.9416058394160582,Boroondara,0.5406947995987679,0.5572572613264413,Southern Metropolitan,0.3489958139316119
Balwyn North,8 Cash St,0.4285714285714285,h,0.1814184237230804,VB,Jellis,10/09/2016,0.1940928270042194,0.1064483111566017,0.4444444444444444,0.1428571428571428,0.2,0.0164864864864864,0.0883676092544987,0.969586374695864,Boroondara,0.5377279855332446,0.5556312120164932,Southern Metropolitan,0.3489958139316119
Balwyn North,39 Kawarren St,0.4285714285714285,h,0.1418198218513924,S,Jellis,10/09/2016,0.1940928270042194,0.1064483111566017,0.3333333333333333,0.1428571428571428,0.1,0.0139729729729729,0.0793701799485861,0.9416058394160582,Boroondara,0.5395645847166648,0.5591881948820117,Southern Metropolitan,0.3489958139316119
Balwyn North,1 Bolinda Rd,0.2857142857142857,h,0.1769083323937309,VB,Fletchers,13/08/2016,0.1940928270042194,0.1064483111566017,0.3333333333333333,0.1428571428571428,0.3,0.0206216216216216,0.0539845758354755,0.929440389294404,Boroondara,0.5247305143890486,0.5529888818878419,Southern Metropolitan,0.3489958139316119
Balwyn North,56a Clifton St,0.2857142857142857,h,0.1239147592738753,S,Noel,14/05/2016,0.1940928270042194,0.1064483111566017,0.3333333333333333,0.2857142857142857,0.1,0.0083783783783783,0.0604113110539845,0.9927007299270072,Boroondara,0.5227526383453664,0.5681314660867258,Southern Metropolitan,0.3489958139316119
Balwyn North,28 Walnut Rd,0.4285714285714285,h,0.2050964032021648,S,Fletchers,14/05/2016,0.1940928270042194,0.1064483111566017,0.3333333333333333,0.2857142857142857,0.2,0.0179729729729729,0.0745501285347043,0.9416058394160582,Boroondara,0.5312292499611502,0.5569523770808189,Southern Metropolitan,0.3489958139316119
Balwyn North,54 Sutton St,0.2857142857142857,h,0.1902131018153117,S,Fletchers,15/10/2016,0.1940928270042194,0.1064483111566017,0.3333333333333333,0.0,0.1,0.0195135135135135,0.0289203084832904,0.8929440389294403,Boroondara,0.5217637003235254,0.5493302709404588,Southern Metropolitan,0.3489958139316119
Balwyn North,12 Clifton St,0.4285714285714285,h,0.1791633780584056,PI,Marshall,18/03/2017,0.1940928270042194,0.1064483111566017,0.4444444444444444,0.2857142857142857,0.2,0.0234864864864864,0.0546272493573264,0.9172749391727496,Boroondara,0.5152649647514309,0.566607044858614,Southern Metropolitan,0.3489958139316119
Balwyn North,9 Seattle St,0.4285714285714285,h,0.1740895253128875,S,Fletchers,18/03/2017,0.1940928270042194,0.1064483111566017,0.4444444444444444,0.1428571428571428,0.2,0.018027027027027,0.0645886889460154,0.9464720194647204,Boroondara,0.5388582004153619,0.5548181873615476,Southern Metropolitan,0.3489958139316119
Balwyn North,16 Sylvan St,0.4285714285714285,t,0.1746532867290562,S,Noel,18/03/2017,0.1940928270042194,0.1064483111566017,0.4444444444444444,0.2857142857142857,0.1,0.0097837837837837,0.0642673521850899,0.9951338199513382,Boroondara,0.5173841176553751,0.5451635195837241,Southern Metropolitan,0.3489958139316119
Balwyn North,5 Grieve St,0.4285714285714285,h,0.2338482354267674,S,Fletchers,19/11/2016,0.1940928270042194,0.1064483111566017,0.4444444444444444,0.1428571428571428,0.2,0.0272972972972972,0.0803341902313624,0.9172749391727496,Boroondara,0.518090501956685,0.5568507489989827,Southern Metropolitan,0.3489958139316119
Balwyn North,28 Severn St,0.2857142857142857,h,0.2220092456872251,VB,Jellis,19/11/2016,0.1940928270042194,0.1064483111566017,0.3333333333333333,0.1428571428571428,0.3,0.0256486486486486,0.0562339331619537,0.9051094890510948,Boroondara,0.5211985928824703,0.5358137360515514,Southern Metropolitan,0.3489958139316119
Balwyn North,3/1 Corhampton Rd,0.1428571428571428,h,0.0624647649114894,SP,Jellis,22/05/2016,0.1940928270042194,0.1064483111566017,0.2222222222222222,0.0,0.1,0.0047837837837837,0.0273136246786632,0.9476885644768858,Boroondara,0.5247305143890486,0.5340860586597387,Southern Metropolitan,0.3489958139316119
Balwyn North,85a Woodville St,0.2857142857142857,h,0.1357537490134175,S,Fletchers,22/05/2016,0.1940928270042194,0.1064483111566017,0.3333333333333333,0.1428571428571428,0.2,0.0099459459459459,0.0568766066838046,0.9890510948905112,Boroondara,0.5373041549524658,0.5601028476188503,Southern Metropolitan,0.3489958139316119
Balwyn North,3/48 Alpha St,0.1428571428571428,u,0.1024918254594655,S,Fletchers,24/09/2016,0.1940928270042194,0.1064483111566017,0.2222222222222222,0.0,0.1,0.0067567567567567,0.0359897172236503,0.9720194647201944,Boroondara,0.5161126259130029,0.5625419215837724,Southern Metropolitan,0.3489958139316119
Balwyn North,19 Hedderwick St,0.4285714285714285,h,0.1261698049385499,VB,Marshall,25/02/2017,0.1940928270042194,0.1064483111566017,0.4444444444444444,0.1428571428571428,0.2,0.0174054054054054,0.0491645244215938,0.9172749391727496,Boroondara,0.5159713490527338,0.5659972763673977,Southern Metropolitan,0.3489958139316119
Balwyn North,43 Helston St,0.4285714285714285,h,0.1577404442439959,PI,hockingstuart,27/06/2016,0.1940928270042194,0.1064483111566017,0.4444444444444444,0.1428571428571428,0.2,0.0189459459459459,0.063624678663239,0.929440389294404,Boroondara,0.5382930929742997,0.5620337811744207,Southern Metropolitan,0.3489958139316119
Balwyn North,11 Milfay Ct,0.2857142857142857,h,0.1713834705152779,S,Nelson,27/11/2016,0.1940928270042194,0.1064483111566017,0.3333333333333333,0.0,0.2,0.0177567567567567,0.0485218508997429,0.929440389294404,Boroondara,0.5303815887995782,0.5651842517124237,Southern Metropolitan,0.3489958139316119
Balwyn North,15 Ellendale St,0.2857142857142857,h,0.102266320892998,S,Christopher,28/05/2016,0.1940928270042194,0.1064483111566017,0.3333333333333333,0.1428571428571428,0.1,0.0055945945945945,0.0462724935732647,0.981751824817518,Boroondara,0.5306641425201022,0.5585784263907954,Southern Metropolitan,0.3489958139316119
Balwyn North,15 Maughan Pde,0.5714285714285714,h,0.1723982410643815,PI,hockingstuart,28/05/2016,0.1940928270042194,0.1064483111566017,0.4444444444444444,0.2857142857142857,0.2,0.0199189189189189,0.0620179948586118,0.9172749391727496,Boroondara,0.5190794399785261,0.5627451777475301,Southern Metropolitan,0.3489958139316119
Balwyn North,24 Willis St,0.2857142857142857,h,0.1848009922200924,PI,Fletchers,28/08/2016,0.1940928270042194,0.1064483111566017,0.3333333333333333,0.1428571428571428,0.1,0.0194594594594594,0.0472365038560411,0.9233576642335766,Boroondara,0.5243066838082626,0.5502449236772975,Southern Metropolitan,0.3489958139316119
Balwyn North,2/3 Hatfield St,0.1428571428571428,u,0.0631976547525087,S,Fletchers,30/07/2016,0.1940928270042194,0.1064483111566017,0.3333333333333333,0.0,0.1,0.0,0.0327763496143958,0.9391727493917276,Boroondara,0.5243066838082626,0.5327648935953846,Southern Metropolitan,0.3489958139316119
Bentleigh,1/236 Patterson Rd,0.2857142857142857,u,0.0838876987258992,S,hockingstuart,3/09/2016,0.2742616033755274,0.2088024564994883,0.3333333333333333,0.0,0.2,0.0094054054054054,0.0388817480719794,0.9172749391727496,Glen Eira,0.3357020753570765,0.5137604422854167,Southern Metropolitan,0.3013028549927096
Bentleigh,11 Rogers Rd,0.2857142857142857,h,0.1459014545044537,S,Buxton,3/12/2016,0.2742616033755274,0.2088024564994883,0.3333333333333333,0.1428571428571428,0.2,0.0165675675675675,0.0459511568123393,0.929440389294404,Glen Eira,0.330333554667078,0.5085774101099503,Southern Metropolitan,0.3013028549927096
Bentleigh,3/2 Scotts St,0.1428571428571428,t,0.0811816439282895,S,hockingstuart,3/12/2016,0.2742616033755274,0.2088024564994883,0.2222222222222222,0.0,0.1,0.0037837837837837,0.0803341902313624,0.9416058394160582,Glen Eira,0.3454501787152253,0.5101018313380337,Southern Metropolitan,0.3013028549927096
Bentleigh,11A Mortimore St,0.2857142857142857,h,0.1230691171496222,S,Ray,4/02/2016,0.2742616033755274,0.2088024564994883,0.3333333333333333,0.1428571428571428,0.2,0.008081081081081,0.0581619537275064,0.978102189781022,Glen Eira,0.3358433522173456,0.506341592308786,Southern Metropolitan,0.3013028549927096
Bentleigh,13 Somers St,0.2857142857142857,h,0.1337805840568271,S,Buxton,4/06/2016,0.2742616033755274,0.2088024564994883,0.3333333333333333,0.0,0.1,0.0155675675675675,0.0408097686375321,0.9111922141119224,Glen Eira,0.3532204060296919,0.4908941238643081,Southern Metropolitan,0.3013028549927096
Bentleigh,8/11 Brentwood St,0.1428571428571428,u,0.0258202728605254,PI,Buxton,6/08/2016,0.2742616033755274,0.2088024564994883,0.2222222222222222,0.0,0.1,0.0,0.022172236503856,0.9355231143552312,Glen Eira,0.3273667406015619,0.5108132279111146,Southern Metropolitan,0.3013028549927096
Bentleigh,12b Coates St,0.4285714285714285,t,0.147028977336791,S,hockingstuart,6/08/2016,0.2742616033755274,0.2088024564994883,0.3333333333333333,0.2857142857142857,0.2,0.0078648648648648,0.0681233933161953,0.9927007299270072,Glen Eira,0.3349956910557665,0.4993292546596706,Southern Metropolitan,0.3013028549927096
Bentleigh,156 Patterson Rd,0.2857142857142857,h,0.110384485285827,S,Buxton,6/08/2016,0.2742616033755274,0.2088024564994883,0.3333333333333333,0.0,0.2,0.0187027027027027,0.0526992287917737,0.9051094890510948,Glen Eira,0.3371148439597107,0.5057318238175412,Southern Metropolitan,0.3013028549927096
Bentleigh,23 Yawla St,0.2857142857142857,h,0.1543578757469838,PI,hockingstuart,7/05/2016,0.2742616033755274,0.2088024564994883,0.3333333333333333,0.1428571428571428,0.1,0.0152702702702702,0.0713367609254498,0.9051094890510948,Glen Eira,0.3553395589336361,0.4918087766011467,Southern Metropolitan,0.3013028549927096
Bentleigh,39 Luckins Rd,0.4285714285714285,h,0.1318074191002367,PI,Buxton,7/11/2016,0.2742616033755274,0.2088024564994883,0.4444444444444444,0.1428571428571428,0.2,0.0188378378378378,0.0623393316195372,0.9051094890510948,Glen Eira,0.3293446166452369,0.5132523018760651,Southern Metropolitan,0.3013028549927096
Bentleigh,592 Centre Rd,0.2857142857142857,h,0.112075769534333,S,hockingstuart,8/10/2016,0.2742616033755274,0.2088024564994883,0.3333333333333333,0.0,0.2,0.0157837837837837,0.0372750642673521,0.9148418491484184,Glen Eira,0.3461565630165495,0.513557186121659,Southern Metropolitan,0.3013028549927096
Bentleigh,74 Fromer St,0.4285714285714285,h,0.1349644830307813,S,hockingstuart,10/09/2016,0.2742616033755274,0.2088024564994883,0.3333333333333333,0.1428571428571428,0.2,0.0164864864864864,0.0359897172236503,0.9051094890510948,Glen Eira,0.3331590918723464,0.5130490457123074,Southern Metropolitan,0.3013028549927096
Bentleigh,4 Gordon St,0.2857142857142857,h,0.1363175104295862,S,hockingstuart,10/09/2016,0.2742616033755274,0.2088024564994883,0.3333333333333333,0.1428571428571428,0.1,0.0142162162162162,0.0433804627249357,0.8686131386861315,Glen Eira,0.3348544141954974,0.4965852964491262,Southern Metropolitan,0.3013028549927096
Bentleigh,58 London St,0.4285714285714285,t,0.1154583380313451,S,Buxton,10/09/2016,0.2742616033755274,0.2088024564994883,0.4444444444444444,0.2857142857142857,0.2,0.0073243243243243,0.0658740359897172,0.9902676399026766,Glen Eira,0.3386688894226068,0.5152848635134717,Southern Metropolitan,0.3013028549927096
Bentleigh,1/30 Daley St,0.1428571428571428,h,0.0816326530612245,SP,Marshall,10/12/2016,0.2742616033755274,0.2088024564994883,0.2222222222222222,0.0,0.1,0.008,0.0330976863753213,0.9051094890510948,Glen Eira,0.3399403811649648,0.5032927498526476,Southern Metropolitan,0.3013028549927096
Bentleigh,13/27 Patterson Rd,0.1428571428571428,u,0.0585184349983087,SP,hockingstuart,10/12/2016,0.2742616033755274,0.2088024564994883,0.2222222222222222,0.0,0.1,0.0031351351351351,0.0295629820051413,0.929440389294404,Glen Eira,0.3396578274444408,0.4992276265777775,Southern Metropolitan,0.3013028549927096
Bentleigh,11 Wheatley Rd,0.4285714285714285,h,0.1949486977111286,PI,McGrath,12/11/2016,0.2742616033755274,0.2088024564994883,0.4444444444444444,0.1428571428571428,0.3,0.0231081081081081,0.0633033419023136,0.8929440389294403,Glen Eira,0.3512425299860169,0.4980080895953165,Southern Metropolitan,0.3013028549927096
Bentleigh,2/15 Jasper Rd,0.1428571428571428,u,0.0669748562408388,S,hockingstuart,13/08/2016,0.2742616033755274,0.2088024564994883,0.2222222222222222,0.0,0.1,0.0061351351351351,0.0321336760925449,0.9659367396593674,Glen Eira,0.3282144017631339,0.504410658753244,Southern Metropolitan,0.3013028549927096
Bentleigh,6 Atkinson St,0.2857142857142857,h,0.1310181531176006,S,Buxton,15/10/2016,0.2742616033755274,0.2088024564994883,0.3333333333333333,0.0,0.1,0.017081081081081,0.0347043701799485,0.9172749391727496,Glen Eira,0.3344305836147185,0.5023780971157805,Southern Metropolitan,0.3013028549927096
Bentleigh,33 Luckins Rd,0.2857142857142857,h,0.1349644830307813,S,Woodards,15/10/2016,0.2742616033755274,0.2088024564994883,0.3333333333333333,0.1428571428571428,0.2,0.0186486486486486,0.0787275064267352,0.9416058394160582,Glen Eira,0.329485893505506,0.512744161466685,Southern Metropolitan,0.3013028549927096
Bentleigh,4a Rosina St,0.4285714285714285,t,0.1258315480888487,S,hockingstuart,15/10/2016,0.2742616033755274,0.2088024564994883,0.4444444444444444,0.1428571428571428,0.3,0.0095675675675675,0.0819408740359897,0.9878345498783456,Glen Eira,0.3282144017631339,0.509898575174276,Southern Metropolitan,0.3013028549927096
Bentleigh,4 Daley St,0.2857142857142857,h,0.1397000789265982,S,hockingstuart,16/07/2016,0.2742616033755274,0.2088024564994883,0.3333333333333333,0.0,0.2,0.0168648648648648,0.0459511568123393,0.9172749391727496,Glen Eira,0.3381037819815446,0.5030894936888899,Southern Metropolitan,0.3013028549927096
Bentleigh,64 Tucker Rd,0.2857142857142857,h,0.108693201037321,S,Buxton,17/09/2016,0.2742616033755274,0.2088024564994883,0.3333333333333333,0.1428571428571428,0.1,0.0157027027027027,0.0546272493573264,0.9355231143552312,Glen Eira,0.3338654761736563,0.5153864915953648,Southern Metropolitan,0.3013028549927096
