suburb,address,rooms,type,price,method,sellerg,date,distance,postcode,bedrooms,bathrooms,car,landsize,buildingarea,build_year,councilarea,latitude,longitude,regionname,propertycount
Abbotsford,25 Bloomburg St,0.1999999999999999,h,0.4017777777777775,S,Biggin,4/02/2016,0.1146788990825686,0.3236714975845405,0.3333333333333333,0.0,0.0,0.1178247734138971,0.2752613240418114,0.297619047619047,Yarra,0.4943366951125056,0.5059372011476007,Northern Metropolitan,0.2121938387794469
Abbotsford,5 Charles St,0.4,h,0.5928888888888888,SP,Biggin,4/03/2017,0.1146788990825686,0.3236714975845405,0.6666666666666667,0.4999999999999998,0.0,0.1012084592145011,0.5226480836236926,0.297619047619047,Yarra,0.4907163175588345,0.5079295505260191,Northern Metropolitan,0.2121938387794469
Abbotsford,55a Park St,0.6,h,0.6528888888888889,VB,Nelson,4/06/2016,0.1146788990825686,0.3236714975845405,0.6666666666666667,0.0,0.6666666666666667,0.0906344410876123,0.4947735191637622,0.9761904761904748,Yarra,0.4961468838893215,0.507331845712488,Northern Metropolitan,0.2121938387794469
Abbotsford,124 Yarra St,0.4,h,0.7755555555555556,S,Nelson,7/05/2016,0.1146788990825686,0.3236714975845405,1.0,0.4999999999999998,0.0,0.1850453172205436,0.73170731707317,0.3571428571428572,Yarra,0.5085596069304497,0.5176920624800627,Northern Metropolitan,0.2121938387794469
Abbotsford,98 Charles St,0.1999999999999999,h,0.668888888888889,S,Nelson,8/10/2016,0.1146788990825686,0.3236714975845405,0.3333333333333333,0.0,0.6666666666666667,0.1933534743202416,0.3728222996515676,0.2380952380952377,Yarra,0.4992500646496166,0.509921899904326,Northern Metropolitan,0.2121938387794469
Abbotsford,10 Valiant St,0.1999999999999999,h,0.429333333333333,S,Biggin,8/10/2016,0.1146788990825686,0.3236714975845405,0.6666666666666667,0.0,0.6666666666666667,0.1661631419939568,0.2613240418118463,0.297619047619047,Yarra,0.5121799844840946,0.5168951227287064,Northern Metropolitan,0.2121938387794469
Abbotsford,40 Nicholson St,0.4,h,0.5417777777777777,VB,Nelson,12/11/2016,0.1146788990825686,0.3236714975845405,0.6666666666666667,0.4999999999999998,0.6666666666666667,0.161631419939575,0.6620209059233442,0.922619047619047,Yarra,0.4927851047323515,0.5119142492827444,Northern Metropolitan,0.2121938387794469
Abbotsford,123/56 Nicholson St,0.1999999999999999,u,0.2751111111111109,S,Biggin,12/11/2016,0.1146788990825686,0.3236714975845405,0.3333333333333333,0.4999999999999998,0.3333333333333333,0.0,0.3275261324041802,0.9464285714285716,Yarra,0.4945952935091935,0.5121134842205695,Northern Metropolitan,0.2121938387794469
Abbotsford,16 William St,0.1999999999999999,h,0.5239999999999999,S,Jellis,15/10/2016,0.1146788990825686,0.3236714975845405,0.3333333333333333,0.0,0.6666666666666667,0.1797583081570992,0.3379790940766546,0.2380952380952377,Yarra,0.4914921127489115,0.5143050685368129,Northern Metropolitan,0.2121938387794469
Abbotsford,42 Henry St,0.4,h,0.475111111111111,S,Jellis,16/07/2016,0.1146788990825686,0.3236714975845405,0.6666666666666667,0.4999999999999998,0.3333333333333333,0.0853474320241678,0.3832752613240409,0.1785714285714275,Yarra,0.5002844582363686,0.5051402613962446,Northern Metropolitan,0.2121938387794469
Abbotsford,78 Yarra St,0.4,h,0.4646666666666665,S,LITTLE,16/07/2016,0.1146788990825686,0.3236714975845405,0.3333333333333333,0.0,0.3333333333333333,0.1042296072507547,0.365853658536585,0.2380952380952377,Yarra,0.5093354021205136,0.5121134842205695,Northern Metropolitan,0.2121938387794469
Abbotsford,42 Valiant St,0.1999999999999999,h,0.3373333333333332,S,Biggin,17/09/2016,0.1146788990825686,0.3236714975845405,0.3333333333333333,0.0,0.3333333333333333,0.1132930513595153,0.2543554006968637,0.8035714285714284,Yarra,0.5119213860874197,0.5198836467963062,Northern Metropolitan,0.2121938387794469
Abbotsford,3/72 Charles St,0.6,h,0.5328888888888887,PI,Kay,18/03/2017,0.1146788990825686,0.3236714975845405,1.0,0.4999999999999998,0.6666666666666667,0.5891238670694856,0.4703832752613238,0.297619047619047,Yarra,0.4958882854926466,0.5095234300287315,Northern Metropolitan,0.2121938387794469
Abbotsford,6/219 Nicholson St,0.1999999999999999,u,0.1639999999999996,S,Collins,18/06/2016,0.1146788990825686,0.3236714975845405,0.3333333333333333,0.0,0.3333333333333333,0.0,0.2090592334494763,0.7142857142857122,Yarra,0.5108869925006676,0.5135081287854568,Northern Metropolitan,0.2121938387794469
Abbotsford,52a William St,0.1999999999999999,h,0.4306666666666664,PI,Biggin,18/06/2016,0.1146788990825686,0.3236714975845405,0.3333333333333333,0.4999999999999998,0.3333333333333333,0.0936555891238658,0.4703832752613238,0.9702380952380943,Yarra,0.4943366951125056,0.5145043034746937,Northern Metropolitan,0.2121938387794469
Abbotsford,49 Park St,0.1999999999999999,h,0.5262222222222223,S,Marshall,19/11/2016,0.1146788990825686,0.3236714975845405,0.3333333333333333,0.0,0.0,0.1110271903323245,0.2961672473867592,0.297619047619047,Yarra,0.4940780967158045,0.5071326107746073,Northern Metropolitan,0.2121938387794469
Abbotsford,48 Abbotsford St,0.4,h,0.5851111111111109,PI,Nelson,22/08/2016,0.1146788990825686,0.3236714975845405,0.6666666666666667,1.0,0.3333333333333333,0.1253776435045296,0.6062717770034836,0.9642857142857122,Yarra,0.5103697957072786,0.5192859419827751,Northern Metropolitan,0.2121938387794469
Abbotsford,159 Park St,0.1999999999999999,h,0.4462222222222222,S,Nelson,22/08/2016,0.1146788990825686,0.3236714975845405,0.3333333333333333,0.4999999999999998,0.6666666666666667,0.0740181268882163,0.4459930313588841,0.4166666666666674,Yarra,0.5134729764675607,0.5095234300287315,Northern Metropolitan,0.2121938387794469
Abbotsford,60 Stafford St,0.4,h,0.5151111111111111,S,Biggin,25/02/2017,0.1146788990825686,0.3236714975845405,0.6666666666666667,0.0,0.3333333333333333,0.1268882175226577,0.432055749128919,0.5952380952380953,Yarra,0.5129557796741717,0.510718839655738,Northern Metropolitan,0.2121938387794469
Abbotsford,11/205 Gipps St,0.0,u,0.1506666666666665,S,Nelson,26/07/2016,0.1146788990825686,0.3236714975845405,0.0,0.0,0.3333333333333333,0.0,0.1742160278745634,0.9702380952380943,Yarra,0.5005430566330566,0.5113165444692689,Northern Metropolitan,0.2121938387794469
Abbotsford,47 Studley St,0.1999999999999999,h,0.4662222222222221,S,Jellis,27/11/2016,0.1146788990825686,0.3236714975845405,0.3333333333333333,0.0,0.0,0.122356495468276,0.3170731707317069,0.297619047619047,Yarra,0.5106283941039667,0.5103203697800318,Northern Metropolitan,0.2121938387794469
Abbotsford,45 Yarra St,0.4,h,0.4728888888888887,SP,Jellis,27/11/2016,0.1146788990825686,0.3236714975845405,0.6666666666666667,0.4999999999999998,0.3333333333333333,0.0906344410876123,0.4459930313588841,0.88095238095238,Yarra,0.5090768037238256,0.509921899904326,Northern Metropolitan,0.2121938387794469
Abbotsford,200 Nicholson St,0.1999999999999999,h,0.3917777777777777,S,Nelson,28/05/2016,0.1146788990825686,0.3236714975845405,0.3333333333333333,0.0,0.0,0.1374622356495466,0.2857142857142847,0.297619047619047,Yarra,0.5093354021205136,0.5143050685368129,Northern Metropolitan,0.2121938387794469
Abbotsford,27 Charles St,0.1999999999999999,h,0.3995555555555556,S,Biggin,30/07/2016,0.1146788990825686,0.3236714975845405,0.3333333333333333,0.0,0.3333333333333333,0.1299093655589113,0.282229965156794,0.4761904761904749,Yarra,0.4925265063356766,0.5083280204016136,Northern Metropolitan,0.2121938387794469
Airport West,154 Halsey Rd,0.4,t,0.3151111111111109,PI,Nelson,3/09/2016,0.6192660550458714,0.202898550724637,0.6666666666666667,0.4999999999999998,0.3333333333333333,0.2288519637462216,0.78397212543554,0.9880952380952376,Moonee Valley,0.7268166537367471,0.2760200828817042,Western Metropolitan,0.1797509791313496
Airport West,50 Bedford St,0.4,h,0.266222222222222,VB,Nelson,3/12/2016,0.6192660550458714,0.202898550724637,0.6666666666666667,0.4999999999999998,0.3333333333333333,0.0,0.5052264808362367,0.6845238095238089,Moonee Valley,0.7208688906128842,0.2710392094357419,Western Metropolitan,0.1797509791313496
Airport West,50 Bedford St,0.4,h,0.2839999999999997,SP,Nelson,4/03/2017,0.6192660550458714,0.202898550724637,0.6666666666666667,0.4999999999999998,0.3333333333333333,0.0,0.5052264808362367,0.6845238095238089,Moonee Valley,0.7208688906128842,0.2710392094357419,Western Metropolitan,0.1797509791313496
Airport West,23 Hart St,0.1999999999999999,h,0.2097777777777776,S,Nelson,4/03/2017,0.6192660550458714,0.202898550724637,0.3333333333333333,0.0,0.3333333333333333,0.2054380664652558,0.2926829268292673,0.5952380952380953,Moonee Valley,0.697336436514107,0.2959435766656088,Western Metropolitan,0.1797509791313496
Airport West,1/80 Hawker St,0.4,t,0.2528888888888889,S,Brad,4/03/2017,0.6192660550458714,0.202898550724637,0.6666666666666667,0.4999999999999998,0.6666666666666667,0.1805135951661619,0.4668989547038319,0.9464285714285716,Moonee Valley,0.7169899146625383,0.2873764743385158,Western Metropolitan,0.1797509791313496
Airport West,1/37 Hillside Gr,0.4,h,0.2084444444444443,S,Maddison,4/03/2017,0.6192660550458714,0.202898550724637,0.3333333333333333,0.0,0.3333333333333333,0.2190332326283982,0.4041811846689887,0.7738095238095224,Moonee Valley,0.702767002844594,0.2688476251195541,Western Metropolitan,0.1797509791313496
Airport West,2/49 McIntosh St,0.1999999999999999,u,0.1639999999999996,VB,Barry,4/03/2017,0.6192660550458714,0.202898550724637,0.3333333333333333,0.0,0.3333333333333333,0.1268882175226577,0.2996515679442499,0.9583333333333308,Moonee Valley,0.7177657098526151,0.2927558176601839,Western Metropolitan,0.1797509791313496
Airport West,2/252 Parer Rd,0.1999999999999999,t,0.1417777777777777,S,Barry,7/05/2016,0.6192660550458714,0.202898550724637,0.3333333333333333,0.0,0.3333333333333333,0.083081570996977,0.3135888501742151,0.9821428571428554,Moonee Valley,0.7175071114559142,0.2620736372329988,Western Metropolitan,0.1797509791313496
Airport West,3/19 Hart St,0.1999999999999999,u,0.1706666666666665,S,Barry,7/11/2016,0.6192660550458714,0.202898550724637,0.3333333333333333,0.0,0.3333333333333333,0.1064954682779455,0.2543554006968637,0.9702380952380943,Moonee Valley,0.6963020429273552,0.296541281479084,Western Metropolitan,0.1797509791313496
Airport West,2/62 Clydesdale Rd,0.1999999999999999,u,0.1773333333333331,S,Nelson,10/09/2016,0.6192660550458714,0.202898550724637,0.3333333333333333,0.0,0.3333333333333333,0.0906344410876123,0.3275261324041802,0.9642857142857122,Moonee Valley,0.7128523403155043,0.2784109021357726,Western Metropolitan,0.1797509791313496
Airport West,13 Etzel St,0.4,h,0.2995555555555555,S,Nelson,10/12/2016,0.6192660550458714,0.202898550724637,0.6666666666666667,0.0,0.3333333333333333,0.0,0.365853658536585,0.5952380952380953,Moonee Valley,0.7172485130592392,0.2766177876952352,Western Metropolitan,0.1797509791313496
Airport West,1/43 Cameron St,0.4,u,0.2759999999999999,S,Nelson,11/02/2017,0.6192660550458714,0.202898550724637,0.6666666666666667,0.0,0.3333333333333333,0.2001510574018114,0.4529616724738668,0.8511904761904758,Moonee Valley,0.6952676493405772,0.2909627032196466,Western Metropolitan,0.1797509791313496
Airport West,2/40 Earl St,0.4,t,0.2528888888888889,PI,Brad,15/10/2016,0.6192660550458714,0.202898550724637,0.6666666666666667,0.4999999999999998,0.6666666666666667,0.1246223564954669,0.4634146341463411,0.9464285714285716,Moonee Valley,0.7035427980346711,0.2939512272871903,Western Metropolitan,0.1797509791313496
Airport West,180 Parer Rd,0.4,h,0.3106666666666667,S,Barry,16/04/2016,0.6192660550458714,0.202898550724637,0.6666666666666667,0.0,0.6666666666666667,0.7333836858006048,0.3937282229965153,0.6547619047619038,Moonee Valley,0.7252650633566062,0.2720353841249232,Western Metropolitan,0.1797509791313496
Airport West,174 Parer Rd,0.1999999999999999,h,0.2417777777777774,S,Barry,16/07/2016,0.6192660550458714,0.202898550724637,0.3333333333333333,0.0,0.3333333333333333,0.4622356495468278,0.348432055749128,0.7440476190476182,Moonee Valley,0.7250064649599313,0.2730315588141046,Western Metropolitan,0.1797509791313496
Airport West,478 Fullarton Rd,0.4,h,0.3017777777777778,PI,Barry,18/03/2017,0.6192660550458714,0.202898550724637,0.6666666666666667,1.0,0.6666666666666667,0.4191842900302124,0.6689895470383268,0.7738095238095224,Moonee Valley,0.6996638220843252,0.2588858782276298,Western Metropolitan,0.1797509791313496
Airport West,144 Marshall Rd,0.4,h,0.2595555555555555,S,Rendina,18/03/2017,0.6192660550458714,0.202898550724637,0.6666666666666667,0.4999999999999998,0.6666666666666667,0.318731117824774,0.4390243902439015,0.8630952380952359,Moonee Valley,0.7309542280837942,0.2784109021357726,Western Metropolitan,0.1797509791313496
Airport West,3/7 South Rd,0.4,t,0.1817777777777777,SP,Nelson,18/06/2016,0.6192660550458714,0.202898550724637,0.3333333333333333,0.4999999999999998,0.3333333333333333,0.1216012084592133,0.3519163763066198,0.952380952380952,Moonee Valley,0.7136281355055683,0.2804032515141909,Western Metropolitan,0.1797509791313496
Airport West,37 North St,0.4,t,0.3084444444444443,SP,Barry,19/11/2016,0.6192660550458714,0.202898550724637,0.6666666666666667,0.4999999999999998,0.3333333333333333,0.2212990936555891,0.3554006968641106,0.6547619047619038,Moonee Valley,0.7216446858029613,0.275223143130348,Western Metropolitan,0.1797509791313496
Airport West,10 Hilbert Rd,0.4,h,0.246222222222222,S,Barry,22/05/2016,0.6192660550458714,0.202898550724637,0.6666666666666667,0.0,0.3333333333333333,0.4373111782477338,0.3937282229965153,0.7440476190476182,Moonee Valley,0.7149211274890213,0.2666560408033109,Western Metropolitan,0.1797509791313496
Airport West,85 Roberts Rd,0.6,h,0.3417777777777774,S,Harcourts,27/11/2016,0.6192660550458714,0.202898550724637,1.0,0.4999999999999998,1.0,0.4743202416918419,0.5087108013937274,0.7440476190476182,Moonee Valley,0.7071631755883161,0.2678514504303173,Western Metropolitan,0.1797509791313496
Albert Park,105 Kerferd Rd,0.1999999999999999,h,0.5084444444444441,S,hockingstuart,3/09/2016,0.1513761467889907,0.9951690821256042,0.3333333333333333,0.0,0.0,0.0906344410876123,0.2857142857142847,0.297619047619047,Port Phillip,0.3960693043703242,0.4304271597067,Southern Metropolitan,0.1689951481849534
Albert Park,94 Graham St,0.4,h,0.7639999999999997,S,Greg,4/03/2017,0.1513761467889907,0.9951690821256042,0.6666666666666667,0.4999999999999998,0.0,0.0966767371601194,0.4634146341463411,0.2380952380952377,Port Phillip,0.3978794931471532,0.4170784188715256,Southern Metropolitan,0.1689951481849534
Albert Park,396 Montague St,0.1999999999999999,h,0.5800000000000001,S,RT,4/03/2017,0.1513761467889907,0.9951690821256042,0.3333333333333333,0.0,0.0,0.0981873111782476,0.282229965156794,0.297619047619047,Port Phillip,0.4033100594776402,0.4324195090851182,Southern Metropolitan,0.1689951481849534
Albert Park,1 Moubray St,0.4,h,0.7417777777777778,VB,Greg,7/11/2016,0.1513761467889907,0.9951690821256042,0.6666666666666667,0.4999999999999998,0.3333333333333333,0.0996978851963729,0.5540069686411148,0.8690476190476173,Port Phillip,0.4074476338246743,0.4234539368823751,Southern Metropolitan,0.1689951481849534
Albert Park,29 Faussett St,0.1999999999999999,h,0.8839999999999998,S,Greg,10/09/2016,0.1513761467889907,0.9951690821256042,0.3333333333333333,0.0,0.3333333333333333,0.1503021148036235,0.3728222996515676,0.297619047619047,Port Phillip,0.4056374450478582,0.4302279247688748,Southern Metropolitan,0.1689951481849534
Albert Park,24 Kerferd Pl,0.4,h,0.7417777777777778,S,Marshall,10/09/2016,0.1513761467889907,0.9951690821256042,0.6666666666666667,0.4999999999999998,0.3333333333333333,0.0679758308157092,0.4250871080139364,0.297619047619047,Port Phillip,0.4058960434445333,0.4336149187121246,Southern Metropolitan,0.1689951481849534
Albert Park,4a Gatehouse La,0.4,h,0.5506666666666664,S,Greg,12/06/2016,0.1513761467889907,0.9951690821256042,0.6666666666666667,0.4999999999999998,0.6666666666666667,0.0,0.2961672473867592,0.8928571428571419,Port Phillip,0.3981380915438413,0.421660822441782,Southern Metropolitan,0.1689951481849534
Albert Park,65 Graham St,0.1999999999999999,h,0.5295555555555556,S,Greg,15/10/2016,0.1513761467889907,0.9951690821256042,0.3333333333333333,0.0,0.0,0.1125377643504527,0.3414634146341455,0.2380952380952377,Port Phillip,0.4002068787173713,0.4156837743066942,Southern Metropolitan,0.1689951481849534
Albert Park,364 Montague St,0.1999999999999999,h,0.6362222222222221,S,Greg,15/10/2016,0.1513761467889907,0.9951690821256042,0.3333333333333333,0.0,0.0,0.1064954682779455,0.2891986062717766,0.2380952380952377,Port Phillip,0.4051202482544692,0.4318218042715873,Southern Metropolitan,0.1689951481849534
Albert Park,86 Mills St,0.4,h,0.8306666666666668,VB,RT,16/04/2016,0.1513761467889907,0.9951690821256042,0.6666666666666667,0.4999999999999998,0.3333333333333333,0.159365558912387,0.5121951219512192,0.297619047619047,Port Phillip,0.3932247220067302,0.4344118584635365,Southern Metropolitan,0.1689951481849534
Albert Park,55 Merton St,0.4,h,0.875111111111111,SP,Marshall,23/04/2016,0.1513761467889907,0.9951690821256042,0.3333333333333333,0.0,0.3333333333333333,0.0906344410876123,0.4285714285714282,0.297619047619047,Port Phillip,0.4043444530643922,0.4286340452661624,Southern Metropolitan,0.1689951481849534
Albert Park,49 Page St,0.4,h,0.8306666666666668,PI,Marshall,24/09/2016,0.1513761467889907,0.9951690821256042,0.6666666666666667,0.0,0.3333333333333333,0.1797583081570992,0.4564459930313586,0.2380952380952377,Port Phillip,0.3955521075769482,0.4250478163850875,Southern Metropolitan,0.1689951481849534
Albert Park,13/52 Moubray St,0.0,u,0.1384444444444444,S,Marshall,25/02/2017,0.1513761467889907,0.9951690821256042,0.0,0.0,0.0,0.0,0.1184668989547028,0.7142857142857122,Port Phillip,0.4058960434445333,0.422856232068844,Southern Metropolitan,0.1689951481849534
Albert Park,27 Barrett St,0.6,h,0.8928888888888891,S,Greg,27/06/2016,0.1513761467889907,0.9951690821256042,0.6666666666666667,0.4999999999999998,0.3333333333333333,0.1382175226586093,0.5052264808362367,0.1785714285714275,Port Phillip,0.4025342642875631,0.4184730634364129,Southern Metropolitan,0.1689951481849534
Albert Park,6 Brooke St,0.1999999999999999,h,0.3773333333333333,S,Greg,28/05/2016,0.1513761467889907,0.9951690821256042,0.3333333333333333,0.0,0.0,0.0596676737160112,0.2369337979094067,0.2380952380952377,Port Phillip,0.4146883889319903,0.4232547019444942,Southern Metropolitan,0.1689951481849534
Albert Park,17 Reed St,0.4,h,0.7151111111111113,PI,Marshall,28/08/2016,0.1513761467889907,0.9951690821256042,0.6666666666666667,0.4999999999999998,0.6666666666666667,0.1110271903323245,0.4668989547038319,0.2380952380952377,Port Phillip,0.3989138867339183,0.4101051960472008,Southern Metropolitan,0.1689951481849534
Albert Park,9 Durham St,0.0,h,0.3795555555555556,S,Marshall,30/07/2016,0.1513761467889907,0.9951690821256042,0.0,0.0,0.0,0.0611782477341366,0.1881533101045286,0.297619047619047,Port Phillip,0.4084820274114393,0.4188715333120632,Southern Metropolitan,0.1689951481849534
Alphington,44 Shiers St,0.6,h,0.705111111111111,S,Collins,8/10/2016,0.2935779816513761,0.3768115942028985,1.0,0.4999999999999998,0.3333333333333333,0.4524169184290016,0.7073170731707316,0.4464285714285707,Darebin,0.5879493147142507,0.5808495377749707,Northern Metropolitan,0.1065061086105102
Alphington,3/19 Harker St,0.1999999999999999,u,0.1753333333333331,S,Miles,12/11/2016,0.2935779816513761,0.3768115942028985,0.3333333333333333,0.0,0.3333333333333333,0.066465256797581,0.2090592334494763,0.6547619047619038,Darebin,0.5688130333592087,0.5800525980235587,Northern Metropolitan,0.1065061086105102
Alphington,4/2 Miller St,0.1999999999999999,t,0.2995555555555555,S,Miles,12/11/2016,0.2935779816513761,0.3768115942028985,0.3333333333333333,0.4999999999999998,1.0,0.1170694864048316,0.4878048780487796,0.9166666666666649,Darebin,0.5654512542022387,0.5804510678992647,Northern Metropolitan,0.1065061086105102
Alphington,10 Bennett St,0.6,h,0.7551111111111112,S,Nelson,19/11/2016,0.2935779816513761,0.3768115942028985,1.0,0.4999999999999998,0.6666666666666667,0.457703927492446,0.3902439024390234,0.7142857142857122,Darebin,0.5812257564003238,0.5820449474019771,Northern Metropolitan,0.1065061086105102
Alphington,2c Hamilton St,0.4,h,0.3262222222222221,SP,hockingstuart,22/05/2016,0.2935779816513761,0.3768115942028985,0.6666666666666667,0.0,0.3333333333333333,0.1359516616314184,0.4564459930313586,0.952380952380952,Darebin,0.5659684509956149,0.5675007969397963,Northern Metropolitan,0.1065061086105102
Alphington,5/5 Yarana Rd,0.1999999999999999,u,0.1151111111111107,VB,Nelson,22/05/2016,0.2935779816513761,0.3768115942028985,0.3333333333333333,0.0,0.3333333333333333,0.0,0.2090592334494763,0.6547619047619038,Darebin,0.5734678044996318,0.5816464775262711,Northern Metropolitan,0.1065061086105102
Alphington,1/14 Fulham Rd,0.1999999999999999,u,0.1693333333333332,S,Love,25/02/2017,0.2935779816513761,0.3768115942028985,0.3333333333333333,0.0,0.3333333333333333,0.0,0.2125435540069682,0.6845238095238089,Darebin,0.5651926558055378,0.5712862607586406,Northern Metropolitan,0.1065061086105102
Alphington,42 Shiers St,0.6,h,0.8084444444444443,S,Jellis,30/07/2016,0.2935779816513761,0.3768115942028985,1.0,0.4999999999999998,1.0,0.4448640483383691,0.73170731707317,0.4166666666666674,Darebin,0.5874321179208748,0.5806503028370897,Northern Metropolitan,0.1065061086105102
Altona,158 Queen St,0.4,h,0.1728888888888889,VB,Greg,3/09/2016,0.6330275229357798,0.0869565217391293,0.6666666666666667,0.4999999999999998,0.3333333333333333,0.2658610271903326,0.8432055749128914,0.9821428571428554,Hobsons Bay,0.333747090768048,0.1704255658271491,Western Metropolitan,0.2871339217864032
Altona,1/123 Blyth St,0.1999999999999999,t,0.2617777777777778,S,hockingstuart,4/02/2016,0.6330275229357798,0.0869565217391293,0.3333333333333333,0.0,0.6666666666666667,0.2205438066465236,0.4355400696864108,0.9702380952380943,Hobsons Bay,0.3371088699250181,0.1598661141217494,Western Metropolitan,0.2871339217864032
Altona,4 Blyth St,0.4,h,0.4395555555555556,S,Barlow,4/03/2017,0.6330275229357798,0.0869565217391293,0.6666666666666667,0.0,0.6666666666666667,0.3821752265861015,0.4181184668989539,0.4761904761904749,Hobsons Bay,0.3355572795448641,0.1953299330570716,Western Metropolitan,0.2871339217864032
Altona,1/170 Blyth St,0.4,u,0.2217777777777777,S,Barlow,6/08/2016,0.6330275229357798,0.0869565217391293,0.3333333333333333,0.0,0.6666666666666667,0.2348942598187315,0.3275261324041802,0.6249999999999987,Hobsons Bay,0.333229893974672,0.1491074274784687,Western Metropolitan,0.2871339217864032
Altona,156 Maidstone St,0.4,h,0.2351111111111108,VB,Greg,7/05/2016,0.6330275229357798,0.0869565217391293,0.6666666666666667,0.0,0.3333333333333333,0.4546827794561924,0.4285714285714282,0.6249999999999987,Hobsons Bay,0.3554693560899961,0.1437280841568005,Western Metropolitan,0.2871339217864032
Altona,1/136 Queen St,0.1999999999999999,u,0.1995555555555554,S,Barlow,8/10/2016,0.6330275229357798,0.0869565217391293,0.3333333333333333,0.0,0.3333333333333333,0.169939577039273,0.3240418118466895,0.8214285714285698,Hobsons Bay,0.3347814843548131,0.1744102645839858,Western Metropolitan,0.2871339217864032
Altona,3/26 Grieve Pde,0.1999999999999999,u,0.1684444444444442,S,Village,10/09/2016,0.6330275229357798,0.0869565217391293,0.3333333333333333,0.0,0.3333333333333333,0.0959214501510567,0.264808362369337,0.8333333333333326,Hobsons Bay,0.3373674683217061,0.1568775900541497,Western Metropolitan,0.2871339217864032
Altona,4/5 Rose St,0.1999999999999999,u,0.1306666666666665,S,hockingstuart,10/09/2016,0.6330275229357798,0.0869565217391293,0.3333333333333333,0.0,0.6666666666666667,0.086858006042296,0.198606271777003,0.7738095238095224,Hobsons Bay,0.3311611068011421,0.1574752948676809,Western Metropolitan,0.2871339217864032
Altona,4/31 Millers Rd,0.1999999999999999,u,0.1155555555555554,SP,Greg,11/02/2017,0.6330275229357798,0.0869565217391293,0.3333333333333333,0.0,0.3333333333333333,0.0,0.2264808362369334,0.6845238095238089,Hobsons Bay,0.3394362554952231,0.1971230474976091,Western Metropolitan,0.2871339217864032
Altona,24 Wren St,0.6,h,0.3173333333333332,S,hockingstuart,11/02/2017,0.6330275229357798,0.0869565217391293,1.0,0.0,0.6666666666666667,0.5626888217522662,0.4529616724738668,0.5952380952380953,Hobsons Bay,0.3446082234290221,0.1514982467324816,Western Metropolitan,0.2871339217864032
Altona,4/57 Blyth St,0.4,u,0.266222222222222,SP,Barlow,13/08/2016,0.6330275229357798,0.0869565217391293,0.6666666666666667,0.4999999999999998,0.3333333333333333,0.0521148036253759,0.4912891986062715,0.9761904761904748,Hobsons Bay,0.3389190587018341,0.1775980235893547,Western Metropolitan,0.2871339217864032
Altona,3/46 Sargood St,0.1999999999999999,u,0.1404444444444444,S,Burnham,15/10/2016,0.6330275229357798,0.0869565217391293,0.3333333333333333,0.0,0.3333333333333333,0.103474320241692,0.2682926829268289,0.8333333333333326,Hobsons Bay,0.3453840186190991,0.1801880777813042,Western Metropolitan,0.2871339217864032
Altona,22 Fenfield St,0.4,h,0.2431111111111111,S,hockingstuart,16/04/2016,0.6330275229357798,0.0869565217391293,0.6666666666666667,0.0,0.6666666666666667,0.457703927492446,0.3031358885017418,0.5952380952380953,Hobsons Bay,0.3575381432635262,0.1453219636595129,Western Metropolitan,0.2871339217864032
Altona,5/8 David St,0.1999999999999999,u,0.1995555555555554,PI,Biggin,16/07/2016,0.6330275229357798,0.0869565217391293,0.3333333333333333,0.4999999999999998,0.3333333333333333,0.1321752265861022,0.264808362369337,0.9702380952380943,Hobsons Bay,0.3371088699250181,0.1740117947082799,Western Metropolitan,0.2871339217864032
Altona,27 McIntyre Dr,0.4,h,0.3151111111111109,SP,Greg,18/03/2017,0.6330275229357798,0.0869565217391293,0.6666666666666667,0.4999999999999998,0.6666666666666667,0.4033232628398792,0.4738675958188145,0.6845238095238089,Hobsons Bay,0.3596069304370431,0.1694293911380235,Western Metropolitan,0.2871339217864032
Altona,3/20 Mulga St,0.4,u,0.1982222222222221,S,Williams,23/04/2016,0.6330275229357798,0.0869565217391293,0.6666666666666667,0.4999999999999998,0.3333333333333333,0.1548338368580052,0.3937282229965153,0.934523809523808,Hobsons Bay,0.3378846651150821,0.1505020720433004,Western Metropolitan,0.2871339217864032
Altona,104 Maidstone St,0.1999999999999999,h,0.3226666666666665,SP,hockingstuart,27/11/2016,0.6330275229357798,0.0869565217391293,0.3333333333333333,0.4999999999999998,0.3333333333333333,0.5098187311178247,0.348432055749128,0.5952380952380953,Hobsons Bay,0.3459012154124751,0.14631813834875,Western Metropolitan,0.2871339217864032
Altona,5/57 Blyth St,0.4,u,0.266222222222222,SP,Barlow,28/05/2016,0.6330275229357798,0.0869565217391293,0.6666666666666667,0.4999999999999998,0.3333333333333333,0.0528700906344386,0.0104529616724733,0.9761904761904748,Hobsons Bay,0.3389190587018341,0.1773987886515297,Western Metropolitan,0.2871339217864032
Altona,2/60 David St,0.1999999999999999,h,0.1798222222222219,SP,Compton,30/07/2016,0.6330275229357798,0.0869565217391293,0.3333333333333333,0.0,0.3333333333333333,0.1163141993957689,0.3170731707317069,0.8690476190476173,Hobsons Bay,0.3477114041892912,0.1748087344596361,Western Metropolitan,0.2871339217864032
Altona North,4 Knapp St,0.4,h,0.2888888888888886,S,Jas,3/09/2016,0.5091743119266054,0.120772946859903,0.6666666666666667,0.0,0.6666666666666667,0.4025679758308165,0.4076655052264805,0.7142857142857122,Hobsons Bay,0.4395138350142463,0.1903490596111095,Western Metropolitan,0.2772549248845501
Altona North,3/66 Marion St,0.1999999999999999,t,0.1288888888888885,S,hockingstuart,4/03/2017,0.5091743119266054,0.120772946859903,0.3333333333333333,0.0,0.3333333333333333,0.058157099697883,0.2682926829268289,0.9464285714285716,Hobsons Bay,0.4239979312128493,0.2260121134842012,Western Metropolitan,0.2772549248845501
Altona North,33 Carthy St,0.4,h,0.245333333333333,S,FN,4/06/2016,0.5091743119266054,0.120772946859903,0.6666666666666667,0.0,0.6666666666666667,0.4033232628398792,0.5818815331010451,0.6964285714285707,Hobsons Bay,0.4413240237910623,0.1913452343002351,Western Metropolitan,0.2772549248845501
Altona North,1/5 Little St,0.4,h,0.2617777777777778,VB,Greg,6/08/2016,0.5091743119266054,0.120772946859903,0.6666666666666667,0.4999999999999998,0.3333333333333333,0.0,0.4529616724738668,0.9642857142857122,Hobsons Bay,0.4167571761055204,0.2367708001275374,Western Metropolitan,0.2772549248845501
Altona North,1/95 Mills St,0.4,h,0.203111111111111,S,Williams,7/05/2016,0.5091743119266054,0.120772946859903,0.6666666666666667,0.0,0.3333333333333333,0.2477341389728084,0.4111498257839713,0.7142857142857122,Hobsons Bay,0.4164985777088193,0.2311922218679884,Western Metropolitan,0.2772549248845501
Altona North,5 Binns St,0.4,h,0.2573333333333332,PI,Village,7/11/2016,0.5091743119266054,0.120772946859903,0.6666666666666667,0.0,1.0,0.4078549848942581,0.4041811846689887,0.6547619047619038,Hobsons Bay,0.4387380398241563,0.195927637870547,Western Metropolitan,0.2772549248845501
Altona North,2/36 May St,0.4,h,0.2417777777777774,S,hockingstuart,14/05/2016,0.5091743119266054,0.120772946859903,0.6666666666666667,0.4999999999999998,0.6666666666666667,0.1291540785498486,0.3797909407665502,0.9642857142857122,Hobsons Bay,0.4276183087664943,0.2309929869301634,Western Metropolitan,0.2772549248845501
Altona North,11 Beevers St,0.4,h,0.2564444444444442,S,Greg,15/10/2016,0.5091743119266054,0.120772946859903,0.6666666666666667,0.0,0.6666666666666667,0.4418429003021155,0.3379790940766546,0.6547619047619038,Hobsons Bay,0.4480475821050023,0.2248167038571948,Western Metropolitan,0.2772549248845501
Altona North,2 Gadsden St,0.4,h,0.2655555555555554,S,Jas,22/08/2016,0.5091743119266054,0.120772946859903,0.6666666666666667,0.0,0.3333333333333333,0.4010574018126883,0.5470383275261321,0.6547619047619038,Hobsons Bay,0.4431342125678915,0.1973222824354343,Western Metropolitan,0.2772549248845501
Altona North,24 Hansen St,0.4,h,0.3555555555555553,S,hockingstuart,22/08/2016,0.5091743119266054,0.120772946859903,0.6666666666666667,0.4999999999999998,0.3333333333333333,0.4456193353474318,0.5574912891986055,0.5952380952380953,Hobsons Bay,0.4159813809154434,0.2499203060248309,Western Metropolitan,0.2772549248845501
Altona North,6 Hill St,0.4,h,0.3039999999999997,S,hockingstuart,25/02/2017,0.5091743119266054,0.120772946859903,0.6666666666666667,0.4999999999999998,1.0,0.4191842900302124,0.4529616724738668,0.6547619047619038,Hobsons Bay,0.4325316783036053,0.1979199872489097,Western Metropolitan,0.2772549248845501
Altona North,4/221 Blackshaws Rd,0.1999999999999999,u,0.0715555555555555,S,Jas,28/08/2016,0.5091743119266054,0.120772946859903,0.3333333333333333,0.0,0.3333333333333333,0.1155589123867062,0.2439024390243893,0.7142857142857122,Hobsons Bay,0.4289113007499472,0.2499203060248309,Western Metropolitan,0.2772549248845501
Armadale,8/19 Mercer Rd,0.1999999999999999,u,0.208,S,Jellis,3/09/2016,0.2889908256880732,0.6908212560386484,0.3333333333333333,0.0,0.3333333333333333,0.0,0.264808362369337,0.6785714285714266,Stonnington,0.3743470390483632,0.5712862607586406,Southern Metropolitan,0.2599520664055649
Armadale,14/71 Denbigh Rd,0.4,u,0.3839999999999998,S,Marshall,3/12/2016,0.2889908256880732,0.6908212560386484,0.6666666666666667,0.4999999999999998,0.6666666666666667,0.0,0.348432055749128,0.88095238095238,Stonnington,0.3720196534781452,0.5509642970991415,Southern Metropolitan,0.2599520664055649
Armadale,4/769 High St,0.4,t,0.4773333333333334,S,Jellis,3/12/2016,0.2889908256880732,0.6908212560386484,0.6666666666666667,0.4999999999999998,0.6666666666666667,0.0762839879154072,0.365853658536585,0.8928571428571419,Stonnington,0.3751228342384402,0.5459834236531793,Southern Metropolitan,0.2599520664055649
Armadale,7 Llaneast St,0.4,h,0.8035555555555555,S,Jellis,3/12/2016,0.2889908256880732,0.6908212560386484,0.6666666666666667,0.4999999999999998,0.6666666666666667,0.2235649546827799,0.5226480836236926,0.2321428571428563,Stonnington,0.3559865528833721,0.5736770800127651,Southern Metropolitan,0.2599520664055649
Armadale,28 Cambridge St,0.4,h,0.772888888888889,S,Hodges,4/03/2017,0.2889908256880732,0.6908212560386484,0.6666666666666667,0.0,0.3333333333333333,0.1638972809667659,0.4041811846689887,0.2261904761904749,Stonnington,0.3616757176105601,0.5553474657316284,Southern Metropolitan,0.2599520664055649
Armadale,3/20 Mercer Rd,0.4,t,0.7942222222222223,SP,Jellis,4/03/2017,0.2889908256880732,0.6908212560386484,0.6666666666666667,0.4999999999999998,0.6666666666666667,0.0,0.5749128919860624,0.8630952380952359,Stonnington,0.3758986294284911,0.5722824354478777,Southern Metropolitan,0.2599520664055649
Armadale,12 Willis St,0.4,h,0.8528888888888886,S,Marshall,4/03/2017,0.2889908256880732,0.6908212560386484,0.6666666666666667,0.4999999999999998,0.3333333333333333,0.1548338368580052,0.4041811846689887,0.3571428571428572,Stonnington,0.3663304887509832,0.5750717245775965,Southern Metropolitan,0.2599520664055649
Armadale,10 William St,0.0,h,0.5795555555555553,SP,Jellis,8/10/2016,0.2889908256880732,0.6908212560386484,0.3333333333333333,0.4999999999999998,0.3333333333333333,0.1087613293051336,0.3728222996515676,0.297619047619047,Stonnington,0.3689164727178761,0.564512272872141,Southern Metropolitan,0.2599520664055649
Armadale,15/405 Dandenong Rd,0.0,u,0.0662222222222218,PI,hockingstuart,10/09/2016,0.2889908256880732,0.6908212560386484,0.0,0.0,0.3333333333333333,0.0,0.1324041811846679,0.7440476190476182,Stonnington,0.3546935608999321,0.5559451705451037,Southern Metropolitan,0.2599520664055649
Armadale,8/58 Sutherland Rd,0.1999999999999999,u,0.205111111111111,S,hockingstuart,10/12/2016,0.2889908256880732,0.6908212560386484,0.3333333333333333,0.0,0.3333333333333333,0.0,0.2543554006968637,0.7142857142857122,Stonnington,0.3663304887509832,0.553753586228916,Southern Metropolitan,0.2599520664055649
Armadale,40 New St,0.1999999999999999,h,0.4795555555555556,S,Marshall,12/11/2016,0.2889908256880732,0.6908212560386484,0.3333333333333333,0.0,0.0,0.1880664652567971,0.3344947735191628,0.3571428571428572,Stonnington,0.3743470390483632,0.5509642970991415,Southern Metropolitan,0.2599520664055649
Armadale,791 High St,0.4,h,0.7417777777777778,PI,RT,15/10/2016,0.2889908256880732,0.6908212560386484,0.6666666666666667,0.4999999999999998,0.6666666666666667,0.3058912386706943,0.4216027874564457,0.3571428571428572,Stonnington,0.3738298422549872,0.547975773031542,Southern Metropolitan,0.2599520664055649
Armadale,10/581 Orrong Rd,0.0,u,0.137333333333333,SP,Jellis,18/03/2017,0.2889908256880732,0.6908212560386484,0.0,0.0,0.3333333333333333,0.0,0.1846689895470379,0.7142857142857122,Stonnington,0.3774502198086452,0.5419987248963984,Southern Metropolitan,0.2599520664055649
Armadale,14 New St,0.4,h,0.5195555555555552,VB,Jellis,18/06/2016,0.2889908256880732,0.6908212560386484,0.3333333333333333,0.0,0.6666666666666667,0.1601208459214496,0.3693379790940758,0.297619047619047,Stonnington,0.3746056374450642,0.5487727127829538,Southern Metropolitan,0.2599520664055649
Armadale,6/51 Armadale St,0.1999999999999999,u,0.2546666666666665,SP,Greg,19/11/2016,0.2889908256880732,0.6908212560386484,0.3333333333333333,0.0,0.3333333333333333,0.0,0.2578397212543544,0.7083333333333335,Stonnington,0.3665890871476581,0.5561444054829288,Southern Metropolitan,0.2599520664055649
Armadale,12/41 Kooyong Rd,0.1999999999999999,u,0.2173333333333331,VB,Marshall,19/11/2016,0.2889908256880732,0.6908212560386484,0.6666666666666667,0.0,0.3333333333333333,0.0,0.3414634146341455,0.7142857142857122,Stonnington,0.360641324023795,0.5585352247369975,Southern Metropolitan,0.2599520664055649
Armadale,63 Denbigh Rd,0.4,h,0.786222222222222,S,Marshall,22/05/2016,0.2889908256880732,0.6908212560386484,0.6666666666666667,0.0,0.6666666666666667,0.2477341389728084,0.3763066202090583,0.297619047619047,Stonnington,0.3702094647013291,0.5505658272234915,Southern Metropolitan,0.2599520664055649
Armadale,1/14 Denbigh Rd,0.1999999999999999,u,0.2075555555555553,S,hockingstuart,25/02/2017,0.2889908256880732,0.6908212560386484,0.3333333333333333,0.0,0.3333333333333333,0.0,0.3066202090592325,0.7142857142857122,Stonnington,0.3614171192138721,0.5501673573477854,Southern Metropolitan,0.2599520664055649
Armadale,75 Sutherland Rd,0.4,h,0.5128888888888888,S,Marshall,25/02/2017,0.2889908256880732,0.6908212560386484,0.6666666666666667,0.0,0.6666666666666667,0.1404833836858001,0.2787456445993022,0.4166666666666674,Stonnington,0.3715024566847693,0.5535543512910353,Southern Metropolitan,0.2599520664055649
Armadale,1/403 Dandenong Rd,0.1999999999999999,u,0.1728888888888889,S,hockingstuart,27/06/2016,0.2889908256880732,0.6908212560386484,0.0,0.0,0.3333333333333333,0.0,0.264808362369337,0.7142857142857122,Stonnington,0.3549521592966202,0.5555467006694537,Southern Metropolitan,0.2599520664055649
Armadale,3/769 High St,0.4,t,0.431111111111111,S,Jellis,27/11/2016,0.2889908256880732,0.6908212560386484,0.6666666666666667,0.0,0.6666666666666667,0.0777945619335325,0.0104529616724733,0.8928571428571419,Stonnington,0.3746056374450642,0.5459834236531793,Southern Metropolitan,0.2599520664055649
Armadale,1/31 Mercer Rd,0.4,u,0.328,S,Jellis,28/05/2016,0.2889908256880732,0.6908212560386484,0.3333333333333333,0.0,0.3333333333333333,0.0,0.3170731707317069,0.5357142857142843,Stonnington,0.3777088182053331,0.5716847306343467,Southern Metropolitan,0.2599520664055649
Armadale,5/555 Orrong Rd,0.0,u,0.1937777777777775,S,hockingstuart,28/08/2016,0.2889908256880732,0.6908212560386484,0.0,0.0,0.3333333333333333,0.0,0.1846689895470379,0.9702380952380943,Stonnington,0.3727954486682223,0.5416002550207482,Southern Metropolitan,0.2599520664055649
Ascot Vale,30 Rothwell St,0.4,h,0.3595555555555556,S,Nelson,3/12/2016,0.2706422018348622,0.1545893719806767,0.6666666666666667,0.0,0.6666666666666667,0.2250755287009054,0.3763066202090583,0.4166666666666674,Moonee Valley,0.5724334109128537,0.358702582084755,Western Metropolitan,0.3611387151458466
Ascot Vale,9/5 Rothwell St,0.1999999999999999,u,0.1493333333333332,SP,Brad,3/12/2016,0.2706422018348622,0.1545893719806767,0.3333333333333333,0.0,0.3333333333333333,0.0,0.2160278745644589,0.7738095238095224,Moonee Valley,0.5765709852599008,0.3598979917118171,Western Metropolitan,0.3611387151458466
Ascot Vale,7 Francis St,0.4,h,0.5551111111111111,SP,Nelson,4/03/2017,0.2706422018348622,0.1545893719806767,0.6666666666666667,0.4999999999999998,0.6666666666666667,0.2092145015105721,0.6062717770034836,0.3571428571428572,Moonee Valley,0.5724334109128537,0.3638826904685979,Western Metropolitan,0.3611387151458466
Ascot Vale,2/21 Harold St,0.1999999999999999,u,0.1595555555555554,VB,Jellis,4/03/2017,0.2706422018348622,0.1545893719806767,0.3333333333333333,0.0,0.3333333333333333,0.3194864048338367,0.2160278745644589,0.7142857142857122,Moonee Valley,0.5830359451771399,0.3228402932737823,Western Metropolitan,0.3611387151458466
Ascot Vale,98 Epsom Rd,0.4,h,0.3733333333333333,SP,Nelson,4/06/2016,0.2706422018348622,0.1545893719806767,0.6666666666666667,0.4999999999999998,0.6666666666666667,0.215256797583082,0.4459930313588841,0.297619047619047,Moonee Valley,0.5794155676234949,0.3379821485495499,Western Metropolitan,0.3611387151458466
Ascot Vale,8 Geddes St,0.1999999999999999,h,0.2573333333333332,PI,Nelson,4/06/2016,0.2706422018348622,0.1545893719806767,0.3333333333333333,0.0,0.3333333333333333,0.161631419939575,0.2682926829268289,0.2380952380952377,Moonee Valley,0.5726920093095547,0.3481431303792994,Western Metropolitan,0.3611387151458466
Ascot Vale,119 Roseberry St,0.1999999999999999,h,0.2751111111111109,SP,Maddison,4/06/2016,0.2706422018348622,0.1545893719806767,0.3333333333333333,0.0,0.3333333333333333,0.1706948640483385,0.3205574912891977,0.4166666666666674,Moonee Valley,0.5807085596069348,0.3383806184252558,Western Metropolitan,0.3611387151458466
Ascot Vale,10 Fenton St,0.1999999999999999,h,0.4097777777777777,S,Nelson,6/08/2016,0.2706422018348622,0.1545893719806767,0.3333333333333333,0.0,0.3333333333333333,0.2031722054380649,0.3797909407665502,0.297619047619047,Moonee Valley,0.5799327644168708,0.3776299011794782,Western Metropolitan,0.3611387151458466
Ascot Vale,10 McCully St,0.4,h,0.5537777777777778,S,Nelson,6/08/2016,0.2706422018348622,0.1545893719806767,0.6666666666666667,0.0,0.3333333333333333,0.3149546827794549,0.5853658536585359,0.297619047619047,Moonee Valley,0.5778639772433538,0.3612926362767042,Western Metropolitan,0.3611387151458466
Ascot Vale,120 Epsom Rd,0.4,h,0.3728888888888886,S,Brad,7/05/2016,0.2706422018348622,0.1545893719806767,0.6666666666666667,0.0,0.6666666666666667,0.2643504531722044,0.4355400696864108,0.3214285714285725,Moonee Valley,0.5770881820532767,0.3397752629900872,Western Metropolitan,0.3611387151458466
Ascot Vale,63 Kent St,0.1999999999999999,h,0.2755555555555556,PI,Nelson,7/05/2016,0.2706422018348622,0.1545893719806767,0.3333333333333333,0.0,0.3333333333333333,0.0891238670694841,0.2752613240418114,0.2380952380952377,Moonee Valley,0.5646754590121619,0.3772314313037723,Western Metropolitan,0.3611387151458466
Ascot Vale,4 The Parade,0.1999999999999999,h,0.3639999999999997,SP,Raine,7/05/2016,0.2706422018348622,0.1545893719806767,0.3333333333333333,0.0,0.3333333333333333,0.130664652567974,0.3554006968641106,0.297619047619047,Moonee Valley,0.5843289371606057,0.3608941664009983,Western Metropolitan,0.3611387151458466
Ascot Vale,1/17 Epsom Rd,0.1999999999999999,u,0.246222222222222,S,Brad,7/11/2016,0.2706422018348622,0.1545893719806767,0.3333333333333333,0.0,0.6666666666666667,0.1722054380664639,0.3135888501742151,0.8630952380952359,Moonee Valley,0.5876907163175757,0.3330012751035877,Western Metropolitan,0.3611387151458466
Ascot Vale,41 Monash St,0.4,h,0.4884444444444445,S,Nelson,8/10/2016,0.2706422018348622,0.1545893719806767,1.0,0.0,0.6666666666666667,0.4486404833836853,0.51567944250871,0.6547619047619038,Moonee Valley,0.5615722782518797,0.3326028052278818,Western Metropolitan,0.3611387151458466
Ascot Vale,51 Francis St,0.1999999999999999,h,0.2839999999999997,PI,Nelson,10/09/2016,0.2706422018348622,0.1545893719806767,0.3333333333333333,0.0,0.3333333333333333,0.1706948640483385,0.3031358885017418,0.297619047619047,Moonee Valley,0.5732092061029308,0.3569094676442175,Western Metropolitan,0.3611387151458466
Ascot Vale,12 Mirams St,0.6,h,0.3373333333333332,SP,Raine,10/12/2016,0.2706422018348622,0.1545893719806767,1.0,0.0,0.3333333333333333,0.2265861027190335,0.6445993031358883,0.2380952380952377,Moonee Valley,0.5752779932764478,0.3483423653171802,Western Metropolitan,0.3611387151458466
Ascot Vale,78 The Parade,0.4,h,0.5817777777777776,S,Nelson,11/02/2017,0.2706422018348622,0.1545893719806767,0.6666666666666667,0.0,0.3333333333333333,0.3678247734138964,0.4564459930313586,0.297619047619047,Moonee Valley,0.5858805275407337,0.3489400701307113,Western Metropolitan,0.3611387151458466
Ascot Vale,26 Newsom St,0.4,h,0.3862222222222221,PI,Brad,12/11/2016,0.2706422018348622,0.1545893719806767,0.6666666666666667,0.4999999999999998,0.6666666666666667,0.3323262839879136,0.4181184668989539,0.6249999999999987,Moonee Valley,0.5804499612102467,0.3260280522792072,Western Metropolitan,0.3611387151458466
Ascot Vale,8 Pentland St,0.4,h,0.5795555555555553,S,Nelson,12/11/2016,0.2706422018348622,0.1545893719806767,0.6666666666666667,0.4999999999999998,0.6666666666666667,0.401812688821751,0.5121951219512192,0.5952380952380953,Moonee Valley,0.5827773467804649,0.3278211667197445,Western Metropolitan,0.3611387151458466
Ascot Vale,8/129 The Parade,0.0,u,0.1151111111111107,S,Alexkarbon,12/11/2016,0.2706422018348622,0.1545893719806767,0.0,0.0,0.3333333333333333,0.0,0.2020905923344937,0.7261904761904749,Moonee Valley,0.5863977243341099,0.3385798533630809,Western Metropolitan,0.3611387151458466
Ascot Vale,52 Monash St,0.4,h,0.575111111111111,PI,Jellis,13/08/2016,0.2706422018348622,0.1545893719806767,0.6666666666666667,0.4999999999999998,0.6666666666666667,0.3738670694864035,0.4843205574912889,0.4166666666666674,Moonee Valley,0.5610550814585038,0.3308096907873442,Western Metropolitan,0.3611387151458466
Ascot Vale,58 Fenton St,0.6,h,0.5373333333333334,S,Nelson,14/05/2016,0.2706422018348622,0.1545893719806767,0.6666666666666667,0.4999999999999998,0.6666666666666667,0.5158610271903319,0.8083623693379784,0.7619047619047623,Moonee Valley,0.5794155676234949,0.3836069493147332,Western Metropolitan,0.3611387151458466
Ascot Vale,70 Munro St,0.4,h,0.3662222222222221,S,Brad,14/05/2016,0.2706422018348622,0.1545893719806767,0.6666666666666667,0.0,0.3333333333333333,0.198640483383686,0.4076655052264805,0.3571428571428572,Moonee Valley,0.5786397724334178,0.3429630219955121,Western Metropolitan,0.3611387151458466
Ascot Vale,3/28 Ormond Rd,0.1999999999999999,u,0.1337777777777774,S,Biggin,15/10/2016,0.2706422018348622,0.1545893719806767,0.3333333333333333,0.0,0.3333333333333333,0.0,0.2160278745644589,0.7619047619047623,Moonee Valley,0.5845875355572807,0.3802199553713161,Western Metropolitan,0.3611387151458466
Ascot Vale,7 Angler Pde,0.6,h,0.6706666666666665,S,Raine,16/04/2016,0.2706422018348622,0.1545893719806767,1.0,1.0,0.6666666666666667,0.4244712990936541,0.7108013937282223,0.2380952380952377,Moonee Valley,0.5613136798552048,0.3258288173413819,Western Metropolitan,0.3611387151458466
Ascot Vale,2/127 Epsom Rd,0.1999999999999999,u,0.2128888888888889,SP,Brad,16/04/2016,0.2706422018348622,0.1545893719806767,0.3333333333333333,0.0,0.3333333333333333,0.2273413897280962,0.3623693379790932,0.8630952380952359,Moonee Valley,0.5688130333592087,0.3477446605036491,Western Metropolitan,0.3611387151458466
Ascot Vale,57 The Parade,0.4,h,0.3595555555555556,S,Nelson,16/04/2016,0.2706422018348622,0.1545893719806767,0.6666666666666667,1.0,0.3333333333333333,0.3708459214501499,0.4425087108013934,0.5952380952380953,Moonee Valley,0.5853633307473578,0.3469477207522929,Western Metropolitan,0.3611387151458466
Ascot Vale,62 Mirams St,0.4,h,0.3373333333333332,SP,Brad,16/07/2016,0.2706422018348622,0.1545893719806767,0.6666666666666667,0.0,0.3333333333333333,0.1827794561933527,0.3832752613240409,0.4166666666666674,Moonee Valley,0.5755365916731487,0.3425645521198062,Western Metropolitan,0.3611387151458466
Ascot Vale,67 Hurtle St,0.4,h,0.4662222222222221,SP,Brad,17/09/2016,0.2706422018348622,0.1545893719806767,0.6666666666666667,0.4999999999999998,0.6666666666666667,0.466012084592144,0.5191637630662018,0.4761904761904749,Moonee Valley,0.5814843547970119,0.3318058654765812,Western Metropolitan,0.3611387151458466
Ascot Vale,95 Walter St,0.6,h,0.5995555555555554,S,Raine,17/09/2016,0.2706422018348622,0.1545893719806767,1.0,0.4999999999999998,0.6666666666666667,0.4509063444108762,0.6271777003484313,0.5297619047619038,Moonee Valley,0.5776053788466657,0.3373844437360745,Western Metropolitan,0.3611387151458466
Ascot Vale,3/8 Walter St,0.1999999999999999,t,0.3262222222222221,SP,Nelson,18/03/2017,0.2706422018348622,0.1545893719806767,0.3333333333333333,0.4999999999999998,0.3333333333333333,0.1102719033232618,0.4599303135888494,0.9821428571428554,Moonee Valley,0.5889837083010288,0.3274226968440943,Western Metropolitan,0.3611387151458466
Ascot Vale,12/9 Milton St,0.1999999999999999,u,0.138222222222222,S,Alexkarbon,18/06/2016,0.2706422018348622,0.1545893719806767,0.3333333333333333,0.0,0.3333333333333333,0.0,0.2160278745644589,0.7440476190476182,Moonee Valley,0.5838117403672167,0.363484220592892,Western Metropolitan,0.3611387151458466
Ascot Vale,21A Geddes St,0.4,h,0.4028888888888889,S,Alexkarbon,19/11/2016,0.2706422018348622,0.1545893719806767,0.6666666666666667,0.0,0.6666666666666667,0.3821752265861015,0.3832752613240409,0.4166666666666674,Moonee Valley,0.5719162141194778,0.3463500159387618,Western Metropolitan,0.3611387151458466
Ascot Vale,1/20 Newsom St,0.4,t,0.4084444444444444,S,Jellis,19/11/2016,0.2706422018348622,0.1545893719806767,0.6666666666666667,0.4999999999999998,0.6666666666666667,0.2401812688821731,0.5574912891986055,0.9702380952380943,Moonee Valley,0.5809671580036357,0.326824992030619,Western Metropolitan,0.3611387151458466
Ascot Vale,4/27 Roseberry St,0.1999999999999999,u,0.137333333333333,S,McDonald,19/11/2016,0.2706422018348622,0.1545893719806767,0.3333333333333333,0.0,0.3333333333333333,0.0,0.2264808362369334,0.7142857142857122,Moonee Valley,0.5796741660201699,0.3471469556901739,Western Metropolitan,0.3611387151458466
Ascot Vale,43 Bloomfield Rd,0.6,h,0.5773333333333334,S,Nelson,22/05/2016,0.2706422018348622,0.1545893719806767,1.0,0.4999999999999998,0.0,0.3157099697885177,0.5505226480836228,0.297619047619047,Moonee Valley,0.5752779932764478,0.3571087025820983,Western Metropolitan,0.3611387151458466
Ascot Vale,21 Middle St,0.4,h,0.4439999999999999,S,Nelson,23/04/2016,0.2706422018348622,0.1545893719806767,0.6666666666666667,0.4999999999999998,0.3333333333333333,0.2054380664652558,0.5470383275261321,0.297619047619047,Moonee Valley,0.5732092061029308,0.3756375518010599,Western Metropolitan,0.3611387151458466
Ascot Vale,78 Francis St,0.4,h,0.4462222222222222,S,Brad,24/09/2016,0.2706422018348622,0.1545893719806767,0.6666666666666667,0.0,0.3333333333333333,0.2235649546827799,0.3623693379790932,0.3571428571428572,Moonee Valley,0.5742435996896829,0.3549171182658548,Western Metropolitan,0.3611387151458466
Ascot Vale,25 Geddes St,0.6,h,0.3639999999999997,PI,Nelson,24/09/2016,0.2706422018348622,0.1545893719806767,1.0,0.4999999999999998,0.3333333333333333,0.2250755287009054,0.5121951219512192,0.4166666666666674,Moonee Valley,0.5721748125161787,0.3459515460630559,Western Metropolitan,0.3611387151458466
Ascot Vale,15 Mirams St,0.6,h,0.5395555555555553,S,Jellis,25/02/2017,0.2706422018348622,0.1545893719806767,1.0,0.0,0.3333333333333333,0.4169184290030216,0.5400696864111496,0.4166666666666674,Moonee Valley,0.5745021980863838,0.3473461906279989,Western Metropolitan,0.3611387151458466
Ascot Vale,44 Walter St,0.4,h,0.5557777777777777,S,Barry,25/02/2017,0.2706422018348622,0.1545893719806767,0.6666666666666667,0.4999999999999998,0.6666666666666667,0.3141993957703923,0.5853658536585359,0.297619047619047,Moonee Valley,0.5853633307473578,0.3308096907873442,Western Metropolitan,0.3611387151458466
Ascot Vale,25 Dalgety Dr,0.4,h,0.3595555555555556,S,Jellis,26/07/2016,0.2706422018348622,0.1545893719806767,0.6666666666666667,0.4999999999999998,0.6666666666666667,0.215256797583082,0.5993031358885009,0.9583333333333308,Moonee Valley,0.5721748125161787,0.3320051004144063,Western Metropolitan,0.3611387151458466
Ascot Vale,7 Dalgety Dr,0.4,h,0.3839999999999998,S,Nelson,26/07/2016,0.2706422018348622,0.1545893719806767,0.6666666666666667,0.4999999999999998,0.3333333333333333,0.2371601208459196,0.616724738675958,0.952380952380952,Moonee Valley,0.5721748125161787,0.3282196365954505,Western Metropolitan,0.3611387151458466
Ascot Vale,6 Waller Ct,0.4,h,0.291111111111111,S,Brad,26/07/2016,0.2706422018348622,0.1545893719806767,0.6666666666666667,0.4999999999999998,0.3333333333333333,0.4350453172205429,0.4181184668989539,0.5357142857142843,Moonee Valley,0.5623480734419568,0.3630857507171861,Western Metropolitan,0.3611387151458466
Ascot Vale,17 Ascot St,0.1999999999999999,h,0.2551111111111109,PI,Nelson,27/06/2016,0.2706422018348622,0.1545893719806767,0.3333333333333333,0.0,1.0,0.190332326283988,0.3763066202090583,0.3571428571428572,Moonee Valley,0.5600206878717517,0.3608941664009983,Western Metropolitan,0.3611387151458466
Ascot Vale,73 Kent St,0.1999999999999999,h,0.2795555555555555,PI,Nelson,27/06/2016,0.2706422018348622,0.1545893719806767,0.3333333333333333,0.0,0.3333333333333333,0.0936555891238658,0.2682926829268289,0.297619047619047,Moonee Valley,0.5646754590121619,0.3766337264902968,Western Metropolitan,0.3611387151458466
Ascot Vale,1 East St,0.4,t,0.3862222222222221,S,Nelson,27/11/2016,0.2706422018348622,0.1545893719806767,0.6666666666666667,0.4999999999999998,0.6666666666666667,0.151057401812689,0.5017421602787449,0.9107142857142834,Moonee Valley,0.5752779932764478,0.3750398469875288,Western Metropolitan,0.3611387151458466
Ascot Vale,1 Bloomfield Rd,0.4,h,0.5217777777777776,S,Barry,28/05/2016,0.2706422018348622,0.1545893719806767,0.3333333333333333,0.0,0.3333333333333333,0.2099697885196376,0.5783972125435533,0.297619047619047,Moonee Valley,0.5747607964830717,0.3642811603443038,Western Metropolitan,0.3611387151458466
Ascot Vale,58 Bloomfield Rd,0.4,h,0.4817777777777776,S,Stockdale,28/08/2016,0.2706422018348622,0.1545893719806767,0.6666666666666667,0.0,0.3333333333333333,0.341389728096677,0.6097560975609754,0.6547619047619038,Moonee Valley,0.5763123868631999,0.3545186483901489,Western Metropolitan,0.3611387151458466
Ascot Vale,1/91 Epsom Rd,0.1999999999999999,u,0.1839999999999996,S,Nelson,28/08/2016,0.2706422018348622,0.1545893719806767,0.3333333333333333,0.0,0.6666666666666667,0.1465256797583073,0.2473867595818811,0.297619047619047,Moonee Valley,0.5737264028963067,0.343361491871218,Western Metropolitan,0.3611387151458466
Ashburton,69 Albion Rd,0.4,h,0.684,S,Jellis,3/12/2016,0.5045871559633027,0.7101449275362326,0.6666666666666667,0.4999999999999998,0.6666666666666667,0.4524169184290016,0.7665505226480829,0.4761904761904749,Boroondara,0.340729247478676,0.6561603442779906,Southern Metropolitan,0.1556672707078973
Ashburton,3 Dunlop St,0.4,h,0.632888888888889,S,Jellis,4/06/2016,0.5045871559633027,0.7101449275362326,0.6666666666666667,0.4999999999999998,0.6666666666666667,0.5521148036253773,0.5191637630662018,0.5059523809523809,Boroondara,0.342539436255505,0.6537695250239219,Southern Metropolitan,0.1556672707078973
Ashburton,16a Nicholas St,0.4,h,0.4306666666666664,PI,Marshall,8/10/2016,0.5045871559633027,0.7101449275362326,0.6666666666666667,1.0,0.6666666666666667,0.2084592145015094,0.6202090592334487,0.9166666666666649,Boroondara,0.334005689164736,0.6740914886834768,Southern Metropolitan,0.1556672707078973
Ashburton,5 Nicholas St,0.4,h,0.536,S,Buxton,8/10/2016,0.5045871559633027,0.7101449275362326,0.6666666666666667,0.0,0.6666666666666667,0.4403323262839873,0.3902439024390234,0.5952380952380953,Boroondara,0.3376260667184071,0.6756853681861892,Southern Metropolitan,0.1556672707078973
Ashburton,1/1 Nairn St,0.4,h,0.6164444444444445,S,Jellis,10/09/2016,0.5045871559633027,0.7101449275362326,0.6666666666666667,0.4999999999999998,0.6666666666666667,0.3897280966767368,0.5052264808362367,0.4166666666666674,Boroondara,0.3402120506853002,0.6521756455212095,Southern Metropolitan,0.1556672707078973
Ashburton,9 Gona Ct,0.4,h,0.7017777777777777,S,hockingstuart,10/12/2016,0.5045871559633027,0.7101449275362326,0.6666666666666667,0.0,0.6666666666666667,0.608761329305135,0.3519163763066198,0.5952380952380953,Boroondara,0.335040082751488,0.6864440548294697,Southern Metropolitan,0.1556672707078973
Ashburton,45 Yuile St,0.4,h,0.6773333333333331,S,Jellis,10/12/2016,0.5045871559633027,0.7101449275362326,0.6666666666666667,0.0,1.0,0.5891238670694856,0.5296167247386752,0.5357142857142843,Boroondara,0.3598655288337181,0.6814631813835075,Southern Metropolitan,0.1556672707078973
Ashburton,47 Yuile St,0.6,h,0.6306666666666666,VB,Marshall,12/11/2016,0.5045871559633027,0.7101449275362326,1.0,0.4999999999999998,0.6666666666666667,0.5891238670694856,0.6271777003484313,0.5238095238095233,Boroondara,0.3596069304370431,0.6818616512592135,Southern Metropolitan,0.1556672707078973
Ashburton,6a Glen Rd,0.4,h,0.6804444444444444,S,Jellis,14/05/2016,0.5045871559633027,0.7101449275362326,0.6666666666666667,0.4999999999999998,0.6666666666666667,0.2651057401812671,0.7944250871080133,0.9285714285714276,Boroondara,0.3228859581070609,0.6585511635320034,Southern Metropolitan,0.1556672707078973
Ashburton,18 Glen Rd,0.4,h,0.6817777777777777,S,Jellis,15/10/2016,0.5045871559633027,0.7101449275362326,0.6666666666666667,0.4999999999999998,1.0,0.530211480362537,0.5052264808362367,0.5654761904761911,Boroondara,0.3241789500905139,0.6575549888428778,Southern Metropolitan,0.1556672707078973
Ashburton,2/17 Ashburn Gr,0.4,t,0.3417777777777774,S,Jellis,19/11/2016,0.5045871559633027,0.7101449275362326,0.6666666666666667,0.4999999999999998,0.6666666666666667,0.1155589123867062,0.3832752613240409,0.8333333333333326,Boroondara,0.3453840186190991,0.6800685368186203,Southern Metropolitan,0.1556672707078973
Ashburton,3 Mustang Ct,0.4,h,0.6084444444444442,VB,Jellis,22/08/2016,0.5045871559633027,0.7101449275362326,0.6666666666666667,0.4999999999999998,0.6666666666666667,0.5362537764350441,0.4843205574912889,0.5654761904761911,Boroondara,0.3459012154124751,0.6978004462862815,Southern Metropolitan,0.1556672707078973
Ashburton,4 Vears Rd,0.4,h,0.7551111111111112,S,Jellis,25/02/2017,0.5045871559633027,0.7101449275362326,0.6666666666666667,0.4999999999999998,1.0,0.546827794561933,0.5853658536585359,0.5357142857142843,Boroondara,0.3546935608999321,0.6942142174051509,Southern Metropolitan,0.1556672707078973
Ashburton,14 Lucerne St,0.4,h,0.5706666666666665,S,Buxton,27/06/2016,0.5045871559633027,0.7101449275362326,0.6666666666666667,0.0,0.3333333333333333,0.4569486404833833,0.3867595818815327,0.5952380952380953,Boroondara,0.332971295577971,0.6732945489321207,Southern Metropolitan,0.1556672707078973
Ashburton,5 Pitt St,0.1999999999999999,h,0.5817777777777776,PI,Jellis,27/06/2016,0.5045871559633027,0.7101449275362326,0.3333333333333333,0.0,0.3333333333333333,0.5188821752265854,0.3623693379790932,0.5357142857142843,Boroondara,0.3285751228342491,0.6569572840293467,Southern Metropolitan,0.1556672707078973
Ashburton,1/65 Ashburn Gr,0.6,t,0.4973333333333329,VB,Noel,27/11/2016,0.5045871559633027,0.7101449275362326,1.0,0.4999999999999998,0.6666666666666667,0.242447129909364,0.6933797909407664,0.934523809523808,Boroondara,0.3355572795448641,0.6784746573159637,Southern Metropolitan,0.1556672707078973
Ashburton,33 Highgate Gr,0.6,h,0.7373333333333332,PI,hockingstuart,28/05/2016,0.5045871559633027,0.7101449275362326,1.0,0.4999999999999998,0.6666666666666667,0.3882175226586086,0.8362369337979088,0.5059523809523809,Boroondara,0.343056633048881,0.6728960790564147,Southern Metropolitan,0.1556672707078973
Ashburton,19 Poulter St,0.4,h,0.6751111111111108,S,Marshall,28/08/2016,0.5045871559633027,0.7101449275362326,0.6666666666666667,0.0,0.3333333333333333,0.5264350453172207,0.5714285714285707,0.5773809523809512,Boroondara,0.3502973881562101,0.6989958559133436,Southern Metropolitan,0.1556672707078973
Ashwood,1/53 Winbirra Pde,0.6,h,0.475111111111111,SP,Purplebricks,4/03/2017,0.5596330275229358,0.7101449275362326,1.0,1.0,0.6666666666666667,0.2809667673716003,0.7003484320557489,0.9880952380952376,Monash,0.329609516421001,0.7181224099457806,Southern Metropolitan,0.1464312854387092
Ashwood,18 Montrose St,0.1999999999999999,h,0.4195555555555556,VB,Jellis,4/06/2016,0.5596330275229358,0.7101449275362326,0.3333333333333333,0.0,0.6666666666666667,0.5249244712990926,0.3972125435540061,0.5952380952380953,Monash,0.335298681148189,0.7071644883647306,Southern Metropolitan,0.1464312854387092
Ashwood,4 Scenic Dr,0.6,h,0.6084444444444442,S,Fletchers,6/08/2016,0.5596330275229358,0.7101449275362326,0.3333333333333333,0.4999999999999998,0.6666666666666667,0.4690332326283976,0.7073170731707316,0.8928571428571419,Monash,0.3474528057926161,0.7229040484539735,Southern Metropolitan,0.1464312854387092
Ashwood,1/7 Farmer St,0.1999999999999999,t,0.2528888888888889,S,hockingstuart,7/11/2016,0.5596330275229358,0.7101449275362326,0.3333333333333333,0.0,0.6666666666666667,0.2771903323262841,0.3832752613240409,0.7142857142857122,Monash,0.3435738298422701,0.7362527892891477,Southern Metropolitan,0.1464312854387092
Ashwood,95 Huntingdale Rd,0.6,h,0.4306666666666664,VB,Tim,10/12/2016,0.5596330275229358,0.7101449275362326,0.6666666666666667,0.4999999999999998,0.6666666666666667,0.606495468277947,0.5296167247386752,0.7142857142857122,Monash,0.3541763641065562,0.7434252470512976,Southern Metropolitan,0.1464312854387092
Ashwood,1/7 Murra Ct,0.1999999999999999,u,0.2484444444444443,S,Ray,14/05/2016,0.5596330275229358,0.7101449275362326,0.3333333333333333,0.0,0.3333333333333333,0.1631419939577032,0.3135888501742151,0.9107142857142834,Monash,0.330902508404454,0.7217086388269112,Southern Metropolitan,0.1464312854387092
Ashwood,58 Ashwood Dr,0.4,h,0.6666666666666666,S,Jellis,15/10/2016,0.5596330275229358,0.7101449275362326,0.6666666666666667,0.4999999999999998,1.0,0.5906344410876138,0.749128919860627,0.5952380952380953,Monash,0.3541763641065562,0.7225055785782675,Southern Metropolitan,0.1464312854387092
Ashwood,4/36 Queens Pde,0.1999999999999999,u,0.2084444444444443,S,Noel,18/03/2017,0.5596330275229358,0.7101449275362326,0.3333333333333333,0.0,0.3333333333333333,0.1155589123867062,0.2787456445993022,0.7142857142857122,Monash,0.3347814843548131,0.7107507172458056,Southern Metropolitan,0.1464312854387092
Ashwood,17 Parkhill Dr,0.6,h,0.4928888888888887,S,Tim,19/11/2016,0.5596330275229358,0.7101449275362326,1.0,0.4999999999999998,0.6666666666666667,0.5785498489425995,0.6689895470383268,0.5952380952380953,Monash,0.352107576933026,0.7376474338540349,Southern Metropolitan,0.1464312854387092
Ashwood,2/6 Murra Ct,0.1999999999999999,u,0.2528888888888889,S,hockingstuart,22/08/2016,0.5596330275229358,0.7101449275362326,0.3333333333333333,0.0,0.6666666666666667,0.1450151057401791,0.3066202090592325,0.934523809523808,Monash,0.3314197051978431,0.7223063436404422,Southern Metropolitan,0.1464312854387092
Ashwood,4 Teck St,0.1999999999999999,h,0.435111111111111,S,Fletchers,24/09/2016,0.5596330275229358,0.7101449275362326,0.3333333333333333,0.0,0.3333333333333333,0.4425981873111782,0.2996515679442499,0.5952380952380953,Monash,0.3381432635117832,0.7346589097864353,Southern Metropolitan,0.1464312854387092
Ashwood,14 Ashwood Dr,0.4,h,0.5217777777777776,S,Jellis,25/02/2017,0.5596330275229358,0.7101449275362326,0.6666666666666667,0.0,0.3333333333333333,0.5740181268882177,0.4181184668989539,0.6547619047619038,Monash,0.3647788983708422,0.7258925725215173,Southern Metropolitan,0.1464312854387092
Ashwood,1/2 Condah Ct,0.4,h,0.3217777777777778,S,Noel,25/02/2017,0.5596330275229358,0.7101449275362326,0.6666666666666667,0.4999999999999998,0.3333333333333333,0.2416918429003013,0.2961672473867592,0.6428571428571428,Monash,0.333747090768048,0.7388428434810412,Southern Metropolitan,0.1464312854387092
Ashwood,1/16 Raymond St,0.4,t,0.3419999999999998,S,Jellis,27/11/2016,0.5596330275229358,0.7101449275362326,0.6666666666666667,0.4999999999999998,0.6666666666666667,0.1933534743202416,0.4668989547038319,0.9642857142857122,Monash,0.3453840186190991,0.7374481989161541,Southern Metropolitan,0.1464312854387092
Ashwood,4 Newbury Ct,0.4,h,0.475111111111111,VB,Buxton,28/05/2016,0.5596330275229358,0.7101449275362326,0.6666666666666667,0.4999999999999998,0.6666666666666667,0.6336858006042291,0.6898954703832745,0.7142857142857122,Monash,0.3559865528833721,0.7378466687918601,Southern Metropolitan,0.1464312854387092
Ashwood,2/53 Salisbury Rd,0.4,t,0.3106666666666667,S,Barry,28/08/2016,0.5596330275229358,0.7101449275362326,0.3333333333333333,0.0,0.6666666666666667,0.1601208459214496,0.4529616724738668,0.9642857142857122,Monash,0.3277993276441721,0.7360535543513225,Southern Metropolitan,0.1464312854387092
Avondale Heights,8 Norma Ct,0.4,h,0.3195555555555555,S,Moonee,3/09/2016,0.4816513761467889,0.1642512077294679,0.6666666666666667,0.0,0.3333333333333333,0.4478851963746227,0.4111498257839713,0.7142857142857122,Moonee Valley,0.5982932505818619,0.2549011794707932,Western Metropolitan,0.240427895013737
Avondale Heights,9 Rogerson St,0.4,h,0.2751111111111109,SP,Moonee,3/09/2016,0.4816513761467889,0.1642512077294679,0.6666666666666667,0.0,0.3333333333333333,0.0,0.3588850174216024,0.7738095238095224,Moonee Valley,0.6094129816395368,0.242349378386975,Western Metropolitan,0.240427895013737
Avondale Heights,157 Canning St,0.4,t,0.3199999999999998,S,Nelson,3/12/2016,0.4816513761467889,0.1642512077294679,0.6666666666666667,1.0,0.3333333333333333,0.4206948640483378,0.6306620209059232,0.9940476190476192,Moonee Valley,0.5923454874579859,0.2345792158112939,Western Metropolitan,0.240427895013737
Avondale Heights,2 Arbor Tce,0.6,h,0.455111111111111,S,Nelson,4/06/2016,0.4816513761467889,0.1642512077294679,0.6666666666666667,0.4999999999999998,0.6666666666666667,0.4297583081570985,0.78397212543554,0.9404761904761902,Moonee Valley,0.6042410137057248,0.251115715651893,Western Metropolitan,0.240427895013737
Avondale Heights,68 Thompson St,0.4,h,0.2439999999999997,S,Nelson,6/08/2016,0.4816513761467889,0.1642512077294679,0.6666666666666667,0.0,0.6666666666666667,0.430513595166164,0.4181184668989539,0.7142857142857122,Moonee Valley,0.6205327126971989,0.2286021676760949,Western Metropolitan,0.240427895013737
Avondale Heights,97 Military Rd,0.4,h,0.2206666666666664,SP,Moonee,8/10/2016,0.4816513761467889,0.1642512077294679,0.6666666666666667,0.0,0.3333333333333333,0.4154078549848934,0.4982578397212541,0.7142857142857122,Moonee Valley,0.609930178432913,0.2445409627032184,Western Metropolitan,0.240427895013737
Avondale Heights,8 Herbert St,0.4,h,0.2551111111111109,S,Nelson,22/05/2016,0.4816513761467889,0.1642512077294679,0.6666666666666667,0.0,0.3333333333333333,0.438821752265862,0.3693379790940758,0.6547619047619038,Moonee Valley,0.5946728730281907,0.2351769206247695,Western Metropolitan,0.240427895013737
Avondale Heights,20 Westminster Dr,0.4,h,0.3384444444444442,S,Nelson,22/05/2016,0.4816513761467889,0.1642512077294679,0.6666666666666667,0.0,0.3333333333333333,0.4425981873111782,0.4111498257839713,0.6845238095238089,Moonee Valley,0.6073441944659939,0.2407554988842626,Western Metropolitan,0.240427895013737
Avondale Heights,1/24 Bordeaux St,0.1999999999999999,h,0.1739999999999998,S,Nelson,24/09/2016,0.4816513761467889,0.1642512077294679,0.3333333333333333,0.0,0.3333333333333333,0.1661631419939568,0.3519163763066198,0.8630952380952359,Moonee Valley,0.6285492629945788,0.2483264265221742,Western Metropolitan,0.240427895013737
Avondale Heights,72 Military Rd,0.6,h,0.2439999999999997,PI,Nelson,24/09/2016,0.4816513761467889,0.1642512077294679,1.0,0.4999999999999998,0.6666666666666667,0.418429003021147,0.4878048780487796,0.6547619047619038,Moonee Valley,0.6055340056891778,0.2467325470194619,Western Metropolitan,0.240427895013737
Avondale Heights,2 Drake Ct,0.4,h,0.3306666666666667,S,Edward,25/02/2017,0.4816513761467889,0.1642512077294679,0.6666666666666667,0.0,1.0,0.6132930513595167,0.4076655052264805,0.6547619047619038,Moonee Valley,0.6052754072924769,0.2357746254383004,Western Metropolitan,0.240427895013737
Avondale Heights,109 North Rd,0.6,h,0.2804444444444445,S,Nelson,26/07/2016,0.4816513761467889,0.1642512077294679,1.0,0.4999999999999998,0.6666666666666667,0.4448640483383691,0.5226480836236926,0.660714285714286,Moonee Valley,0.6251874838376088,0.2270082881733825,Western Metropolitan,0.240427895013737
Avondale Heights,2/4 Carmyle Ct,0.1999999999999999,u,0.1244444444444443,PI,Barry,27/11/2016,0.4816513761467889,0.1642512077294679,0.3333333333333333,0.0,0.3333333333333333,0.0,0.2961672473867592,0.8630952380952359,Moonee Valley,0.6161365399534509,0.2461348422059308,Western Metropolitan,0.240427895013737
Avondale Heights,10 Skewes St,0.4,h,0.2995555555555555,S,Nelson,27/11/2016,0.4816513761467889,0.1642512077294679,0.6666666666666667,0.4999999999999998,0.6666666666666667,0.4478851963746227,0.3588850174216024,0.7142857142857122,Moonee Valley,0.6163951383501518,0.2363723302518316,Western Metropolitan,0.240427895013737
Avondale Heights,43 Skewes St,0.4,h,0.2235555555555554,S,Nelson,28/05/2016,0.4816513761467889,0.1642512077294679,1.0,0.4999999999999998,0.3333333333333333,0.4395770392749247,0.533101045296167,0.5952380952380953,Moonee Valley,0.6223429014740149,0.2337822760598821,Western Metropolitan,0.240427895013737
Balaclava,18 Linton St,0.6,h,0.7502222222222223,S,Gary,3/09/2016,0.3027522935779815,0.8840579710144941,0.6666666666666667,0.4999999999999998,0.3333333333333333,0.1842900302114781,0.6271777003484313,0.297619047619047,Port Phillip,0.342022239462129,0.5047417915205388,Southern Metropolitan,0.1498217104109428
Balaclava,7/72 Grosvenor St,0.1999999999999999,u,0.124,PI,hockingstuart,3/12/2016,0.3027522935779815,0.8840579710144941,0.3333333333333333,0.0,0.6666666666666667,0.0,0.2125435540069682,0.6845238095238089,Port Phillip,0.325730540470655,0.510718839655738,Southern Metropolitan,0.1498217104109428
Balaclava,1/34 Gourlay St,0.1999999999999999,t,0.3928888888888887,S,Gary,7/11/2016,0.3027522935779815,0.8840579710144941,0.3333333333333333,0.0,0.6666666666666667,0.0861027190332305,0.4181184668989539,0.8928571428571419,Port Phillip,0.3277993276441721,0.5113165444692689,Southern Metropolitan,0.1498217104109428
Balaclava,4/9 Gourlay St,0.1999999999999999,u,0.165111111111111,S,Buxton,15/10/2016,0.3027522935779815,0.8840579710144941,0.3333333333333333,0.0,0.3333333333333333,0.0,0.2264808362369334,0.6547619047619038,Port Phillip,0.3272821308507961,0.5095234300287315,Southern Metropolitan,0.1498217104109428
Balaclava,1/22 Sycamore Gr,0.1999999999999999,u,0.1728888888888889,S,Gary,15/10/2016,0.3027522935779815,0.8840579710144941,0.3333333333333333,0.0,0.0,0.0,0.2020905923344937,0.7142857142857122,Port Phillip,0.3228859581070609,0.5135081287854568,Southern Metropolitan,0.1498217104109428
Balaclava,6/23 Gourlay St,0.1999999999999999,u,0.138222222222222,SP,Buxton,17/09/2016,0.3027522935779815,0.8840579710144941,0.3333333333333333,0.0,0.3333333333333333,0.0,0.2125435540069682,0.6547619047619038,Port Phillip,0.3270235324541081,0.5115157794070384,Southern Metropolitan,0.1498217104109428
Balaclava,6 Blenheim St,0.4,h,0.4719999999999997,S,McGrath,18/06/2016,0.3027522935779815,0.8840579710144941,0.6666666666666667,0.0,0.3333333333333333,0.134441087613293,0.348432055749128,0.4166666666666674,Port Phillip,0.343315231445569,0.5087264902773194,Southern Metropolitan,0.1498217104109428
Balaclava,3/20 Orange Gr,0.1999999999999999,u,0.1266666666666666,S,Chisholm,18/06/2016,0.3027522935779815,0.8840579710144941,0.3333333333333333,0.0,0.3333333333333333,0.0,0.1707317073170727,0.6547619047619038,Port Phillip,0.3394362554952231,0.5123127191584502,Southern Metropolitan,0.1498217104109428
Balaclava,2/19 Camden St,0.1999999999999999,u,0.1524444444444442,S,hockingstuart,22/05/2016,0.3027522935779815,0.8840579710144941,0.3333333333333333,0.0,0.3333333333333333,0.0,0.2055749128919856,0.7142857142857122,Port Phillip,0.3422808378588041,0.5025502072043508,Southern Metropolitan,0.1498217104109428
Balaclava,1/17 Albion St,0.1999999999999999,h,0.3777777777777776,S,Buxton,25/02/2017,0.3027522935779815,0.8840579710144941,0.3333333333333333,0.0,0.0,0.1200906344410851,0.2926829268292673,0.4761904761904749,Port Phillip,0.323403154900437,0.5057379662097756,Southern Metropolitan,0.1498217104109428
Balaclava,10 Grosvenor St,0.4,h,0.6928888888888889,S,McGrath,25/02/2017,0.3027522935779815,0.8840579710144941,0.6666666666666667,0.4999999999999998,0.6666666666666667,0.2560422960725064,0.5540069686411148,0.2380952380952377,Port Phillip,0.3285751228342491,0.5009563277016384,Southern Metropolitan,0.1498217104109428
Balaclava,3/33 Gourlay St,0.1999999999999999,u,0.1817777777777777,VB,McGrath,27/06/2016,0.3027522935779815,0.8840579710144941,0.3333333333333333,0.0,0.3333333333333333,0.3648036253776428,0.1777003484320553,0.7142857142857122,Port Phillip,0.3267649340574071,0.5129104239719813,Southern Metropolitan,0.1498217104109428
Balwyn,166 Gordon St,0.1999999999999999,h,0.875111111111111,S,Marshall,3/09/2016,0.4449541284403668,0.4975845410628021,0.3333333333333333,0.0,0.3333333333333333,0.4977341389728105,0.4285714285714282,0.4166666666666674,Boroondara,0.4904577191621596,0.6798693018807953,Southern Metropolitan,0.3094055065177996
Balwyn,36 Narrak Rd,0.6,h,0.7417777777777778,VB,Marshall,3/09/2016,0.4449541284403668,0.4975845410628021,1.0,0.4999999999999998,0.6666666666666667,0.5400302114803631,0.7595818815331004,0.8035714285714284,Boroondara,0.4863201448151126,0.7099537774944493,Southern Metropolitan,0.3094055065177996
Balwyn,2/16 Westminster St,0.1999999999999999,t,0.4995555555555553,S,Noel,3/09/2016,0.4449541284403668,0.4975845410628021,0.3333333333333333,0.0,0.3333333333333333,0.1570996978851961,0.449477351916376,0.8928571428571419,Boroondara,0.4816653736746895,0.7133407714376991,Southern Metropolitan,0.3094055065177996
Balwyn,2/74 Balwyn Rd,0.4,u,0.4173333333333333,SA,Philip,3/12/2016,0.4449541284403668,0.4975845410628021,0.6666666666666667,0.4999999999999998,0.6666666666666667,0.1555891238670679,0.3902439024390234,0.88095238095238,Boroondara,0.4731316265839335,0.6808654765699764,Southern Metropolitan,0.3094055065177996
Balwyn,5/14 Parring Rd,0.1999999999999999,u,0.2999999999999998,S,Noel,3/12/2016,0.4449541284403668,0.4975845410628021,0.3333333333333333,0.0,0.3333333333333333,0.0921450151057376,0.3379790940766546,0.7559523809523809,Boroondara,0.4826997672614544,0.7015859101051816,Southern Metropolitan,0.3094055065177996
Balwyn,142 Balwyn Rd,0.1999999999999999,h,0.7639999999999997,VB,Fletchers,6/08/2016,0.4449541284403668,0.4975845410628021,0.6666666666666667,0.0,0.3333333333333333,0.7666163141993967,0.5783972125435533,0.4761904761904749,Boroondara,0.4956296870959456,0.6836547656997509,Southern Metropolitan,0.3094055065177996
Balwyn,4/3 King St,0.4,h,0.2528888888888889,VB,Marshall,7/05/2016,0.4449541284403668,0.4975845410628021,0.6666666666666667,0.0,0.3333333333333333,0.1419939577039255,0.3832752613240409,0.7142857142857122,Boroondara,0.4979570726661635,0.648589416640079,Southern Metropolitan,0.3094055065177996
Balwyn,3/18 Weir St,0.1999999999999999,h,0.1639999999999996,S,Marshall,7/05/2016,0.4449541284403668,0.4975845410628021,0.3333333333333333,0.0,0.3333333333333333,0.0,0.2508710801393718,0.6547619047619038,Boroondara,0.4728730281872323,0.6866432897672949,Southern Metropolitan,0.3094055065177996
Balwyn,13 Naroo St,0.6,h,0.7417777777777778,PI,Jellis,8/10/2016,0.4449541284403668,0.4975845410628021,0.6666666666666667,0.4999999999999998,0.6666666666666667,0.4358006042296056,0.6968641114982571,0.5833333333333317,Boroondara,0.5064908197569327,0.6571565189671718,Southern Metropolitan,0.3094055065177996
Balwyn,101/201 Whitehorse Rd,0.1999999999999999,u,0.2239999999999997,S,Fletchers,8/10/2016,0.4449541284403668,0.4975845410628021,0.3333333333333333,0.0,0.3333333333333333,0.0,0.2439024390243893,0.9761904761904748,Boroondara,0.4847685544349714,0.6633328020401406,Southern Metropolitan,0.3094055065177996
Balwyn,1/252 Union Rd,0.1999999999999999,u,0.1755555555555555,S,hockingstuart,10/09/2016,0.4449541284403668,0.4975845410628021,0.3333333333333333,0.0,0.3333333333333333,0.0,0.2543554006968637,0.6547619047619038,Boroondara,0.4775277993276555,0.7169270003187742,Southern Metropolitan,0.3094055065177996
Balwyn,1/18 Belmore Rd,0.4,h,0.3439999999999998,S,Kay,10/12/2016,0.4449541284403668,0.4975845410628021,0.6666666666666667,0.0,0.6666666666666667,0.2122356495468256,0.5226480836236926,0.8630952380952359,Boroondara,0.5114041892940437,0.648987886515785,Southern Metropolitan,0.3094055065177996
Balwyn,11/22 Brenbeal St,0.1999999999999999,t,0.2795555555555555,S,Christopher,10/12/2016,0.4449541284403668,0.4975845410628021,0.3333333333333333,0.0,0.3333333333333333,0.0913897280966749,0.348432055749128,0.6547619047619038,Boroondara,0.4858029480217364,0.6946126872808567,Southern Metropolitan,0.3094055065177996
Balwyn,3/3 Iramoo St,0.4,t,0.5493333333333332,S,Jellis,10/12/2016,0.4449541284403668,0.4975845410628021,0.6666666666666667,0.4999999999999998,0.6666666666666667,0.1654078549848941,0.5714285714285707,0.9107142857142834,Boroondara,0.4824411688647664,0.6882371692700073,Southern Metropolitan,0.3094055065177996
Balwyn,2/8 Evelina St,0.6,t,0.564,PI,Noel,12/11/2016,0.4449541284403668,0.4975845410628021,1.0,1.0,0.6666666666666667,0.1820241691842901,0.8362369337979088,0.9464285714285716,Boroondara,0.5039048357900267,0.7266895122728734,Southern Metropolitan,0.3094055065177996
Balwyn,6/10 Brenbeal St,0.1999999999999999,u,0.2195555555555554,PI,Jellis,13/08/2016,0.4449541284403668,0.4975845410628021,0.3333333333333333,0.0,0.3333333333333333,0.086858006042296,0.3623693379790932,0.6547619047619038,Boroondara,0.4832169640548434,0.6942142174051509,Southern Metropolitan,0.3094055065177996
Balwyn,6/29 Weir St,0.1999999999999999,u,0.1462222222222219,VB,Jellis,16/04/2016,0.4449541284403668,0.4975845410628021,0.3333333333333333,0.0,0.3333333333333333,0.0,0.2752613240418114,0.5952380952380953,Boroondara,0.4754590121541384,0.6862448198916447,Southern Metropolitan,0.3094055065177996
Balwyn,3/94 Balwyn Rd,0.1999999999999999,u,0.4097777777777777,S,Fletchers,16/07/2016,0.4449541284403668,0.4975845410628021,0.3333333333333333,0.0,0.6666666666666667,0.1744712990936547,0.3414634146341455,0.8035714285714284,Boroondara,0.4829583656581425,0.6826585910105141,Southern Metropolitan,0.3094055065177996
Balwyn,1/32 Yerrin St,0.4,t,0.5959999999999998,S,Noel,16/07/2016,0.4449541284403668,0.4975845410628021,0.6666666666666667,0.4999999999999998,0.6666666666666667,0.2311178247734124,0.5923344947735184,0.8630952380952359,Boroondara,0.4873545384018645,0.6880379343321821,Southern Metropolitan,0.3094055065177996
Balwyn,5/95 Balwyn Rd,0.1999999999999999,u,0.2768888888888889,PI,Marshall,18/03/2017,0.4449541284403668,0.4975845410628021,0.3333333333333333,0.0,0.3333333333333333,0.0657099697885183,0.3066202090592325,0.8333333333333326,Boroondara,0.4801137832945485,0.6804670066943821,Southern Metropolitan,0.3094055065177996
Balwyn,2/30 Kalimna St,0.1999999999999999,u,0.2773333333333331,PI,Noel,19/11/2016,0.4449541284403668,0.4975845410628021,0.3333333333333333,0.0,0.3333333333333333,0.1608761329305124,0.3205574912891977,0.7738095238095224,Boroondara,0.4909749159555356,0.6762830729997202,Southern Metropolitan,0.3094055065177996
Balwyn,4/35 Weir St,0.1999999999999999,u,0.2306666666666666,S,Jellis,24/09/2016,0.4449541284403668,0.4975845410628021,0.3333333333333333,0.0,0.3333333333333333,0.0,0.5226480836236926,0.6547619047619038,Boroondara,0.4767520041375785,0.6864440548294697,Southern Metropolitan,0.3094055065177996
Balwyn,165 Balwyn Rd,0.6,h,0.786222222222222,S,Mandy,27/11/2016,0.4449541284403668,0.4975845410628021,1.0,0.4999999999999998,0.3333333333333333,0.5022658610271895,0.5400696864111496,0.5357142857142843,Boroondara,0.5000258598396676,0.6834555307619259,Southern Metropolitan,0.3094055065177996
Balwyn,47 Naroo St,0.4,h,0.7195555555555555,VB,Jellis,27/11/2016,0.4449541284403668,0.4975845410628021,0.6666666666666667,0.4999999999999998,1.0,0.4629909365558904,0.6724738675958186,0.5535714285714284,Boroondara,0.5002844582363686,0.6561603442779906,Southern Metropolitan,0.3094055065177996
Balwyn,3/12 Brenbeal St,0.1999999999999999,u,0.266222222222222,S,hockingstuart,28/08/2016,0.4449541284403668,0.4975845410628021,0.3333333333333333,0.0,0.3333333333333333,0.0981873111782476,0.2787456445993022,0.6547619047619038,Boroondara,0.4837341608482194,0.6936165125916753,Southern Metropolitan,0.3094055065177996
Balwyn,321a Union Rd,0.4,h,0.6084444444444442,SP,Noel,28/08/2016,0.4449541284403668,0.4975845410628021,0.6666666666666667,0.4999999999999998,0.6666666666666667,0.3051359516616316,0.6620209059233442,0.9583333333333308,Boroondara,0.4953710886992705,0.7205132291999048,Southern Metropolitan,0.3094055065177996
Balwyn,33 Power St,0.6,h,0.6973333333333331,VB,Marshall,30/07/2016,0.4449541284403668,0.4975845410628021,0.6666666666666667,0.0,0.3333333333333333,0.5075528700906339,0.4006968641114979,0.5059523809523809,Boroondara,0.4891647271787065,0.6768807778131956,Southern Metropolitan,0.3094055065177996
Balwyn North,3/41 Clifton St,0.4,t,0.5262222222222223,S,hockingstuart,3/09/2016,0.4220183486238532,0.5024154589371979,0.6666666666666667,0.4999999999999998,0.6666666666666667,0.1963746223564952,0.5818815331010451,0.8928571428571419,Boroondara,0.5235583139384707,0.7225055785782675,Southern Metropolitan,0.4337405740340211
Balwyn North,153 Doncaster Rd,0.4,h,0.6084444444444442,PI,Jellis,3/09/2016,0.4220183486238532,0.5024154589371979,0.6666666666666667,0.4999999999999998,0.3333333333333333,0.5876132930513601,0.5365853658536578,0.5952380952380953,Boroondara,0.5305404706490857,0.6762830729997202,Southern Metropolitan,0.4337405740340211
Balwyn North,25 Bolinda Rd,0.6,h,0.7884444444444444,S,Noel,3/12/2016,0.4220183486238532,0.5024154589371979,1.0,0.4999999999999998,0.6666666666666667,0.488670694864047,0.6445993031358883,0.6249999999999987,Boroondara,0.5362296353762737,0.6920226330889632,Southern Metropolitan,0.4337405740340211
Balwyn North,30 Hood St,0.6,h,0.786222222222222,VB,Fletchers,3/12/2016,0.4220183486238532,0.5024154589371979,1.0,0.4999999999999998,0.6666666666666667,0.4848942598187308,0.749128919860627,0.6249999999999987,Boroondara,0.5178691492112826,0.6637312719158464,Southern Metropolitan,0.4337405740340211
Balwyn North,43 Sweyn St,0.4,h,0.5039999999999999,S,hockingstuart,3/12/2016,0.4220183486238532,0.5024154589371979,0.6666666666666667,0.4999999999999998,0.3333333333333333,0.2620845921450135,0.5574912891986055,0.9583333333333308,Boroondara,0.5284716834755687,0.7252948677079862,Southern Metropolitan,0.4337405740340211
Balwyn North,14 Kawarren St,0.6,h,0.7195555555555555,S,Kay,4/03/2017,0.4220183486238532,0.5024154589371979,1.0,0.4999999999999998,0.6666666666666667,0.5083081570996966,0.6445993031358883,0.6547619047619038,Boroondara,0.5520041375743459,0.7019843799808876,Southern Metropolitan,0.4337405740340211
Balwyn North,88 Longview Rd,0.4,h,0.5862222222222219,VB,Jellis,4/03/2017,0.4220183486238532,0.5024154589371979,0.6666666666666667,0.0,0.6666666666666667,0.5022658610271895,0.432055749128919,0.5952380952380953,Boroondara,0.5504525471942177,0.6746891934970078,Southern Metropolitan,0.4337405740340211
Balwyn North,6 Stuart Ct,0.6,h,0.7528888888888889,S,Fletchers,4/03/2017,0.4220183486238532,0.5024154589371979,1.0,0.4999999999999998,1.0,0.5558912386706936,0.78397212543554,0.6428571428571428,Boroondara,0.5292474786656327,0.7239002231431546,Southern Metropolitan,0.4337405740340211
Balwyn North,15 Ellendale St,0.4,t,0.4528888888888887,S,Christopher,6/08/2016,0.4220183486238532,0.5024154589371979,0.6666666666666667,0.4999999999999998,0.3333333333333333,0.1563444108761306,0.5017421602787449,0.9107142857142834,Boroondara,0.5424359968968377,0.7023828498565934,Southern Metropolitan,0.4337405740340211
Balwyn North,39 Kawarren St,0.6,h,0.559022222222222,S,Jellis,10/09/2016,0.4220183486238532,0.5024154589371979,0.6666666666666667,0.4999999999999998,0.3333333333333333,0.3904833836857995,0.8606271777003484,0.7142857142857122,Boroondara,0.5587276958882859,0.7035782594836,Southern Metropolitan,0.4337405740340211
Balwyn North,1 Bolinda Rd,0.4,h,0.6973333333333331,VB,Fletchers,13/08/2016,0.4220183486238532,0.5024154589371979,0.6666666666666667,0.4999999999999998,1.0,0.5762839879154087,0.5853658536585359,0.6547619047619038,Boroondara,0.5315748642358507,0.6914249282754321,Southern Metropolitan,0.4337405740340211
Balwyn North,56a Clifton St,0.4,h,0.4884444444444445,S,Noel,14/05/2016,0.4220183486238532,0.5024154589371979,0.6666666666666667,1.0,0.3333333333333333,0.234138972809666,0.6550522648083617,0.9642857142857122,Boroondara,0.5279544866821926,0.7211109340134358,Southern Metropolitan,0.4337405740340211
Balwyn North,28 Walnut Rd,0.6,h,0.8084444444444443,S,Fletchers,14/05/2016,0.4220183486238532,0.5024154589371979,0.6666666666666667,1.0,0.6666666666666667,0.5022658610271895,0.8083623693379784,0.7142857142857122,Boroondara,0.5434703904835898,0.6991950908511131,Southern Metropolitan,0.4337405740340211
Balwyn North,54 Sutton St,0.4,h,0.7497777777777777,S,Fletchers,15/10/2016,0.4220183486238532,0.5024154589371979,0.6666666666666667,0.0,0.3333333333333333,0.5453172205438075,0.3135888501742151,0.4761904761904749,Boroondara,0.5261442979053637,0.6842524705132265,Southern Metropolitan,0.4337405740340211
Balwyn North,12 Clifton St,0.6,h,0.706222222222222,PI,Marshall,18/03/2017,0.4220183486238532,0.5024154589371979,1.0,1.0,0.6666666666666667,0.656344410876132,0.5923344947735184,0.5952380952380953,Boroondara,0.5142487716576376,0.7181224099457806,Southern Metropolitan,0.4337405740340211
Balwyn North,9 Seattle St,0.6,h,0.686222222222222,S,Fletchers,18/03/2017,0.4220183486238532,0.5024154589371979,1.0,0.4999999999999998,0.6666666666666667,0.5037764350453177,0.7003484320557489,0.7380952380952377,Boroondara,0.5574347039048588,0.6950111571565627,Southern Metropolitan,0.4337405740340211
Balwyn North,16 Sylvan St,0.6,t,0.6884444444444443,S,Noel,18/03/2017,0.4220183486238532,0.5024154589371979,1.0,1.0,0.3333333333333333,0.2734138972809651,0.6968641114982571,0.9761904761904748,Boroondara,0.5181277476079837,0.6760838380618395,Southern Metropolitan,0.4337405740340211
Balwyn North,28 Severn St,0.4,h,0.875111111111111,VB,Jellis,19/11/2016,0.4220183486238532,0.5024154589371979,0.6666666666666667,0.4999999999999998,1.0,0.7167673716012087,0.6097560975609754,0.5357142857142843,Boroondara,0.5251099043185987,0.657754223780703,Southern Metropolitan,0.4337405740340211
Balwyn North,3/1 Corhampton Rd,0.1999999999999999,h,0.246222222222222,SP,Jellis,22/05/2016,0.4220183486238532,0.5024154589371979,0.3333333333333333,0.0,0.3333333333333333,0.1336858006042275,0.2961672473867592,0.7440476190476182,Boroondara,0.5315748642358507,0.654367229837453,Southern Metropolitan,0.4337405740340211
Balwyn North,85a Woodville St,0.4,h,0.5351111111111111,S,Fletchers,22/05/2016,0.4220183486238532,0.5024154589371979,0.6666666666666667,0.4999999999999998,0.6666666666666667,0.2779456193353468,0.616724738675958,0.9464285714285716,Boroondara,0.5545901215412647,0.7053713739241374,Southern Metropolitan,0.4337405740340211
Balwyn North,3/48 Alpha St,0.1999999999999999,u,0.4039999999999998,S,Fletchers,24/09/2016,0.4220183486238532,0.5024154589371979,0.3333333333333333,0.0,0.3333333333333333,0.1888217522658598,0.3902439024390234,0.8630952380952359,Boroondara,0.5158003620377656,0.7101530124322744,Southern Metropolitan,0.4337405740340211
Balwyn North,19 Hedderwick St,0.6,h,0.4973333333333329,VB,Marshall,25/02/2017,0.4220183486238532,0.5024154589371979,1.0,0.4999999999999998,0.6666666666666667,0.4864048338368589,0.533101045296167,0.5952380952380953,Boroondara,0.5155417636410646,0.7169270003187742,Southern Metropolitan,0.4337405740340211
Balwyn North,43 Helston St,0.6,h,0.6217777777777777,PI,hockingstuart,27/06/2016,0.4220183486238532,0.5024154589371979,1.0,0.4999999999999998,0.6666666666666667,0.5294561933534743,0.6898954703832745,0.6547619047619038,Boroondara,0.5564003103180808,0.7091568377430932,Southern Metropolitan,0.4337405740340211
Balwyn North,11 Milfay Ct,0.4,h,0.6755555555555556,S,Nelson,27/11/2016,0.4220183486238532,0.5024154589371979,0.6666666666666667,0.0,0.6666666666666667,0.4962235649546824,0.5261324041811843,0.6547619047619038,Boroondara,0.5419188001034618,0.7153331208160618,Southern Metropolitan,0.4337405740340211
Balwyn North,15 Ellendale St,0.4,h,0.4031111111111108,S,Christopher,28/05/2016,0.4220183486238532,0.5024154589371979,0.6666666666666667,0.4999999999999998,0.3333333333333333,0.1563444108761306,0.5017421602787449,0.9107142857142834,Boroondara,0.5424359968968377,0.7023828498565934,Southern Metropolitan,0.4337405740340211
Balwyn North,24 Willis St,0.4,h,0.7284444444444443,PI,Fletchers,28/08/2016,0.4220183486238532,0.5024154589371979,0.6666666666666667,0.4999999999999998,0.3333333333333333,0.5438066465256793,0.5121951219512192,0.6249999999999987,Boroondara,0.5307990690457867,0.6860455849537639,Southern Metropolitan,0.4337405740340211
Balwyn North,2/3 Hatfield St,0.1999999999999999,u,0.249111111111111,S,Fletchers,30/07/2016,0.4220183486238532,0.5024154589371979,0.6666666666666667,0.0,0.3333333333333333,0.0,0.3554006968641106,0.7023809523809521,Boroondara,0.5307990690457867,0.6517771756455037,Southern Metropolitan,0.4337405740340211
Bentleigh,1/236 Patterson Rd,0.4,u,0.3306666666666667,S,hockingstuart,3/09/2016,0.5963302752293578,0.985507246376813,0.6666666666666667,0.0,0.6666666666666667,0.262839879154079,0.4216027874564457,0.5952380952380953,Glen Eira,0.1855702094647056,0.6145202422696996,Southern Metropolitan,0.3744665926229027
Bentleigh,11 Rogers Rd,0.4,h,0.575111111111111,S,Buxton,3/12/2016,0.5963302752293578,0.985507246376813,0.6666666666666667,0.4999999999999998,0.6666666666666667,0.4629909365558904,0.4982578397212541,0.6547619047619038,Glen Eira,0.1757434703904836,0.6043592604398944,Southern Metropolitan,0.3744665926229027
Bentleigh,11A Mortimore St,0.4,h,0.4851111111111108,S,Ray,4/02/2016,0.5963302752293578,0.985507246376813,0.6666666666666667,0.4999999999999998,0.6666666666666667,0.225830815709968,0.6306620209059232,0.8928571428571419,Glen Eira,0.1858288078614067,0.5999760918074633,Southern Metropolitan,0.3744665926229027
Bentleigh,13 Somers St,0.4,h,0.5273333333333332,S,Buxton,4/06/2016,0.5963302752293578,0.985507246376813,0.6666666666666667,0.0,0.3333333333333333,0.4350453172205429,0.4425087108013934,0.5654761904761911,Glen Eira,0.2176364106542517,0.569692381255984,Southern Metropolitan,0.3744665926229027
Bentleigh,8/11 Brentwood St,0.1999999999999999,u,0.1017777777777776,PI,Buxton,6/08/2016,0.5963302752293578,0.985507246376813,0.3333333333333333,0.0,0.3333333333333333,0.0,0.2404181184668985,0.6845238095238089,Glen Eira,0.1703129040600097,0.6087424290723256,Southern Metropolitan,0.3744665926229027
Bentleigh,12b Coates St,0.6,t,0.5795555555555553,S,hockingstuart,6/08/2016,0.5963302752293578,0.985507246376813,0.6666666666666667,1.0,0.6666666666666667,0.2197885196374609,0.7386759581881526,0.9642857142857122,Glen Eira,0.1842772174812656,0.5862288810966387,Southern Metropolitan,0.3744665926229027
Bentleigh,156 Patterson Rd,0.4,h,0.435111111111111,S,Buxton,6/08/2016,0.5963302752293578,0.985507246376813,0.6666666666666667,0.0,0.6666666666666667,0.5226586102719045,0.5714285714285707,0.5357142857142843,Glen Eira,0.1881561934316116,0.5987806821804011,Southern Metropolitan,0.3744665926229027
Bentleigh,23 Yawla St,0.4,h,0.6084444444444442,PI,hockingstuart,7/05/2016,0.5963302752293578,0.985507246376813,0.6666666666666667,0.4999999999999998,0.3333333333333333,0.4267371601208449,0.7735191637630655,0.5357142857142843,Glen Eira,0.2215153866045978,0.5714854956965214,Southern Metropolitan,0.3744665926229027
Bentleigh,39 Luckins Rd,0.6,h,0.5195555555555552,PI,Buxton,7/11/2016,0.5963302752293578,0.985507246376813,1.0,0.4999999999999998,0.6666666666666667,0.5264350453172207,0.6759581881533093,0.5357142857142843,Glen Eira,0.1739332816136545,0.6135240675805183,Southern Metropolitan,0.3744665926229027
Bentleigh,592 Centre Rd,0.4,h,0.4417777777777775,S,hockingstuart,8/10/2016,0.5963302752293578,0.985507246376813,0.6666666666666667,0.0,0.6666666666666667,0.4410876132930501,0.4041811846689887,0.5833333333333317,Glen Eira,0.2047064908197737,0.6141217723939938,Southern Metropolitan,0.3744665926229027
Bentleigh,74 Fromer St,0.6,h,0.5319999999999997,S,hockingstuart,10/09/2016,0.5963302752293578,0.985507246376813,0.6666666666666667,0.4999999999999998,0.6666666666666667,0.4607250755286996,0.3902439024390234,0.5357142857142843,Glen Eira,0.1809154383242957,0.6131255977048125,Southern Metropolitan,0.3744665926229027
Bentleigh,4 Gordon St,0.4,h,0.5373333333333334,S,hockingstuart,10/09/2016,0.5963302752293578,0.985507246376813,0.6666666666666667,0.4999999999999998,0.3333333333333333,0.397280966767372,0.4703832752613238,0.3571428571428572,Glen Eira,0.1840186190845645,0.5808495377749707,Southern Metropolitan,0.3744665926229027
Bentleigh,58 London St,0.6,t,0.455111111111111,S,Buxton,10/09/2016,0.5963302752293578,0.985507246376813,1.0,1.0,0.6666666666666667,0.2046827794561931,0.7142857142857141,0.952380952380952,Glen Eira,0.1910007757952056,0.6175087663372436,Southern Metropolitan,0.3744665926229027
Bentleigh,1/30 Daley St,0.1999999999999999,h,0.3217777777777778,SP,Marshall,10/12/2016,0.5963302752293578,0.985507246376813,0.3333333333333333,0.0,0.3333333333333333,0.2235649546827799,0.3588850174216024,0.5357142857142843,Glen Eira,0.1933281613653976,0.5939990436723197,Southern Metropolitan,0.3744665926229027
Bentleigh,13/27 Patterson Rd,0.1999999999999999,u,0.2306666666666666,SP,hockingstuart,10/12/2016,0.5963302752293578,0.985507246376813,0.3333333333333333,0.0,0.3333333333333333,0.0876132930513587,0.3205574912891977,0.6547619047619038,Glen Eira,0.1928109645720215,0.5860296461587577,Southern Metropolitan,0.3744665926229027
Bentleigh,11 Wheatley Rd,0.6,h,0.7684444444444444,PI,McGrath,12/11/2016,0.5963302752293578,0.985507246376813,1.0,0.4999999999999998,1.0,0.6457703927492461,0.6864111498257838,0.4761904761904749,Glen Eira,0.2140160331006067,0.5836388269046895,Southern Metropolitan,0.3744665926229027
Bentleigh,2/15 Jasper Rd,0.1999999999999999,u,0.2639999999999997,S,hockingstuart,13/08/2016,0.5963302752293578,0.985507246376813,0.3333333333333333,0.0,0.3333333333333333,0.1714501510574012,0.348432055749128,0.8333333333333326,Glen Eira,0.1718644944401376,0.5961906279885631,Southern Metropolitan,0.3744665926229027
Bentleigh,6 Atkinson St,0.4,h,0.5164444444444444,S,Buxton,15/10/2016,0.5963302752293578,0.985507246376813,0.6666666666666667,0.0,0.3333333333333333,0.4773413897280956,0.3763066202090583,0.5952380952380953,Glen Eira,0.1832428238945135,0.5922059292317265,Southern Metropolitan,0.3744665926229027
Bentleigh,33 Luckins Rd,0.4,h,0.5319999999999997,S,Woodards,15/10/2016,0.5963302752293578,0.985507246376813,0.6666666666666667,0.4999999999999998,0.6666666666666667,0.5211480362537764,0.8536585365853658,0.7142857142857122,Glen Eira,0.1741918800103556,0.6125278928912814,Southern Metropolitan,0.3744665926229027
Bentleigh,4 Daley St,0.4,h,0.5506666666666664,S,hockingstuart,16/07/2016,0.5963302752293578,0.985507246376813,0.6666666666666667,0.0,0.6666666666666667,0.4712990936555885,0.4982578397212541,0.5952380952380953,Glen Eira,0.1899663822084276,0.5936005737966139,Southern Metropolitan,0.3744665926229027
Bentleigh,64 Tucker Rd,0.4,h,0.4284444444444444,S,Buxton,17/09/2016,0.5963302752293578,0.985507246376813,0.6666666666666667,0.4999999999999998,0.3333333333333333,0.438821752265862,0.5923344947735184,0.6845238095238089,Glen Eira,0.1822084303077355,0.6177080012751244,Southern Metropolitan,0.3744665926229027
Bentleigh,3/18 Bleazby St,0.1999999999999999,u,0.2639999999999997,S,hockingstuart,18/03/2017,0.5963302752293578,0.985507246376813,0.3333333333333333,0.0,0.3333333333333333,0.5113293051359529,0.3066202090592325,0.9642857142857122,Glen Eira,0.2114300491337137,0.5906120497290142,Southern Metropolitan,0.3744665926229027
Bentleigh,2/1 Corbie St,0.4,t,0.3084444444444443,S,Buxton,18/03/2017,0.5963302752293578,0.985507246376813,0.6666666666666667,0.4999999999999998,0.6666666666666667,0.1110271903323245,0.5191637630662018,0.934523809523808,Glen Eira,0.1741918800103556,0.5892174051641828,Southern Metropolitan,0.3744665926229027
Bentleigh,77B Fromer St,0.4,t,0.4906666666666665,S,Buxton,18/03/2017,0.5963302752293578,0.985507246376813,0.6666666666666667,0.4999999999999998,0.6666666666666667,0.0,0.5574912891986055,0.9642857142857122,Glen Eira,0.1814326351176716,0.6143210073318188,Southern Metropolitan,0.3744665926229027
Bentleigh,5 Luckins Rd,0.4,h,0.4595555555555553,PI,Buxton,18/06/2016,0.5963302752293578,0.985507246376813,0.6666666666666667,0.0,0.6666666666666667,0.5241691842900298,0.4355400696864108,0.5952380952380953,Glen Eira,0.1747090768037315,0.6077462543831442,Southern Metropolitan,0.3744665926229027
Bentleigh,1/7 Uonga Rd,0.1999999999999999,u,0.306222222222222,S,hockingstuart,19/11/2016,0.5963302752293578,0.985507246376813,0.3333333333333333,0.0,1.0,0.2537764350453155,0.3797909407665502,0.6547619047619038,Glen Eira,0.1811740367209706,0.5937998087344389,Southern Metropolitan,0.3744665926229027
Bentleigh,81 Fromer St,0.6,h,0.5773333333333334,S,hockingstuart,22/08/2016,0.5963302752293578,0.985507246376813,1.0,0.4999999999999998,0.6666666666666667,0.461480362537765,0.5853658536585359,0.7142857142857122,Glen Eira,0.1814326351176716,0.6149187121453499,Southern Metropolitan,0.3744665926229027
Bentleigh,13 Horsley St,0.1999999999999999,h,0.3462222222222221,S,Buxton,22/08/2016,0.5963302752293578,0.985507246376813,0.3333333333333333,0.0,0.6666666666666667,0.206948640483384,0.3344947735191628,0.7142857142857122,Glen Eira,0.2101370571502477,0.6013707363723506,Southern Metropolitan,0.3744665926229027
Bentleigh,1a Werona St,0.1999999999999999,t,0.2395555555555555,PI,Buxton,26/07/2016,0.5963302752293578,0.985507246376813,0.3333333333333333,0.4999999999999998,0.3333333333333333,0.0929003021148031,0.3135888501742151,0.934523809523808,Glen Eira,0.1767778639772486,0.5945967484858508,Southern Metropolitan,0.3744665926229027
Bentleigh,40 Coates St,0.1999999999999999,t,0.2439999999999997,PI,Bayside,27/11/2016,0.5963302752293578,0.985507246376813,0.3333333333333333,0.0,0.3333333333333333,0.0626888217522648,0.3728222996515676,0.88095238095238,Glen Eira,0.1891905870183767,0.5870258208479393,Southern Metropolitan,0.3744665926229027
Bentleigh,8B McKittrick Rd,0.6,t,0.5284444444444445,S,Buxton,27/11/2016,0.5963302752293578,0.985507246376813,1.0,1.0,1.0,0.2613293051359508,0.7665505226480829,0.952380952380952,Glen Eira,0.1801396431342186,0.6007730315588196,Southern Metropolitan,0.3744665926229027
Bentleigh,21 Bruce St,0.4,h,0.624,S,Buxton,28/08/2016,0.5963302752293578,0.985507246376813,0.3333333333333333,0.4999999999999998,0.6666666666666667,0.4320241691842894,0.5226480836236926,0.4761904761904749,Glen Eira,0.2178950090509526,0.599577621931813,Southern Metropolitan,0.3744665926229027
Bentleigh East,30 Veronica St,0.1999999999999999,h,0.3084444444444443,S,Buxton,3/09/2016,0.6376146788990825,0.7971014492753625,0.3333333333333333,0.4999999999999998,0.3333333333333333,0.1329305135951649,0.4355400696864108,0.9404761904761902,Glen Eira,0.1948797517455517,0.6711029646158773,Southern Metropolitan,0.6184602794177821
Bentleigh East,2a Bessie St,0.1999999999999999,u,0.2733333333333332,S,hockingstuart,3/12/2016,0.6376146788990825,0.7971014492753625,0.3333333333333333,0.0,0.6666666666666667,0.2122356495468256,0.3310104529616721,0.9047619047619048,Glen Eira,0.1902249806051287,0.6776777175645519,Southern Metropolitan,0.6184602794177821
Bentleigh East,1/41 Elizabeth St,0.4,u,0.3973333333333332,S,Woodards,4/03/2017,0.6376146788990825,0.7971014492753625,0.6666666666666667,0.4999999999999998,0.6666666666666667,0.290030211480361,0.4181184668989539,0.8869047619047605,Glen Eira,0.1969485389190687,0.6300605674211173,Southern Metropolitan,0.6184602794177821
Bentleigh East,2/25 Birdwood St,0.1999999999999999,u,0.1617777777777777,S,Woodards,4/06/2016,0.6376146788990825,0.7971014492753625,0.3333333333333333,0.0,0.3333333333333333,0.0574018126888203,0.2752613240418114,0.7738095238095224,Glen Eira,0.2303077320920808,0.6868425247051757,Southern Metropolitan,0.6184602794177821
Bentleigh East,24 Brooks St,0.6,h,0.4839999999999999,S,Hodges,4/06/2016,0.6376146788990825,0.7971014492753625,0.6666666666666667,0.4999999999999998,0.6666666666666667,0.4418429003021155,0.6202090592334487,0.5952380952380953,Glen Eira,0.2129816395138418,0.6726968441185897,Southern Metropolitan,0.6184602794177821
Bentleigh East,13 Claronga St,0.4,h,0.3351111111111109,S,C21,4/06/2016,0.6376146788990825,0.7971014492753625,0.6666666666666667,0.0,0.6666666666666667,0.4267371601208449,0.3832752613240409,0.5952380952380953,Glen Eira,0.1884147918282997,0.6800685368186203,Southern Metropolitan,0.6184602794177821
Bentleigh East,34b Lesden St,0.6,t,0.4795555555555556,S,hockingstuart,6/08/2016,0.6376146788990825,0.7971014492753625,0.6666666666666667,1.0,0.6666666666666667,0.2197885196374609,0.7735191637630655,0.9761904761904748,Glen Eira,0.1664339281096505,0.6278689831048738,Southern Metropolitan,0.6184602794177821
Bentleigh East,59 Tambet St,0.6,t,0.4573333333333333,S,hockingstuart,6/08/2016,0.6376146788990825,0.7971014492753625,0.6666666666666667,0.4999999999999998,0.6666666666666667,0.242447129909364,0.6271777003484313,0.9285714285714276,Glen Eira,0.2199637962244696,0.6613404526618336,Southern Metropolitan,0.6184602794177821
Bentleigh East,24 Barrani St,0.4,h,0.4817777777777776,S,Woodards,7/05/2016,0.6376146788990825,0.7971014492753625,0.6666666666666667,0.4999999999999998,1.0,0.5513595166163148,0.3832752613240409,0.7142857142857122,Glen Eira,0.2253943625549567,0.6595473382212405,Southern Metropolitan,0.6184602794177821
