suburb,address,rooms,type,price,method,sellerg,date,distance,postcode,bedrooms,bathrooms,car,landsize,buildingarea,build_year,councilarea,latitude,longitude,regionname,propertycount
Abbotsford,25 Bloomburg St,0.3333333333333332,h,0.44119082479258137,S,Biggin,4/02/2016,0.088235294117647,0.3170731707317075,0.3333333333333333,0.0,0.0,0.126315789473684,0.3198380566801615,0.2547770700636934,Yarra,0.49918851263994934,0.5173369188770461,Northern Metropolitan,0.23955652346070072
Abbotsford,5 Charles St,0.6666666666666667,h,0.6510492923377255,SP,Biggin,4/03/2017,0.088235294117647,0.3170731707317075,0.6666666666666667,0.4999999999999998,0.0,0.10850202429149751,0.6072874493927118,0.2547770700636934,Yarra,0.49533738618544876,0.5193741596381913,Northern Metropolitan,0.23955652346070072
Abbotsford,55a Park St,1.0,h,0.7169350902879451,VB,Nelson,4/06/2016,0.088235294117647,0.3170731707317075,0.6666666666666667,0.0,0.6666666666666667,0.09716599190283293,0.5748987854251003,0.9808917197452212,Yarra,0.5011140758671787,0.5187629874098421,Northern Metropolitan,0.23955652346070072
Abbotsford,124 Yarra St,0.6666666666666667,h,0.8516349438750608,S,Nelson,7/05/2016,0.088235294117647,0.3170731707317075,1.0,0.4999999999999998,0.0,0.19838056680161917,0.8502024291497969,0.3184713375796177,Yarra,0.5143179379968631,0.5293566393675913,Northern Metropolitan,0.23955652346070072
Abbotsford,98 Charles St,0.3333333333333332,h,0.7345046364080038,S,Nelson,8/10/2016,0.088235294117647,0.3170731707317075,0.3333333333333333,0.0,0.6666666666666667,0.20728744939271243,0.43319838056680127,0.19108280254777005,Yarra,0.5044150413996137,0.5214114003992224,Northern Metropolitan,0.23955652346070072
Abbotsford,10 Valiant St,0.3333333333333332,h,0.47144948755490435,S,Biggin,8/10/2016,0.088235294117647,0.3170731707317075,0.6666666666666667,0.0,0.6666666666666667,0.17813765182186134,0.3036437246963559,0.2547770700636934,Yarra,0.5181690644513358,0.5285417430631445,Northern Metropolitan,0.23955652346070072
Abbotsford,40 Nicholson St,0.6666666666666667,h,0.594924353343094,VB,Nelson,12/11/2016,0.088235294117647,0.3170731707317075,0.6666666666666667,0.4999999999999998,0.6666666666666667,0.17327935222671842,0.7692307692307685,0.9235668789808908,Yarra,0.49753802987372486,0.5234486411603676,Northern Metropolitan,0.23955652346070072
Abbotsford,123/56 Nicholson St,0.3333333333333332,u,0.30209858467545114,S,Biggin,12/11/2016,0.088235294117647,0.3170731707317075,0.3333333333333333,0.4999999999999998,0.3333333333333333,0.0,0.3805668016194321,0.9490445859872612,Yarra,0.499463593100982,0.523652365236465,Northern Metropolitan,0.23955652346070072
Abbotsford,16 William St,0.3333333333333332,h,0.5754026354319178,S,Jellis,15/10/2016,0.088235294117647,0.3170731707317075,0.3333333333333333,0.0,0.6666666666666667,0.19271255060728687,0.392712550607287,0.19108280254777005,Yarra,0.496162627568561,0.5258933300737074,Northern Metropolitan,0.23955652346070072
Abbotsford,42 Henry St,0.6666666666666667,h,0.5217179111761833,S,Jellis,16/07/2016,0.088235294117647,0.3170731707317075,0.6666666666666667,0.4999999999999998,0.3333333333333333,0.09149797570850052,0.44534412955465486,0.12738853503184577,Yarra,0.5055153632437448,0.5165220225725996,Northern Metropolitan,0.23955652346070072
Abbotsford,78 Yarra St,0.6666666666666667,h,0.5102489019033672,S,LITTLE,16/07/2016,0.088235294117647,0.3170731707317075,0.3333333333333333,0.0,0.3333333333333333,0.11174089068825846,0.42510121457489847,0.19108280254777005,Yarra,0.5151431793799613,0.523652365236465,Northern Metropolitan,0.23955652346070072
Abbotsford,42 Valiant St,0.3333333333333332,h,0.37042459736456784,S,Biggin,17/09/2016,0.088235294117647,0.3170731707317075,0.3333333333333333,0.0,0.3333333333333333,0.12145748987854108,0.295546558704453,0.7961783439490442,Yarra,0.5178939839903168,0.5315976042048337,Northern Metropolitan,0.23955652346070072
Abbotsford,3/72 Charles St,1.0,h,0.5851634943875058,PI,Kay,18/03/2017,0.088235294117647,0.3170731707317075,1.0,0.4999999999999998,0.6666666666666667,0.6315789473684201,0.5465587044534411,0.2547770700636934,Yarra,0.5008389954061598,0.5210039522470845,Northern Metropolitan,0.23955652346070072
Abbotsford,6/219 Nicholson St,0.3333333333333332,u,0.1800878477305998,S,Collins,18/06/2016,0.088235294117647,0.3170731707317075,0.3333333333333333,0.0,0.3333333333333333,0.0,0.24291497975708384,0.7006369426751567,Yarra,0.5167936621461857,0.5250784337692609,Northern Metropolitan,0.23955652346070072
Abbotsford,52a William St,0.3333333333333332,h,0.47291361639824264,PI,Biggin,18/06/2016,0.088235294117647,0.3170731707317075,0.3333333333333333,0.4999999999999998,0.3333333333333333,0.10040485829959377,0.5465587044534411,0.9745222929936295,Yarra,0.49918851263994934,0.5260970541498617,Northern Metropolitan,0.23955652346070072
Abbotsford,49 Park St,0.3333333333333332,h,0.5778428501708149,S,Marshall,19/11/2016,0.088235294117647,0.3170731707317075,0.3333333333333333,0.0,0.0,0.11902834008096973,0.3441295546558701,0.2547770700636934,Yarra,0.4989134321789026,0.5185592633336877,Northern Metropolitan,0.23955652346070072
Abbotsford,48 Abbotsford St,0.6666666666666667,h,0.6425085407515858,PI,Nelson,22/08/2016,0.088235294117647,0.3170731707317075,0.6666666666666667,1.0,0.3333333333333333,0.13441295546558474,0.7044534412955458,0.9681528662420358,Yarra,0.5162435012241062,0.5309864319764845,Northern Metropolitan,0.23955652346070072
Abbotsford,159 Park St,0.3333333333333332,h,0.48999511957052205,S,Nelson,22/08/2016,0.088235294117647,0.3170731707317075,0.3333333333333333,0.4999999999999998,0.6666666666666667,0.07935222672064644,0.5182186234817804,0.382165605095542,Yarra,0.5195444667565274,0.5210039522470845,Northern Metropolitan,0.23955652346070072
Abbotsford,60 Stafford St,0.6666666666666667,h,0.5656417764763297,S,Biggin,25/02/2017,0.088235294117647,0.3170731707317075,0.6666666666666667,0.0,0.3333333333333333,0.1360323886639666,0.5020242914979748,0.573248407643312,Yarra,0.518994305834448,0.5222262967037262,Northern Metropolitan,0.23955652346070072
Abbotsford,11/205 Gipps St,0.0,u,0.16544655929721794,S,Nelson,26/07/2016,0.088235294117647,0.3170731707317075,0.0,0.0,0.3333333333333333,0.0,0.20242914979756965,0.9745222929936295,Yarra,0.5057904437047777,0.5228374689320752,Northern Metropolitan,0.23955652346070072
Abbotsford,47 Studley St,0.3333333333333332,h,0.5119570522205952,S,Jellis,27/11/2016,0.088235294117647,0.3170731707317075,0.3333333333333333,0.0,0.0,0.1311740890688238,0.3684210526315785,0.2547770700636934,Yarra,0.5165185816851391,0.5218188485514741,Northern Metropolitan,0.23955652346070072
Abbotsford,45 Yarra St,0.6666666666666667,h,0.5192776964372862,SP,Jellis,27/11/2016,0.088235294117647,0.3170731707317075,0.6666666666666667,0.4999999999999998,0.3333333333333333,0.09716599190283293,0.5182186234817804,0.878980891719744,Yarra,0.5148680989189285,0.5214114003992224,Northern Metropolitan,0.23955652346070072
Abbotsford,200 Nicholson St,0.3333333333333332,h,0.430209858467545,S,Nelson,28/05/2016,0.088235294117647,0.3170731707317075,0.3333333333333333,0.0,0.0,0.14736842105263132,0.33198380566801505,0.2547770700636934,Yarra,0.5151431793799613,0.5258933300737074,Northern Metropolitan,0.23955652346070072
Abbotsford,27 Charles St,0.3333333333333332,h,0.4387506100536847,S,Biggin,30/07/2016,0.088235294117647,0.3170731707317075,0.3333333333333333,0.0,0.3333333333333333,0.13927125506072757,0.3279352226720643,0.4458598726114633,Yarra,0.497262949412706,0.5197816077903292,Northern Metropolitan,0.23955652346070072
Airport West,154 Halsey Rd,0.6666666666666667,t,0.34602244997559756,PI,Nelson,3/09/2016,0.6274509803921567,0.1951219512195124,0.6666666666666667,0.4999999999999998,0.3333333333333333,0.24534412955465373,0.9109311740890689,0.993630573248407,Moonee Valley,0.7464858471102599,0.2822393350445662,Western Metropolitan,0.20293011284894066
Airport West,50 Bedford St,0.6666666666666667,h,0.29233772571986305,VB,Nelson,3/12/2016,0.6274509803921567,0.1951219512195124,0.6666666666666667,0.4999999999999998,0.3333333333333333,0.0,0.5870445344129552,0.6687898089171965,Moonee Valley,0.7401589965064646,0.277146233141789,Western Metropolitan,0.20293011284894066
Airport West,50 Bedford St,0.6666666666666667,h,0.3118594436310391,SP,Nelson,4/03/2017,0.6274509803921567,0.1951219512195124,0.6666666666666667,0.4999999999999998,0.3333333333333333,0.0,0.5870445344129552,0.6687898089171965,Moonee Valley,0.7401589965064646,0.277146233141789,Western Metropolitan,0.20293011284894066
Airport West,23 Hart St,0.3333333333333332,h,0.23035627135187872,S,Nelson,4/03/2017,0.6274509803921567,0.1951219512195124,0.3333333333333333,0.0,0.3333333333333333,0.22024291497975598,0.3400809716599179,0.573248407643312,Moonee Valley,0.7151266745523015,0.30261174265573176,Western Metropolitan,0.20293011284894066
Airport West,1/80 Hawker St,0.6666666666666667,t,0.27769643728648113,S,Brad,4/03/2017,0.6274509803921567,0.1951219512195124,0.6666666666666667,0.4999999999999998,0.6666666666666667,0.19352226720647636,0.542510121457489,0.9490445859872612,Moonee Valley,0.7360327895909452,0.29385160738291627,Western Metropolitan,0.20293011284894066
Airport West,1/37 Hillside Gr,0.6666666666666667,h,0.22889214250854054,S,Maddison,4/03/2017,0.6274509803921567,0.1951219512195124,0.3333333333333333,0.0,0.3333333333333333,0.2348178137651815,0.4696356275303635,0.7643312101910811,Moonee Valley,0.7209033642340313,0.27490526830460343,Western Metropolitan,0.20293011284894066
Airport West,2/49 McIntosh St,0.3333333333333332,u,0.1800878477305998,VB,Barry,4/03/2017,0.6274509803921567,0.1951219512195124,0.3333333333333333,0.0,0.3333333333333333,0.1360323886639666,0.3481781376518208,0.961783439490443,Moonee Valley,0.7368580309740572,0.29935215743794513,Western Metropolitan,0.20293011284894066
Airport West,2/252 Parer Rd,0.3333333333333332,t,0.15568570034162993,S,Barry,7/05/2016,0.6274509803921567,0.1951219512195124,0.3333333333333333,0.0,0.3333333333333333,0.08906882591092917,0.36437246963562653,0.9872611464968133,Moonee Valley,0.7365829505130107,0.2679786497167788,Western Metropolitan,0.20293011284894066
Airport West,3/19 Hart St,0.3333333333333332,u,0.18740849194729112,S,Barry,7/11/2016,0.6274509803921567,0.1951219512195124,0.3333333333333333,0.0,0.3333333333333333,0.11417004048582981,0.295546558704453,0.9745222929936295,Moonee Valley,0.7140263527081705,0.30322291488402386,Western Metropolitan,0.20293011284894066
Airport West,2/62 Clydesdale Rd,0.3333333333333332,u,0.19472913616398213,S,Nelson,10/09/2016,0.6274509803921567,0.1951219512195124,0.3333333333333333,0.0,0.3333333333333333,0.09716599190283293,0.3805668016194321,0.9681528662420358,Moonee Valley,0.7316315022143931,0.28468402395790593,Western Metropolitan,0.20293011284894066
Airport West,13 Etzel St,0.6666666666666667,h,0.3289409468033186,S,Nelson,10/12/2016,0.6274509803921567,0.1951219512195124,0.6666666666666667,0.0,0.3333333333333333,0.0,0.42510121457489847,0.573248407643312,Moonee Valley,0.7363078700519918,0.2828505072729154,Western Metropolitan,0.20293011284894066
Airport West,1/43 Cameron St,0.6666666666666667,u,0.30307467057101006,S,Nelson,11/02/2017,0.6274509803921567,0.1951219512195124,0.6666666666666667,0.0,0.3333333333333333,0.21457489878542368,0.5263157894736834,0.8471337579617828,Moonee Valley,0.7129260308640117,0.2975186407529547,Western Metropolitan,0.20293011284894066
Airport West,2/40 Earl St,0.6666666666666667,t,0.27769643728648113,PI,Brad,15/10/2016,0.6274509803921567,0.1951219512195124,0.6666666666666667,0.4999999999999998,0.6666666666666667,0.13360323886639525,0.5384615384615381,0.9490445859872612,Moonee Valley,0.7217286056171437,0.30057450189458657,Western Metropolitan,0.20293011284894066
Airport West,180 Parer Rd,0.6666666666666667,h,0.3411420204978038,S,Barry,16/04/2016,0.6274509803921567,0.1951219512195124,0.6666666666666667,0.0,0.6666666666666667,0.7862348178137656,0.4574898785425097,0.6369426751592344,Moonee Valley,0.7448353643440495,0.278164853522333,Western Metropolitan,0.20293011284894066
Airport West,174 Parer Rd,0.3333333333333332,h,0.2654953635919956,S,Barry,16/07/2016,0.6274509803921567,0.1951219512195124,0.3333333333333333,0.0,0.3333333333333333,0.49554655870445335,0.4048582995951407,0.7324840764331199,Moonee Valley,0.7445602838830306,0.2791834739028772,Western Metropolitan,0.20293011284894066
Airport West,478 Fullarton Rd,0.6666666666666667,h,0.3313811615422157,PI,Barry,18/03/2017,0.6274509803921567,0.1951219512195124,0.6666666666666667,1.0,0.6666666666666667,0.4493927125506082,0.7773279352226714,0.7643312101910811,Moonee Valley,0.7176023987016243,0.2647190644990493,Western Metropolitan,0.20293011284894066
Airport West,144 Marshall Rd,0.6666666666666667,h,0.2850170815031721,S,Rendina,18/03/2017,0.6274509803921567,0.1951219512195124,0.6666666666666667,0.4999999999999998,0.6666666666666667,0.34170040485830017,0.5101214574898776,0.8598726114649656,Moonee Valley,0.750887134486826,0.28468402395790593,Western Metropolitan,0.20293011284894066
Airport West,3/7 South Rd,0.6666666666666667,t,0.19960956564177634,SP,Nelson,18/06/2016,0.6274509803921567,0.1951219512195124,0.3333333333333333,0.4999999999999998,0.3333333333333333,0.1303643724696343,0.4089068825910927,0.9554140127388528,Moonee Valley,0.7324567435974915,0.28672126471905096,Western Metropolitan,0.20293011284894066
Airport West,37 North St,0.6666666666666667,t,0.33870180575890657,SP,Barry,19/11/2016,0.6274509803921567,0.1951219512195124,0.6666666666666667,0.4999999999999998,0.3333333333333333,0.237246963562753,0.41295546558704355,0.6369426751592344,Moonee Valley,0.7409842378895768,0.28142443874011963,Western Metropolitan,0.20293011284894066
Airport West,10 Hilbert Rd,0.6666666666666667,h,0.27037579306978987,S,Barry,22/05/2016,0.6274509803921567,0.1951219512195124,0.6666666666666667,0.0,0.3333333333333333,0.46882591093117365,0.4574898785425097,0.7324840764331199,Moonee Valley,0.7338321459026692,0.2726643034673612,Western Metropolitan,0.20293011284894066
Airport West,85 Roberts Rd,1.0,h,0.3753050268423616,S,Harcourts,27/11/2016,0.6274509803921567,0.1951219512195124,1.0,0.4999999999999998,1.0,0.5085020242914968,0.591093117408906,0.7324840764331199,Moonee Valley,0.7255797320716164,0.27388664792400264,Western Metropolitan,0.20293011284894066
Albert Park,105 Kerferd Rd,0.3333333333333332,h,0.5583211322596384,S,hockingstuart,3/09/2016,0.12745098039215685,0.9951219512195124,0.3333333333333333,0.0,0.0,0.09716599190283293,0.33198380566801505,0.2547770700636934,Port Phillip,0.39465793744670363,0.44012549403082857,Southern Metropolitan,0.1907873028443211
Albert Park,94 Graham St,0.6666666666666667,h,0.838945827232796,S,Greg,4/03/2017,0.12745098039215685,0.9951219512195124,0.6666666666666667,0.4999999999999998,0.0,0.10364372469635472,0.5384615384615381,0.19108280254777005,Port Phillip,0.39658350067394693,0.4264759809313903,Southern Metropolitan,0.1907873028443211
Albert Park,396 Montague St,0.3333333333333332,h,0.636896046852123,S,RT,4/03/2017,0.12745098039215685,0.9951219512195124,0.3333333333333333,0.0,0.0,0.10526315789473667,0.3279352226720643,0.2547770700636934,Port Phillip,0.40236019035567683,0.44216273479197354,Southern Metropolitan,0.1907873028443211
Albert Park,1 Moubray St,0.6666666666666667,h,0.814543679843826,VB,Greg,7/11/2016,0.12745098039215685,0.9951219512195124,0.6666666666666667,0.4999999999999998,0.3333333333333333,0.10688259109311554,0.6437246963562752,0.8662420382165584,Port Phillip,0.4067614777322291,0.4329951513669633,Southern Metropolitan,0.1907873028443211
Albert Park,29 Faussett St,0.3333333333333332,h,0.9707174231332353,S,Greg,10/09/2016,0.12745098039215685,0.9951219512195124,0.3333333333333333,0.0,0.3333333333333333,0.16113360323886433,0.43319838056680127,0.2547770700636934,Port Phillip,0.4048359145049995,0.4399217699547311,Southern Metropolitan,0.1907873028443211
Albert Park,24 Kerferd Pl,0.6666666666666667,h,0.814543679843826,S,Marshall,10/09/2016,0.12745098039215685,0.9951219512195124,0.6666666666666667,0.4999999999999998,0.3333333333333333,0.07287449392712467,0.49392712550607193,0.2547770700636934,Port Phillip,0.40511099496601854,0.443385079248615,Southern Metropolitan,0.1907873028443211
Albert Park,4a Gatehouse La,0.6666666666666667,h,0.6046852122986819,S,Greg,12/06/2016,0.12745098039215685,0.9951219512195124,0.6666666666666667,0.4999999999999998,0.6666666666666667,0.0,0.3441295546558701,0.8917197452229287,Port Phillip,0.3968585811349798,0.43116163468191576,Southern Metropolitan,0.1907873028443211
Albert Park,65 Graham St,0.3333333333333332,h,0.5815031722791605,S,Greg,15/10/2016,0.12745098039215685,0.9951219512195124,0.3333333333333333,0.0,0.0,0.1206477732793517,0.39676113360323795,0.19108280254777005,Port Phillip,0.3990592248232697,0.42504991239865153,Southern Metropolitan,0.1907873028443211
Albert Park,364 Montague St,0.3333333333333332,h,0.6986334797462174,S,Greg,15/10/2016,0.12745098039215685,0.9951219512195124,0.3333333333333333,0.0,0.0,0.11417004048582981,0.33603238866396723,0.19108280254777005,Port Phillip,0.40428575358292007,0.4415515625636245,Southern Metropolitan,0.1907873028443211
Albert Park,86 Mills St,0.6666666666666667,h,0.9121522693997071,VB,RT,16/04/2016,0.12745098039215685,0.9951219512195124,0.6666666666666667,0.4999999999999998,0.3333333333333333,0.17085020242915008,0.595141700404858,0.2547770700636934,Port Phillip,0.39163205237531534,0.4441999755531186,Southern Metropolitan,0.1907873028443211
Albert Park,55 Merton St,0.6666666666666667,h,0.9609565641776472,SP,Marshall,23/04/2016,0.12745098039215685,0.9951219512195124,0.3333333333333333,0.0,0.3333333333333333,0.09716599190283293,0.49797570850202394,0.2547770700636934,Port Phillip,0.40346051219980794,0.4382919773458378,Southern Metropolitan,0.1907873028443211
Albert Park,49 Page St,0.6666666666666667,h,0.9121522693997071,PI,Marshall,24/09/2016,0.12745098039215685,0.9951219512195124,0.6666666666666667,0.0,0.3333333333333333,0.19271255060728687,0.5303643724696353,0.19108280254777005,Port Phillip,0.394107776524638,0.43462494397585655,Southern Metropolitan,0.1907873028443211
Albert Park,13/52 Moubray St,0.0,u,0.15202537823328444,S,Marshall,25/02/2017,0.12745098039215685,0.9951219512195124,0.0,0.0,0.0,0.0,0.137651821862347,0.7006369426751567,Port Phillip,0.40511099496601854,0.43238397913861404,Southern Metropolitan,0.1907873028443211
Albert Park,27 Barrett St,1.0,h,0.9804782820888238,S,Greg,27/06/2016,0.12745098039215685,0.9951219512195124,0.6666666666666667,0.4999999999999998,0.3333333333333333,0.14817813765182078,0.5870445344129552,0.12738853503184577,Port Phillip,0.40153494897256453,0.42790204946418614,Southern Metropolitan,0.1907873028443211
Albert Park,6 Brooke St,0.3333333333333332,h,0.41434846266471437,S,Greg,28/05/2016,0.12745098039215685,0.9951219512195124,0.3333333333333333,0.0,0.0,0.06396761133603143,0.2753036437246953,0.19108280254777005,Port Phillip,0.4144637306412023,0.4327914272908089,Southern Metropolitan,0.1907873028443211
Albert Park,17 Reed St,0.6666666666666667,h,0.785261102977062,PI,Marshall,28/08/2016,0.12745098039215685,0.9951219512195124,0.6666666666666667,0.4999999999999998,0.6666666666666667,0.11902834008096973,0.542510121457489,0.19108280254777005,Port Phillip,0.397683822518092,0.4193456382675251,Southern Metropolitan,0.1907873028443211
Albert Park,9 Durham St,0.0,h,0.4167886774036115,S,Marshall,30/07/2016,0.12745098039215685,0.9951219512195124,0.0,0.0,0.0,0.0655870445344104,0.21862348178137536,0.2547770700636934,Port Phillip,0.40786179957637403,0.4283094976163811,Southern Metropolitan,0.1907873028443211
Alphington,44 Shiers St,1.0,h,0.7742801366520251,S,Collins,8/10/2016,0.2794117647058824,0.37073170731707383,1.0,0.4999999999999998,0.3333333333333333,0.48502024291497814,0.8218623481781376,0.41401273885350215,Darebin,0.5987676395345494,0.593937171494915,Northern Metropolitan,0.12024021645878691
Alphington,3/19 Harker St,0.3333333333333332,u,0.1925329428989748,S,Miles,12/11/2016,0.2794117647058824,0.37073170731707383,0.3333333333333333,0.0,0.3333333333333333,0.0712550607287427,0.24291497975708384,0.6369426751592344,Darebin,0.5784116854179853,0.5931222751904113,Northern Metropolitan,0.12024021645878691
Alphington,4/2 Miller St,0.3333333333333332,t,0.3289409468033186,S,Miles,12/11/2016,0.2794117647058824,0.37073170731707383,0.3333333333333333,0.4999999999999998,1.0,0.1255060728744915,0.5668016194331974,0.9171974522292972,Darebin,0.5748356394245314,0.5935297233426631,Northern Metropolitan,0.12024021645878691
Alphington,10 Bennett St,1.0,h,0.8291849682772083,S,Nelson,19/11/2016,0.2794117647058824,0.37073170731707383,1.0,0.4999999999999998,0.6666666666666667,0.4906882591093104,0.45344129554655765,0.7006369426751567,Darebin,0.5916155475476557,0.5951595159515564,Northern Metropolitan,0.12024021645878691
Alphington,2c Hamilton St,0.6666666666666667,h,0.35822352367008276,SP,hockingstuart,22/05/2016,0.2794117647058824,0.37073170731707383,0.6666666666666667,0.0,0.3333333333333333,0.14574898785424933,0.5303643724696353,0.9554140127388528,Darebin,0.5753858003465971,0.5802876583954766,Northern Metropolitan,0.12024021645878691
Alphington,5/5 Yarana Rd,0.3333333333333332,u,0.12640312347486532,VB,Nelson,22/05/2016,0.2794117647058824,0.37073170731707383,0.3333333333333333,0.0,0.3333333333333333,0.0,0.24291497975708384,0.6369426751592344,Darebin,0.5833631337166169,0.5947520677993045,Northern Metropolitan,0.12024021645878691
Alphington,1/14 Fulham Rd,0.3333333333333332,u,0.18594436310395296,S,Love,25/02/2017,0.2794117647058824,0.37073170731707383,0.3333333333333333,0.0,0.3333333333333333,0.0,0.24696356275303596,0.6687898089171965,Darebin,0.5745605589634849,0.5841584158414984,Northern Metropolitan,0.12024021645878691
Alphington,42 Shiers St,1.0,h,0.8877501220107366,S,Jellis,30/07/2016,0.2794117647058824,0.37073170731707383,1.0,0.4999999999999998,1.0,0.47692307692307745,0.8502024291497969,0.382165605095542,Darebin,0.598217478612484,0.5937334474187604,Northern Metropolitan,0.12024021645878691
Altona,158 Queen St,0.6666666666666667,h,0.18984870668618836,VB,Greg,3/09/2016,0.6421568627450981,0.07804878048780473,0.6666666666666667,0.4999999999999998,0.3333333333333333,0.28502024291498,0.9797570850202424,0.9872611464968133,Hobsons Bay,0.32836354633730513,0.1742655747055311,Western Metropolitan,0.32416023229723484
Altona,1/123 Blyth St,0.3333333333333332,t,0.2874572962420692,S,hockingstuart,4/02/2016,0.6421568627450981,0.07804878048780473,0.3333333333333333,0.0,0.6666666666666667,0.23643724696356047,0.5060728744939268,0.9745222929936295,Hobsons Bay,0.3319395923307591,0.16346819867168466,Western Metropolitan,0.32416023229723484
Altona,4 Blyth St,0.6666666666666667,h,0.48267447535383107,S,Barlow,4/03/2017,0.6421568627450981,0.07804878048780473,0.6666666666666667,0.0,0.6666666666666667,0.409716599190282,0.4858299595141692,0.4458598726114633,Hobsons Bay,0.3302891095645347,0.19973108421953079,Western Metropolitan,0.32416023229723484
Altona,1/170 Blyth St,0.6666666666666667,u,0.24353343094192276,S,Barlow,6/08/2016,0.6421568627450981,0.07804878048780473,0.3333333333333333,0.0,0.6666666666666667,0.2518218623481785,0.3805668016194321,0.6050955414012722,Hobsons Bay,0.3278133854152396,0.15246709856168367,Western Metropolitan,0.32416023229723484
Altona,156 Maidstone St,0.6666666666666667,h,0.2581747193753046,VB,Greg,7/05/2016,0.6421568627450981,0.07804878048780473,0.6666666666666667,0.0,0.3333333333333333,0.4874493927125495,0.49797570850202394,0.6050955414012722,Hobsons Bay,0.35147030506422483,0.1469665485066547,Western Metropolitan,0.32416023229723484
Altona,1/136 Queen St,0.3333333333333332,u,0.21913128355295244,S,Barlow,8/10/2016,0.6421568627450981,0.07804878048780473,0.3333333333333333,0.0,0.3333333333333333,0.18218623481781168,0.3765182186234814,0.8152866242038197,Hobsons Bay,0.3294638681814502,0.1783400562278213,Western Metropolitan,0.32416023229723484
Altona,3/26 Grieve Pde,0.3333333333333332,u,0.18496827720839404,S,Village,10/09/2016,0.6421568627450981,0.07804878048780473,0.3333333333333333,0.0,0.3333333333333333,0.10283400809716522,0.30769230769230665,0.8280254777070054,Hobsons Bay,0.33221467279179184,0.1604123375299955,Western Metropolitan,0.32416023229723484
Altona,4/5 Rose St,0.3333333333333332,u,0.14348462664714473,S,hockingstuart,10/09/2016,0.6421568627450981,0.07804878048780473,0.3333333333333333,0.0,0.6666666666666667,0.0931174089068825,0.23076923076923023,0.7643312101910811,Hobsons Bay,0.32561274172694976,0.16102350975834484,Western Metropolitan,0.32416023229723484
Altona,4/31 Millers Rd,0.3333333333333332,u,0.126891166422645,SP,Greg,11/02/2017,0.6421568627450981,0.07804878048780473,0.3333333333333333,0.0,0.3333333333333333,0.0,0.2631578947368417,0.6687898089171965,Hobsons Bay,0.33441531648006795,0.20156460090452144,Western Metropolitan,0.32416023229723484
Altona,24 Wren St,1.0,h,0.34846266471449466,S,hockingstuart,11/02/2017,0.6421568627450981,0.07804878048780473,1.0,0.0,0.6666666666666667,0.6032388663967614,0.5263157894736834,0.573248407643312,Hobsons Bay,0.33991692570076504,0.15491178747496664,Western Metropolitan,0.32416023229723484
Altona,4/57 Blyth St,0.6666666666666667,u,0.29233772571986305,SP,Barlow,13/08/2016,0.6421568627450981,0.07804878048780473,0.6666666666666667,0.4999999999999998,0.3333333333333333,0.055870445344127675,0.5708502024291496,0.9808917197452212,Hobsons Bay,0.3338651555579885,0.18159964144555066,Western Metropolitan,0.32416023229723484
Altona,3/46 Sargood St,0.3333333333333332,u,0.15422157149829177,S,Burnham,15/10/2016,0.6421568627450981,0.07804878048780473,0.3333333333333333,0.0,0.3333333333333333,0.11093117408906897,0.3117408906882587,0.8280254777070054,Hobsons Bay,0.3407421670838773,0.18424805443504502,Western Metropolitan,0.32416023229723484
Altona,22 Fenfield St,0.6666666666666667,h,0.26695949243533423,S,hockingstuart,16/04/2016,0.6421568627450981,0.07804878048780473,0.6666666666666667,0.0,0.6666666666666667,0.4906882591093104,0.3522267206477729,0.573248407643312,Hobsons Bay,0.35367094875251487,0.14859634111554795,Western Metropolitan,0.32416023229723484
Altona,5/8 David St,0.3333333333333332,u,0.21913128355295244,PI,Biggin,16/07/2016,0.6421568627450981,0.07804878048780473,0.3333333333333333,0.4999999999999998,0.3333333333333333,0.14170040485829902,0.30769230769230665,0.9745222929936295,Hobsons Bay,0.3319395923307591,0.17793260807556951,Western Metropolitan,0.32416023229723484
Altona,27 McIntyre Dr,0.6666666666666667,h,0.34602244997559756,SP,Greg,18/03/2017,0.6421568627450981,0.07804878048780473,0.6666666666666667,0.4999999999999998,0.6666666666666667,0.4323886639676113,0.5506072874493918,0.6687898089171965,Hobsons Bay,0.35587159244079086,0.17324695432504403,Western Metropolitan,0.32416023229723484
Altona,3/20 Mulga St,0.6666666666666667,u,0.21766715470961426,S,Williams,23/04/2016,0.6421568627450981,0.07804878048780473,0.6666666666666667,0.4999999999999998,0.3333333333333333,0.16599190283400717,0.4574898785425097,0.9363057324840746,Hobsons Bay,0.3327648337138574,0.1538931670944227,Western Metropolitan,0.32416023229723484
Altona,104 Maidstone St,0.3333333333333332,h,0.35431918008784746,SP,hockingstuart,27/11/2016,0.6421568627450981,0.07804878048780473,0.3333333333333333,0.4999999999999998,0.3333333333333333,0.5465587044534411,0.4048582995951407,0.573248407643312,Hobsons Bay,0.3412923280059428,0.14961496149614906,Western Metropolitan,0.32416023229723484
Altona,5/57 Blyth St,0.6666666666666667,u,0.29233772571986305,SP,Barlow,28/05/2016,0.6421568627450981,0.07804878048780473,0.6666666666666667,0.4999999999999998,0.3333333333333333,0.05668016194331716,0.012145748987853594,0.9808917197452212,Hobsons Bay,0.3338651555579885,0.18139591736945335,Western Metropolitan,0.32416023229723484
Altona,2/60 David St,0.3333333333333332,h,0.19746217667154672,SP,Compton,30/07/2016,0.6421568627450981,0.07804878048780473,0.3333333333333333,0.0,0.3333333333333333,0.12469635627530201,0.3684210526315785,0.8662420382165584,Hobsons Bay,0.34321789123317237,0.17874750438001616,Western Metropolitan,0.32416023229723484
Altona North,4 Knapp St,0.6666666666666667,h,0.3172279160566126,S,Jas,3/09/2016,0.5098039215686275,0.11219512195122008,0.6666666666666667,0.0,0.6666666666666667,0.43157894736842184,0.4736842105263155,0.7006369426751567,Hobsons Bay,0.4408714549005706,0.19463798231675375,Western Metropolitan,0.3130073252821223
Altona North,3/66 Marion St,0.3333333333333332,t,0.14153245485602686,S,hockingstuart,4/03/2017,0.5098039215686275,0.11219512195122008,0.3333333333333333,0.0,0.3333333333333333,0.06234817813764945,0.3117408906882587,0.9490445859872612,Hobsons Bay,0.42436662723847923,0.23110459194064037,Western Metropolitan,0.3130073252821223
Altona North,33 Carthy St,0.6666666666666667,h,0.2693997071742309,S,FN,4/06/2016,0.5098039215686275,0.11219512195122008,0.6666666666666667,0.0,0.6666666666666667,0.4323886639676113,0.6761133603238865,0.6815286624203812,Hobsons Bay,0.44279701812780004,0.1956566026972408,Western Metropolitan,0.3130073252821223
Altona North,1/5 Little St,0.6666666666666667,h,0.2874572962420692,VB,Greg,6/08/2016,0.5098039215686275,0.11219512195122008,0.6666666666666667,0.4999999999999998,0.3333333333333333,0.0,0.5263157894736834,0.9681528662420358,Hobsons Bay,0.41666437432949227,0.24210569205069812,Western Metropolitan,0.3130073252821223
Altona North,1/95 Mills St,0.6666666666666667,h,0.2230356271351877,S,Williams,7/05/2016,0.5098039215686275,0.11219512195122008,0.6666666666666667,0.0,0.3333333333333333,0.26558704453441156,0.47773279352226633,0.7006369426751567,Hobsons Bay,0.4163892938684456,0.2364014179195148,Western Metropolitan,0.3130073252821223
Altona North,5 Binns St,0.6666666666666667,h,0.282576866764275,PI,Village,7/11/2016,0.5098039215686275,0.11219512195122008,0.6666666666666667,0.0,1.0,0.4372469635627511,0.4696356275303635,0.6369426751592344,Hobsons Bay,0.4400462135174446,0.20034225644782308,Western Metropolitan,0.3130073252821223
Altona North,2/36 May St,0.6666666666666667,h,0.2654953635919956,S,hockingstuart,14/05/2016,0.5098039215686275,0.11219512195122008,0.6666666666666667,0.4999999999999998,0.6666666666666667,0.13846153846153805,0.4412955465587041,0.9681528662420358,Hobsons Bay,0.428217753692952,0.23619769384341752,Western Metropolitan,0.3130073252821223
Altona North,11 Beevers St,0.6666666666666667,h,0.2816007808687161,S,Greg,15/10/2016,0.5098039215686275,0.11219512195122008,0.6666666666666667,0.0,0.6666666666666667,0.47368421052631643,0.392712550607287,0.6369426751592344,Hobsons Bay,0.4499491101147077,0.22988224748399894,Western Metropolitan,0.3130073252821223
Altona North,2 Gadsden St,0.6666666666666667,h,0.291605661298194,S,Jas,22/08/2016,0.5098039215686275,0.11219512195122008,0.6666666666666667,0.0,0.3333333333333333,0.42995951417003986,0.6356275303643723,0.6369426751592344,Hobsons Bay,0.44472258135504356,0.20176832498061892,Western Metropolitan,0.3130073252821223
Altona North,24 Hansen St,0.6666666666666667,h,0.3904343582235233,S,hockingstuart,22/08/2016,0.5098039215686275,0.11219512195122008,0.6666666666666667,0.4999999999999998,0.3333333333333333,0.4777327935222669,0.6477732793522258,0.573248407643312,Hobsons Bay,0.41583913294638014,0.255551481073982,Western Metropolitan,0.3130073252821223
Altona North,6 Hill St,0.6666666666666667,h,0.33382137628111236,S,hockingstuart,25/02/2017,0.5098039215686275,0.11219512195122008,0.6666666666666667,0.4999999999999998,1.0,0.4493927125506082,0.5263157894736834,0.6369426751592344,Hobsons Bay,0.43344428245261635,0.2023794972089112,Western Metropolitan,0.3130073252821223
Altona North,4/221 Blackshaws Rd,0.3333333333333332,u,0.07857491459248406,S,Jas,28/08/2016,0.5098039215686275,0.11219512195122008,0.3333333333333333,0.0,0.3333333333333333,0.12388663967611253,0.28340080971659815,0.7006369426751567,Hobsons Bay,0.42959315599812964,0.255551481073982,Western Metropolitan,0.3130073252821223
Armadale,8/19 Mercer Rd,0.3333333333333332,u,0.2284040995607613,S,Jellis,3/09/2016,0.27450980392156854,0.6878048780487819,0.3333333333333333,0.0,0.3333333333333333,0.0,0.30769230769230665,0.6624203821656027,Stonnington,0.37155117871977017,0.5841584158414984,Southern Metropolitan,0.2934732396225169
Armadale,14/71 Denbigh Rd,0.6666666666666667,u,0.42166910688140524,S,Marshall,3/12/2016,0.27450980392156854,0.6878048780487819,0.6666666666666667,0.4999999999999998,0.6666666666666667,0.0,0.4048582995951407,0.878980891719744,Stonnington,0.36907545457044744,0.563378560078195,Southern Metropolitan,0.2934732396225169
Armadale,4/769 High St,0.6666666666666667,t,0.5241581259150805,S,Jellis,3/12/2016,0.27450980392156854,0.6878048780487819,0.6666666666666667,0.4999999999999998,0.6666666666666667,0.08178137651821792,0.42510121457489847,0.8917197452229287,Stonnington,0.3723764201028823,0.5582854581754177,Southern Metropolitan,0.2934732396225169
Armadale,7 Llaneast St,0.6666666666666667,h,0.8823816495851632,S,Jellis,3/12/2016,0.27450980392156854,0.6878048780487819,0.6666666666666667,0.4999999999999998,0.6666666666666667,0.23967611336032432,0.6072874493927118,0.18471337579617725,Stonnington,0.35202046598629044,0.5866031047548954,Southern Metropolitan,0.2934732396225169
Armadale,28 Cambridge St,0.6666666666666667,h,0.8487066861883845,S,Hodges,4/03/2017,0.27450980392156854,0.6878048780487819,0.6666666666666667,0.0,0.3333333333333333,0.1757085020242899,0.4696356275303635,0.1783439490445844,Stonnington,0.35807223612906697,0.5678604897526799,Southern Metropolitan,0.2934732396225169
Armadale,3/20 Mercer Rd,0.6666666666666667,t,0.8721327476817958,SP,Jellis,4/03/2017,0.27450980392156854,0.6878048780487819,0.6666666666666667,0.4999999999999998,0.6666666666666667,0.0,0.6680161943319836,0.8598726114649656,Stonnington,0.3732016614859668,0.5851770362220994,Southern Metropolitan,0.2934732396225169
Armadale,12 Willis St,0.6666666666666667,h,0.9365544167886769,S,Marshall,4/03/2017,0.27450980392156854,0.6878048780487819,0.6666666666666667,0.4999999999999998,0.3333333333333333,0.16599190283400717,0.4696356275303635,0.3184713375796177,Stonnington,0.36302368442769856,0.588029173287634,Southern Metropolitan,0.2934732396225169
Armadale,10 William St,0.0,h,0.6364080039043432,SP,Jellis,8/10/2016,0.27450980392156854,0.6878048780487819,0.3333333333333333,0.4999999999999998,0.3333333333333333,0.11659919028339827,0.43319838056680127,0.2547770700636934,Stonnington,0.36577448903804016,0.5772317972537306,Southern Metropolitan,0.2934732396225169
Armadale,15/405 Dandenong Rd,0.0,u,0.0727183992191308,PI,hockingstuart,10/09/2016,0.27450980392156854,0.6878048780487819,0.0,0.0,0.3333333333333333,0.0,0.1538461538461526,0.7324840764331199,Stonnington,0.3506450636811265,0.5684716619809721,Southern Metropolitan,0.2934732396225169
Armadale,8/58 Sutherland Rd,0.3333333333333332,u,0.22523182040019504,S,hockingstuart,10/12/2016,0.27450980392156854,0.6878048780487819,0.3333333333333333,0.0,0.3333333333333333,0.0,0.295546558704453,0.7006369426751567,Stonnington,0.36302368442769856,0.5662306971437866,Southern Metropolitan,0.2934732396225169
Armadale,40 New St,0.3333333333333332,h,0.5265983406539775,S,Marshall,12/11/2016,0.27450980392156854,0.6878048780487819,0.3333333333333333,0.0,0.0,0.20161943319838002,0.388663967611335,0.3184713375796177,Stonnington,0.37155117871977017,0.563378560078195,Southern Metropolitan,0.2934732396225169
Armadale,791 High St,0.6666666666666667,h,0.814543679843826,PI,RT,15/10/2016,0.27450980392156854,0.6878048780487819,0.6666666666666667,0.4999999999999998,0.6666666666666667,0.3279352226720641,0.4898785425101212,0.3184713375796177,Stonnington,0.3710010177977046,0.560322698936506,Southern Metropolitan,0.2934732396225169
Armadale,10/581 Orrong Rd,0.0,u,0.15080527086383563,SP,Jellis,18/03/2017,0.27450980392156854,0.6878048780487819,0.0,0.0,0.3333333333333333,0.0,0.21457489878542463,0.7006369426751567,Stonnington,0.37485214425219116,0.5542109766531848,Southern Metropolitan,0.2934732396225169
Armadale,14 New St,0.6666666666666667,h,0.5705222059541235,VB,Jellis,18/06/2016,0.27450980392156854,0.6878048780487819,0.3333333333333333,0.0,0.6666666666666667,0.17165991902833946,0.42914979757084926,0.2547770700636934,Stonnington,0.3718262591808168,0.5611375952410095,Southern Metropolitan,0.2934732396225169
Armadale,6/51 Armadale St,0.3333333333333332,u,0.2796486090775986,SP,Greg,19/11/2016,0.27450980392156854,0.6878048780487819,0.3333333333333333,0.0,0.3333333333333333,0.0,0.29959514170040374,0.6942675159235668,Stonnington,0.36329876488871743,0.5686753860570694,Southern Metropolitan,0.2934732396225169
Armadale,12/41 Kooyong Rd,0.3333333333333332,u,0.23865300146412854,VB,Marshall,19/11/2016,0.27450980392156854,0.6878048780487819,0.6666666666666667,0.0,0.3333333333333333,0.0,0.39676113360323795,0.7006369426751567,Stonnington,0.35697191428492187,0.5711200749704094,Southern Metropolitan,0.2934732396225169
Armadale,63 Denbigh Rd,0.6666666666666667,h,0.8633479746217664,S,Marshall,22/05/2016,0.27450980392156854,0.6878048780487819,0.6666666666666667,0.0,0.6666666666666667,0.26558704453441156,0.43724696356275206,0.2547770700636934,Stonnington,0.3671498913432179,0.5629711119260002,Southern Metropolitan,0.2934732396225169
Armadale,1/14 Denbigh Rd,0.3333333333333332,u,0.22791605661298162,S,hockingstuart,25/02/2017,0.27450980392156854,0.6878048780487819,0.3333333333333333,0.0,0.3333333333333333,0.0,0.3562753036437236,0.7006369426751567,Stonnington,0.35779715566803416,0.5625636637737484,Southern Metropolitan,0.2934732396225169
Armadale,75 Sutherland Rd,0.6666666666666667,h,0.5632015617374327,S,Marshall,25/02/2017,0.27450980392156854,0.6878048780487819,0.6666666666666667,0.0,0.6666666666666667,0.15060728744939214,0.3238866396761123,0.382165605095542,Stonnington,0.368525293648382,0.5660269730676323,Southern Metropolitan,0.2934732396225169
Armadale,1/403 Dandenong Rd,0.3333333333333332,u,0.18984870668618836,S,hockingstuart,27/06/2016,0.27450980392156854,0.6878048780487819,0.0,0.0,0.3333333333333333,0.0,0.30769230769230665,0.7006369426751567,Stonnington,0.35092014414215944,0.5680642138287774,Southern Metropolitan,0.2934732396225169
Armadale,3/769 High St,0.6666666666666667,t,0.47340165934602224,S,Jellis,27/11/2016,0.27450980392156854,0.6878048780487819,0.6666666666666667,0.0,0.6666666666666667,0.08340080971659677,0.012145748987853594,0.8917197452229287,Stonnington,0.3718262591808168,0.5582854581754177,Southern Metropolitan,0.2934732396225169
Armadale,1/31 Mercer Rd,0.6666666666666667,u,0.36017569546120054,S,Jellis,28/05/2016,0.27450980392156854,0.6878048780487819,0.3333333333333333,0.0,0.3333333333333333,0.0,0.3684210526315785,0.5095541401273868,Stonnington,0.37512722471322385,0.5845658639937502,Southern Metropolitan,0.2934732396225169
Armadale,5/555 Orrong Rd,0.0,u,0.21278672523182005,S,hockingstuart,28/08/2016,0.27450980392156854,0.6878048780487819,0.0,0.0,0.3333333333333333,0.0,0.21457489878542463,0.9745222929936295,Stonnington,0.36990069595355973,0.5538035285009898,Southern Metropolitan,0.2934732396225169
Ascot Vale,30 Rothwell St,0.6666666666666667,h,0.39482674475353824,S,Nelson,3/12/2016,0.25490196078431365,0.14634146341463547,0.6666666666666667,0.0,0.6666666666666667,0.2412955465587034,0.43724696356275206,0.382165605095542,Moonee Valley,0.582262811872458,0.3667848266307466,Western Metropolitan,0.40770804461162796
Ascot Vale,9/5 Rothwell St,0.3333333333333332,u,0.16398243045387978,SP,Brad,3/12/2016,0.25490196078431365,0.14634146341463547,0.3333333333333333,0.0,0.3333333333333333,0.0,0.2510121457489867,0.7643312101910811,Moonee Valley,0.5866640992490241,0.36800717108744496,Western Metropolitan,0.40770804461162796
Ascot Vale,7 Francis St,0.6666666666666667,h,0.6095656417764762,SP,Nelson,4/03/2017,0.25490196078431365,0.14634146341463547,0.6666666666666667,0.4999999999999998,0.6666666666666667,0.2242914979757064,0.7044534412955458,0.3184713375796177,Moonee Valley,0.582262811872458,0.37208165260967796,Western Metropolitan,0.40770804461162796
Ascot Vale,2/21 Harold St,0.3333333333333332,u,0.17520741825280603,VB,Jellis,4/03/2017,0.25490196078431365,0.14634146341463547,0.3333333333333333,0.0,0.3333333333333333,0.34251012145748966,0.2510121457489867,0.7006369426751567,Moonee Valley,0.5935411107748852,0.3301144929307054,Western Metropolitan,0.40770804461162796
Ascot Vale,98 Epsom Rd,0.6666666666666667,h,0.4099560761346997,SP,Nelson,4/06/2016,0.25490196078431365,0.14634146341463547,0.6666666666666667,0.4999999999999998,0.6666666666666667,0.2307692307692312,0.5182186234817804,0.2547770700636934,Moonee Valley,0.5896899843204124,0.34559752271519134,Western Metropolitan,0.40770804461162796
Ascot Vale,8 Geddes St,0.3333333333333332,h,0.282576866764275,PI,Nelson,4/06/2016,0.25490196078431365,0.14634146341463547,0.3333333333333333,0.0,0.3333333333333333,0.17327935222671842,0.3117408906882587,0.19108280254777005,Moonee Valley,0.5825378923335046,0.355987450596843,Western Metropolitan,0.40770804461162796
Ascot Vale,119 Roseberry St,0.3333333333333332,h,0.30209858467545114,SP,Maddison,4/06/2016,0.25490196078431365,0.14634146341463547,0.3333333333333333,0.0,0.3333333333333333,0.18299595141700417,0.3724696356275294,0.382165605095542,Moonee Valley,0.5910653866255763,0.3460049708674431,Western Metropolitan,0.40770804461162796
Ascot Vale,10 Fenton St,0.3333333333333332,h,0.4499755978526108,S,Nelson,6/08/2016,0.25490196078431365,0.14634146341463547,0.3333333333333333,0.0,0.3333333333333333,0.21781376518218454,0.4412955465587041,0.2547770700636934,Moonee Valley,0.5902401452424779,0.38613861386136805,Western Metropolitan,0.40770804461162796
Ascot Vale,10 McCully St,0.6666666666666667,h,0.608101512933138,S,Nelson,6/08/2016,0.25490196078431365,0.14634146341463547,0.6666666666666667,0.0,0.3333333333333333,0.3376518218623467,0.6801619433198374,0.2547770700636934,Moonee Valley,0.5880395015542018,0.3694332396202407,Western Metropolitan,0.40770804461162796
Ascot Vale,120 Epsom Rd,0.6666666666666667,h,0.40946803318692004,S,Brad,7/05/2016,0.25490196078431365,0.14634146341463547,0.6666666666666667,0.0,0.6666666666666667,0.28340080971659803,0.5060728744939268,0.28025477707006463,Moonee Valley,0.5872142601710896,0.34743103940018183,Western Metropolitan,0.40770804461162796
Ascot Vale,63 Kent St,0.3333333333333332,h,0.30258662762323085,PI,Nelson,7/05/2016,0.25490196078431365,0.14634146341463547,0.3333333333333333,0.0,0.3333333333333333,0.09554655870445095,0.3198380566801615,0.19108280254777005,Moonee Valley,0.5740103980414194,0.3857311657091163,Western Metropolitan,0.40770804461162796
Ascot Vale,4 The Parade,0.3333333333333332,h,0.39970717423133195,SP,Raine,7/05/2016,0.25490196078431365,0.14634146341463547,0.3333333333333333,0.0,0.3333333333333333,0.14008097165991704,0.41295546558704355,0.2547770700636934,Moonee Valley,0.5949165130800766,0.3690257914679889,Western Metropolitan,0.40770804461162796
Ascot Vale,1/17 Epsom Rd,0.3333333333333332,u,0.27037579306978987,S,Brad,7/11/2016,0.25490196078431365,0.14634146341463547,0.3333333333333333,0.0,0.6666666666666667,0.18461538461538313,0.36437246963562653,0.8598726114649656,Moonee Valley,0.5984925590735305,0.3405044208124142,Western Metropolitan,0.40770804461162796
Ascot Vale,41 Monash St,0.6666666666666667,h,0.5363591996095656,S,Nelson,8/10/2016,0.25490196078431365,0.14634146341463547,1.0,0.0,0.6666666666666667,0.4809716599190277,0.5991902834008089,0.6369426751592344,Moonee Valley,0.5707094325089982,0.34009697266016253,Western Metropolitan,0.40770804461162796
Ascot Vale,51 Francis St,0.3333333333333332,h,0.3118594436310391,PI,Nelson,10/09/2016,0.25490196078431365,0.14634146341463547,0.3333333333333333,0.0,0.3333333333333333,0.18299595141700417,0.3522267206477729,0.2547770700636934,Moonee Valley,0.5830880532555703,0.3649513099457559,Western Metropolitan,0.40770804461162796
Ascot Vale,12 Mirams St,1.0,h,0.37042459736456784,SP,Raine,10/12/2016,0.25490196078431365,0.14634146341463547,1.0,0.0,0.3333333333333333,0.2429149797570853,0.748987854251012,0.19108280254777005,Moonee Valley,0.5852886969438463,0.3561911746729974,Western Metropolitan,0.40770804461162796
Ascot Vale,78 The Parade,0.6666666666666667,h,0.6388482186432403,S,Nelson,11/02/2017,0.25490196078431365,0.14634146341463547,0.6666666666666667,0.0,0.3333333333333333,0.39433198380566703,0.5303643724696353,0.2547770700636934,Moonee Valley,0.5965669958462734,0.3568023469013466,Western Metropolitan,0.40770804461162796
Ascot Vale,26 Newsom St,0.6666666666666667,h,0.42410932162030235,PI,Brad,12/11/2016,0.25490196078431365,0.14634146341463547,0.6666666666666667,0.4999999999999998,0.6666666666666667,0.3562753036437227,0.4858299595141692,0.6050955414012722,Moonee Valley,0.5907903061645434,0.3333740781484921,Western Metropolitan,0.40770804461162796
Ascot Vale,8 Pentland St,0.6666666666666667,h,0.6364080039043432,S,Nelson,12/11/2016,0.25490196078431365,0.14634146341463547,0.6666666666666667,0.4999999999999998,0.6666666666666667,0.4307692307692293,0.595141700404858,0.573248407643312,Moonee Valley,0.5932660303138663,0.3352075948334825,Western Metropolitan,0.40770804461162796
Ascot Vale,8/129 The Parade,0.0,u,0.12640312347486532,S,Alexkarbon,12/11/2016,0.25490196078431365,0.14634146341463547,0.0,0.0,0.3333333333333333,0.0,0.23481781376518096,0.7133757961783423,Moonee Valley,0.597117156768339,0.3462086949435405,Western Metropolitan,0.40770804461162796
Ascot Vale,52 Monash St,0.6666666666666667,h,0.6315275744265493,PI,Jellis,13/08/2016,0.25490196078431365,0.14634146341463547,0.6666666666666667,0.4999999999999998,0.6666666666666667,0.4008097165991888,0.5627530364372467,0.382165605095542,Moonee Valley,0.5701592715869328,0.3382634559751717,Western Metropolitan,0.40770804461162796
Ascot Vale,58 Fenton St,1.0,h,0.5900439238653001,S,Nelson,14/05/2016,0.25490196078431365,0.14634146341463547,0.6666666666666667,0.4999999999999998,0.6666666666666667,0.553036437246963,0.9392712550607282,0.7515923566878983,Moonee Valley,0.5896899843204124,0.39225033614480326,Western Metropolitan,0.40770804461162796
Ascot Vale,70 Munro St,0.6666666666666667,h,0.40214738897022917,S,Brad,14/05/2016,0.25490196078431365,0.14634146341463547,0.6666666666666667,0.0,0.3333333333333333,0.21295546558704473,0.4736842105263155,0.3184713375796177,Moonee Valley,0.5888647429373002,0.35069062461796846,Western Metropolitan,0.40770804461162796
Ascot Vale,3/28 Ormond Rd,0.3333333333333332,u,0.14690092728160034,S,Biggin,15/10/2016,0.25490196078431365,0.14634146341463547,0.3333333333333333,0.0,0.3333333333333333,0.0,0.2510121457489867,0.7515923566878983,Moonee Valley,0.5951915935410956,0.3887870268507483,Western Metropolitan,0.40770804461162796
Ascot Vale,7 Angler Pde,1.0,h,0.7364568081991212,S,Raine,16/04/2016,0.25490196078431365,0.14634146341463547,1.0,1.0,0.6666666666666667,0.4550607287449376,0.8259109311740883,0.19108280254777005,Moonee Valley,0.5704343520479793,0.3331703540723945,Western Metropolitan,0.40770804461162796
Ascot Vale,2/127 Epsom Rd,0.3333333333333332,u,0.23377257198633478,SP,Brad,16/04/2016,0.25490196078431365,0.14634146341463547,0.3333333333333333,0.0,0.3333333333333333,0.24372469635627475,0.42105263157894646,0.8598726114649656,Moonee Valley,0.5784116854179853,0.3555800024446481,Western Metropolitan,0.40770804461162796
Ascot Vale,57 The Parade,0.6666666666666667,h,0.39482674475353824,S,Nelson,16/04/2016,0.25490196078431365,0.14634146341463547,0.6666666666666667,1.0,0.3333333333333333,0.39757085020242783,0.5141700404858297,0.573248407643312,Moonee Valley,0.5960168349242079,0.3547651061402015,Western Metropolitan,0.40770804461162796
Ascot Vale,62 Mirams St,0.6666666666666667,h,0.37042459736456784,SP,Brad,16/07/2016,0.25490196078431365,0.14634146341463547,0.6666666666666667,0.0,0.3333333333333333,0.19595141700404772,0.44534412955465486,0.382165605095542,Moonee Valley,0.585563777404893,0.3502831764657167,Western Metropolitan,0.40770804461162796
Ascot Vale,67 Hurtle St,0.6666666666666667,h,0.5119570522205952,SP,Brad,17/09/2016,0.25490196078431365,0.14634146341463547,0.6666666666666667,0.4999999999999998,0.6666666666666667,0.4995951417004037,0.6032388663967609,0.4458598726114633,Moonee Valley,0.5918906280086885,0.3392820763557727,Western Metropolitan,0.40770804461162796
Ascot Vale,95 Walter St,1.0,h,0.6583699365544164,S,Raine,17/09/2016,0.25490196078431365,0.14634146341463547,1.0,0.4999999999999998,0.6666666666666667,0.48340080971659916,0.7287449392712544,0.5031847133757948,Moonee Valley,0.5877644210931691,0.3449863504868991,Western Metropolitan,0.40770804461162796
Ascot Vale,3/8 Walter St,0.3333333333333332,t,0.35822352367008276,SP,Nelson,18/03/2017,0.25490196078431365,0.14634146341463547,0.3333333333333333,0.4999999999999998,0.3333333333333333,0.11821862348178024,0.5344129554655862,0.9872611464968133,Moonee Valley,0.5998679613787082,0.33480014668128777,Western Metropolitan,0.40770804461162796
Ascot Vale,12/9 Milton St,0.3333333333333332,u,0.15178135675939455,S,Alexkarbon,18/06/2016,0.25490196078431365,0.14634146341463547,0.3333333333333333,0.0,0.3333333333333333,0.0,0.2510121457489867,0.7324840764331199,Moonee Valley,0.5943663521579973,0.3716742044574262,Western Metropolitan,0.40770804461162796
Ascot Vale,21A Geddes St,0.6666666666666667,h,0.4424109321620302,S,Alexkarbon,19/11/2016,0.25490196078431365,0.14634146341463547,0.6666666666666667,0.0,0.6666666666666667,0.409716599190282,0.44534412955465486,0.382165605095542,Moonee Valley,0.5817126509503926,0.35415393391185224,Western Metropolitan,0.40770804461162796
Ascot Vale,1/20 Newsom St,0.6666666666666667,t,0.44851146900927263,S,Jellis,19/11/2016,0.25490196078431365,0.14634146341463547,0.6666666666666667,0.4999999999999998,0.6666666666666667,0.25748987854250777,0.6477732793522258,0.9745222929936295,Moonee Valley,0.5913404670866228,0.33418897445299556,Western Metropolitan,0.40770804461162796
Ascot Vale,4/27 Roseberry St,0.3333333333333332,u,0.15080527086383563,S,McDonald,19/11/2016,0.25490196078431365,0.14634146341463547,0.3333333333333333,0.0,0.3333333333333333,0.0,0.2631578947368417,0.7006369426751567,Moonee Valley,0.5899650647814314,0.35496883021635606,Western Metropolitan,0.40770804461162796
Ascot Vale,43 Bloomfield Rd,1.0,h,0.6339677891654465,S,Nelson,22/05/2016,0.25490196078431365,0.14634146341463547,1.0,0.4999999999999998,0.0,0.3384615384615363,0.639676113360323,0.2547770700636934,Moonee Valley,0.5852886969438463,0.3651550340219103,Western Metropolitan,0.40770804461162796
Ascot Vale,21 Middle St,0.6666666666666667,h,0.48755490483162495,S,Nelson,23/04/2016,0.25490196078431365,0.14634146341463547,0.6666666666666667,0.4999999999999998,0.3333333333333333,0.22024291497975598,0.6356275303643723,0.2547770700636934,Moonee Valley,0.5830880532555703,0.384101373100223,Western Metropolitan,0.40770804461162796
Ascot Vale,78 Francis St,0.6666666666666667,h,0.48999511957052205,S,Brad,24/09/2016,0.25490196078431365,0.14634146341463547,0.6666666666666667,0.0,0.3333333333333333,0.23967611336032432,0.42105263157894646,0.3184713375796177,Moonee Valley,0.5841883750997015,0.3629140691846678,Western Metropolitan,0.40770804461162796
Ascot Vale,25 Geddes St,1.0,h,0.39970717423133195,PI,Nelson,24/09/2016,0.25490196078431365,0.14634146341463547,1.0,0.4999999999999998,0.3333333333333333,0.2412955465587034,0.595141700404858,0.382165605095542,Moonee Valley,0.5819877314114391,0.3537464857596005,Western Metropolitan,0.40770804461162796
Ascot Vale,15 Mirams St,1.0,h,0.5924841386041968,S,Jellis,25/02/2017,0.25490196078431365,0.14634146341463547,1.0,0.0,0.3333333333333333,0.44696356275303684,0.6275303643724695,0.382165605095542,Moonee Valley,0.5844634555607481,0.3551725542924533,Western Metropolitan,0.40770804461162796
Ascot Vale,44 Walter St,0.6666666666666667,h,0.6102977061981453,S,Barry,25/02/2017,0.25490196078431365,0.14634146341463547,0.6666666666666667,0.4999999999999998,0.6666666666666667,0.33684210526315733,0.6801619433198374,0.2547770700636934,Moonee Valley,0.5960168349242079,0.3382634559751717,Western Metropolitan,0.40770804461162796
Ascot Vale,25 Dalgety Dr,0.6666666666666667,h,0.39482674475353824,S,Jellis,26/07/2016,0.25490196078431365,0.14634146341463547,0.6666666666666667,0.4999999999999998,0.6666666666666667,0.2307692307692312,0.6963562753036429,0.961783439490443,Moonee Valley,0.5819877314114391,0.3394858004318701,Western Metropolitan,0.40770804461162796
Ascot Vale,7 Dalgety Dr,0.6666666666666667,h,0.42166910688140524,S,Nelson,26/07/2016,0.25490196078431365,0.14634146341463547,0.6666666666666667,0.4999999999999998,0.3333333333333333,0.25425101214574697,0.7165991902834007,0.9554140127388528,Moonee Valley,0.5819877314114391,0.3356150429857344,Western Metropolitan,0.40770804461162796
Ascot Vale,6 Waller Ct,0.6666666666666667,h,0.3196681307955098,S,Brad,26/07/2016,0.25490196078431365,0.14634146341463547,0.6666666666666667,0.4999999999999998,0.3333333333333333,0.4663967611336022,0.4858299595141692,0.5095541401273868,Moonee Valley,0.5715346738921105,0.3712667563051745,Western Metropolitan,0.40770804461162796
Ascot Vale,17 Ascot St,0.3333333333333332,h,0.28013665202537796,PI,Nelson,27/06/2016,0.25490196078431365,0.14634146341463547,0.3333333333333333,0.0,1.0,0.20404858299595147,0.43724696356275206,0.3184713375796177,Moonee Valley,0.5690589497428016,0.3690257914679889,Western Metropolitan,0.40770804461162796
Ascot Vale,73 Kent St,0.3333333333333332,h,0.30697901415324536,PI,Nelson,27/06/2016,0.25490196078431365,0.14634146341463547,0.3333333333333333,0.0,0.3333333333333333,0.10040485829959377,0.3117408906882587,0.2547770700636934,Moonee Valley,0.5740103980414194,0.38511999348082393,Western Metropolitan,0.40770804461162796
Ascot Vale,1 East St,0.6666666666666667,t,0.42410932162030235,S,Nelson,27/11/2016,0.25490196078431365,0.14634146341463547,0.6666666666666667,0.4999999999999998,0.6666666666666667,0.16194331983805685,0.5829959514170032,0.9108280254777043,Moonee Valley,0.5852886969438463,0.3834902008718738,Western Metropolitan,0.40770804461162796
Ascot Vale,1 Bloomfield Rd,0.6666666666666667,h,0.5729624206930206,S,Barry,28/05/2016,0.25490196078431365,0.14634146341463547,0.3333333333333333,0.0,0.3333333333333333,0.2251012145748989,0.6720647773279345,0.2547770700636934,Moonee Valley,0.5847385360217807,0.37248910076192976,Western Metropolitan,0.40770804461162796
Ascot Vale,58 Bloomfield Rd,0.6666666666666667,h,0.5290385553928743,S,Stockdale,28/08/2016,0.25490196078431365,0.14634146341463547,0.6666666666666667,0.0,0.3333333333333333,0.36599190283400834,0.7085020242914978,0.6369426751592344,Moonee Valley,0.5863890187879776,0.36250662103241604,Western Metropolitan,0.40770804461162796
Ascot Vale,1/91 Epsom Rd,0.3333333333333332,u,0.20204978038067303,S,Nelson,28/08/2016,0.25490196078431365,0.14634146341463547,0.3333333333333333,0.0,0.6666666666666667,0.15708502024291404,0.28744939271255016,0.2547770700636934,Moonee Valley,0.5836382141776357,0.35109807277022026,Western Metropolitan,0.40770804461162796
Ashburton,69 Albion Rd,0.6666666666666667,h,0.7510980966325036,S,Jellis,3/12/2016,0.5049019607843138,0.7073170731707328,0.6666666666666667,0.4999999999999998,0.6666666666666667,0.48502024291497814,0.890688259109311,0.4458598726114633,Boroondara,0.3357907187852456,0.6709448722649782,Southern Metropolitan,0.17574077740381436
Ashburton,3 Dunlop St,0.6666666666666667,h,0.694973157637872,S,Jellis,4/06/2016,0.5049019607843138,0.7073170731707328,0.6666666666666667,0.4999999999999998,0.6666666666666667,0.5919028340080967,0.6032388663967609,0.47770700636942653,Boroondara,0.3377162820124889,0.6685001833516382,Southern Metropolitan,0.17574077740381436
Ashburton,16a Nicholas St,0.6666666666666667,h,0.47291361639824264,PI,Marshall,8/10/2016,0.5049019607843138,0.7073170731707328,0.6666666666666667,1.0,0.6666666666666667,0.22348178137651692,0.7206477732793515,0.9171974522292972,Boroondara,0.32863862679833794,0.6892800391149986,Southern Metropolitan,0.17574077740381436
Ashburton,5 Nicholas St,0.6666666666666667,h,0.5885797950219618,S,Buxton,8/10/2016,0.5049019607843138,0.7073170731707328,0.6666666666666667,0.0,0.6666666666666667,0.47206477732793445,0.45344129554655765,0.573248407643312,Boroondara,0.33248975325283847,0.6909098317238919,Southern Metropolitan,0.17574077740381436
Ashburton,1/1 Nairn St,0.6666666666666667,h,0.676915568570034,S,Jellis,10/09/2016,0.5049019607843138,0.7073170731707328,0.6666666666666667,0.4999999999999998,0.6666666666666667,0.41781376518218577,0.5870445344129552,0.382165605095542,Boroondara,0.3352405578631802,0.6668703907427449,Southern Metropolitan,0.17574077740381436
Ashburton,9 Gona Ct,0.6666666666666667,h,0.7706198145436796,S,hockingstuart,10/12/2016,0.5049019607843138,0.7073170731707328,0.6666666666666667,0.0,0.6666666666666667,0.6526315789473673,0.4089068825910927,0.573248407643312,Boroondara,0.32973894864246905,0.7019109318338926,Southern Metropolitan,0.17574077740381436
Ashburton,45 Yuile St,0.6666666666666667,h,0.7437774524158122,S,Jellis,10/12/2016,0.5049019607843138,0.7073170731707328,0.6666666666666667,0.0,1.0,0.6315789473684201,0.6153846153846145,0.5095541401273868,Boroondara,0.3561466729018098,0.6968178299311155,Southern Metropolitan,0.17574077740381436
Ashburton,47 Yuile St,1.0,h,0.6925329428989748,VB,Marshall,12/11/2016,0.5049019607843138,0.7073170731707328,1.0,0.4999999999999998,0.6666666666666667,0.6315789473684201,0.7287449392712544,0.49681528662420305,Boroondara,0.35587159244079086,0.6972252780833674,Southern Metropolitan,0.17574077740381436
Ashburton,6a Glen Rd,0.6666666666666667,h,0.7471937530502683,S,Jellis,14/05/2016,0.5049019607843138,0.7073170731707328,0.6666666666666667,0.4999999999999998,0.6666666666666667,0.2842105263157875,0.9230769230769225,0.9299363057324829,Boroondara,0.3168101669738314,0.673389561178261,Southern Metropolitan,0.17574077740381436
Ashburton,18 Glen Rd,0.6666666666666667,h,0.7486578818936064,S,Jellis,15/10/2016,0.5049019607843138,0.7073170731707328,0.6666666666666667,0.4999999999999998,1.0,0.5684210526315779,0.5870445344129552,0.5414012738853508,Boroondara,0.31818556927900915,0.6723709407977739,Southern Metropolitan,0.17574077740381436
Ashburton,2/17 Ashburn Gr,0.6666666666666667,t,0.3753050268423616,S,Jellis,19/11/2016,0.5049019607843138,0.7073170731707328,0.6666666666666667,0.4999999999999998,0.6666666666666667,0.12388663967611253,0.44534412955465486,0.8280254777070054,Boroondara,0.3407421670838773,0.6953917613983198,Southern Metropolitan,0.17574077740381436
Ashburton,3 Mustang Ct,0.6666666666666667,h,0.6681307955100045,VB,Jellis,22/08/2016,0.5049019607843138,0.7073170731707328,0.6666666666666667,0.4999999999999998,0.6666666666666667,0.5748987854250999,0.5627530364372467,0.5414012738853508,Boroondara,0.3412923280059428,0.7135232041722429,Southern Metropolitan,0.17574077740381436
Ashburton,4 Vears Rd,0.6666666666666667,h,0.8291849682772083,S,Jellis,25/02/2017,0.5049019607843138,0.7073170731707328,0.6666666666666667,0.4999999999999998,1.0,0.5862348178137645,0.6801619433198374,0.5095541401273868,Boroondara,0.3506450636811265,0.7098561708022048,Southern Metropolitan,0.17574077740381436
Ashburton,14 Lucerne St,0.6666666666666667,h,0.6266471449487552,S,Buxton,27/06/2016,0.5049019607843138,0.7073170731707328,0.6666666666666667,0.0,0.3333333333333333,0.489878542510121,0.4493927125506069,0.573248407643312,Boroondara,0.327538304954193,0.688465142810552,Southern Metropolitan,0.17574077740381436
Ashburton,5 Pitt St,0.3333333333333332,h,0.6388482186432403,PI,Jellis,27/06/2016,0.5049019607843138,0.7073170731707328,0.3333333333333333,0.0,0.3333333333333333,0.5562753036437239,0.42105263157894646,0.5095541401273868,Boroondara,0.32286193711660816,0.6717597685694248,Southern Metropolitan,0.17574077740381436
Ashburton,1/65 Ashburn Gr,1.0,t,0.5461200585651531,VB,Noel,27/11/2016,0.5049019607843138,0.7073170731707328,1.0,0.4999999999999998,0.6666666666666667,0.2599190283400793,0.8056680161943319,0.9363057324840746,Boroondara,0.3302891095645347,0.6937619687894836,Southern Metropolitan,0.17574077740381436
Ashburton,33 Highgate Gr,1.0,h,0.8096632503660318,PI,hockingstuart,28/05/2016,0.5049019607843138,0.7073170731707328,1.0,0.4999999999999998,0.6666666666666667,0.4161943319838038,0.9716599190283395,0.47770700636942653,Boroondara,0.33826644293455443,0.6880576946583002,Southern Metropolitan,0.17574077740381436
Ashburton,19 Poulter St,0.6666666666666667,h,0.7413372376769151,S,Marshall,28/08/2016,0.5049019607843138,0.7073170731707328,0.6666666666666667,0.0,0.3333333333333333,0.5643724696356276,0.6639676113360317,0.5541401273885336,Boroondara,0.34596869584354156,0.7147455486289412,Southern Metropolitan,0.17574077740381436
Ashwood,1/53 Winbirra Pde,1.0,h,0.5217179111761833,SP,Purplebricks,4/03/2017,0.5637254901960785,0.7073170731707328,1.0,1.0,0.6666666666666667,0.3012145748987844,0.8137651821862347,0.993630573248407,Monash,0.32396225896073916,0.7343030599355463,Southern Metropolitan,0.16531379924767362
Ashwood,18 Montrose St,0.3333333333333332,h,0.4607125427037579,VB,Jellis,4/06/2016,0.5637254901960785,0.7073170731707328,0.3333333333333333,0.0,0.6666666666666667,0.5627530364372457,0.4615384615384606,0.573248407643312,Monash,0.3300140291035157,0.7230982357495049,Southern Metropolitan,0.16531379924767362
Ashwood,4 Scenic Dr,1.0,h,0.6681307955100045,S,Fletchers,6/08/2016,0.5637254901960785,0.7073170731707328,0.3333333333333333,0.4999999999999998,0.6666666666666667,0.5028340080971646,0.8218623481781376,0.8917197452229287,Monash,0.34294281077215333,0.7391924377622832,Southern Metropolitan,0.16531379924767362
Ashwood,1/7 Farmer St,0.3333333333333332,t,0.27769643728648113,S,hockingstuart,7/11/2016,0.5637254901960785,0.7073170731707328,0.3333333333333333,0.0,0.6666666666666667,0.29716599190283405,0.44534412955465486,0.7006369426751567,Monash,0.3388166038566339,0.7528419508617212,Southern Metropolitan,0.16531379924767362
Ashwood,95 Huntingdale Rd,1.0,h,0.47291361639824264,VB,Tim,10/12/2016,0.5637254901960785,0.7073170731707328,0.6666666666666667,0.4999999999999998,0.6666666666666667,0.6502024291497989,0.6153846153846145,0.7006369426751567,Monash,0.350094902759061,0.7601760176016839,Southern Metropolitan,0.16531379924767362
Ashwood,1/7 Murra Ct,0.3333333333333332,u,0.2728160078086869,S,Ray,14/05/2016,0.5637254901960785,0.7073170731707328,0.3333333333333333,0.0,0.3333333333333333,0.1748987854251004,0.36437246963562653,0.9108280254777043,Monash,0.3253376612659169,0.7379700933055845,Southern Metropolitan,0.16531379924767362
Ashwood,58 Ashwood Dr,0.6666666666666667,h,0.7320644216691067,S,Jellis,15/10/2016,0.5637254901960785,0.7073170731707328,0.6666666666666667,0.4999999999999998,1.0,0.633198380566802,0.8704453441295547,0.573248407643312,Monash,0.350094902759061,0.7387849896100313,Southern Metropolitan,0.16531379924767362
Ashwood,4/36 Queens Pde,0.3333333333333332,u,0.22889214250854054,S,Noel,18/03/2017,0.5637254901960785,0.7073170731707328,0.3333333333333333,0.0,0.3333333333333333,0.12388663967611253,0.3238866396761123,0.7006369426751567,Monash,0.3294638681814502,0.7267652691194864,Southern Metropolitan,0.16531379924767362
Ashwood,17 Parkhill Dr,1.0,h,0.5412396290873593,S,Tim,19/11/2016,0.5637254901960785,0.7073170731707328,1.0,0.4999999999999998,0.6666666666666667,0.6202429149797584,0.7773279352226714,0.573248407643312,Monash,0.347894259070771,0.754268019394517,Southern Metropolitan,0.16531379924767362
Ashwood,2/6 Murra Ct,0.3333333333333332,u,0.27769643728648113,S,hockingstuart,22/08/2016,0.5637254901960785,0.7073170731707328,0.3333333333333333,0.0,0.6666666666666667,0.15546558704453206,0.3562753036437236,0.9363057324840746,Monash,0.3258878221879964,0.7385812655339337,Southern Metropolitan,0.16531379924767362
Ashwood,4 Teck St,0.3333333333333332,h,0.47779404587603685,S,Fletchers,24/09/2016,0.5637254901960785,0.7073170731707328,0.3333333333333333,0.0,0.3333333333333333,0.474493927125506,0.3481781376518208,0.573248407643312,Monash,0.33303991417490414,0.751212158252828,Southern Metropolitan,0.16531379924767362
Ashwood,14 Ashwood Dr,0.6666666666666667,h,0.5729624206930206,S,Jellis,25/02/2017,0.5637254901960785,0.7073170731707328,0.6666666666666667,0.0,0.3333333333333333,0.6153846153846155,0.4858299595141692,0.6369426751592344,Monash,0.3613732016614881,0.7422482989039151,Southern Metropolitan,0.16531379924767362
Ashwood,1/2 Condah Ct,0.6666666666666667,h,0.3533430941922888,S,Noel,25/02/2017,0.5637254901960785,0.7073170731707328,0.6666666666666667,0.4999999999999998,0.3333333333333333,0.25910931174088975,0.3441295546558701,0.6242038216560507,Monash,0.32836354633730513,0.7554903638511584,Southern Metropolitan,0.16531379924767362
Ashwood,1/16 Raymond St,0.6666666666666667,t,0.3755490483162515,S,Jellis,27/11/2016,0.5637254901960785,0.7073170731707328,0.6666666666666667,0.4999999999999998,0.6666666666666667,0.20728744939271243,0.542510121457489,0.9681528662420358,Monash,0.3407421670838773,0.7540642953183627,Southern Metropolitan,0.16531379924767362
Ashwood,4 Newbury Ct,0.6666666666666667,h,0.5217179111761833,VB,Buxton,28/05/2016,0.5637254901960785,0.7073170731707328,0.6666666666666667,0.4999999999999998,0.6666666666666667,0.6793522267206471,0.8016194331983798,0.7006369426751567,Monash,0.35202046598629044,0.7544717434706145,Southern Metropolitan,0.16531379924767362
Ashwood,2/53 Salisbury Rd,0.6666666666666667,t,0.3411420204978038,S,Barry,28/08/2016,0.5637254901960785,0.7073170731707328,0.3333333333333333,0.0,0.6666666666666667,0.17165991902833946,0.5263157894736834,0.9681528662420358,Monash,0.3220366957334959,0.7526382267856238,Southern Metropolitan,0.16531379924767362
Avondale Heights,8 Norma Ct,0.6666666666666667,h,0.3509028794533917,S,Moonee,3/09/2016,0.480392156862745,0.15609756097560998,0.6666666666666667,0.0,0.3333333333333333,0.48016194331983836,0.47773279352226633,0.7006369426751567,Moonee Valley,0.6097708579759576,0.26064458297675924,Western Metropolitan,0.2714313997228271
Avondale Heights,9 Rogerson St,0.6666666666666667,h,0.30209858467545114,SP,Moonee,3/09/2016,0.480392156862745,0.15609756097560998,0.6666666666666667,0.0,0.3333333333333333,0.0,0.41700404858299556,0.7643312101910811,Moonee Valley,0.6215993178004641,0.24780996618176757,Western Metropolitan,0.2714313997228271
Avondale Heights,157 Canning St,0.6666666666666667,t,0.351390922401171,S,Nelson,3/12/2016,0.480392156862745,0.15609756097560998,0.6666666666666667,1.0,0.3333333333333333,0.4510121457489871,0.7327935222672064,1.0,Moonee Valley,0.6034440073721483,0.23986472721345561,Western Metropolitan,0.2714313997228271
Avondale Heights,2 Arbor Tce,1.0,h,0.4997559785261101,S,Nelson,4/06/2016,0.480392156862745,0.15609756097560998,0.6666666666666667,0.4999999999999998,0.6666666666666667,0.46072874493926985,0.9109311740890689,0.9426751592356684,Moonee Valley,0.616097708579753,0.2567738255306804,Western Metropolitan,0.2714313997228271
Avondale Heights,68 Thompson St,0.6666666666666667,h,0.2679355783308927,S,Nelson,6/08/2016,0.480392156862745,0.15609756097560998,0.6666666666666667,0.0,0.6666666666666667,0.4615384615384624,0.4858299595141692,0.7006369426751567,Moonee Valley,0.6334277776249567,0.2337530049300777,Western Metropolitan,0.2714313997228271
Avondale Heights,97 Military Rd,0.6666666666666667,h,0.24231332357247404,SP,Moonee,8/10/2016,0.480392156862745,0.15609756097560998,0.6666666666666667,0.0,0.3333333333333333,0.44534412955465486,0.5789473684210524,0.7006369426751567,Moonee Valley,0.6221494787225297,0.25005093101901,Western Metropolitan,0.2714313997228271
Avondale Heights,8 Herbert St,0.6666666666666667,h,0.28013665202537796,S,Nelson,22/05/2016,0.480392156862745,0.15609756097560998,0.6666666666666667,0.0,0.3333333333333333,0.47044534412955563,0.42914979757084926,0.6369426751592344,Moonee Valley,0.6059197315214571,0.2404758994417481,Western Metropolitan,0.2714313997228271
Avondale Heights,20 Westminster Dr,0.6666666666666667,h,0.3716447047340163,S,Nelson,22/05/2016,0.480392156862745,0.15609756097560998,0.6666666666666667,0.0,0.3333333333333333,0.474493927125506,0.47773279352226633,0.6687898089171965,Moonee Valley,0.6193986741121603,0.24618017357287428,Western Metropolitan,0.2714313997228271
Avondale Heights,1/24 Bordeaux St,0.3333333333333332,h,0.19106881405563664,S,Nelson,24/09/2016,0.480392156862745,0.15609756097560998,0.3333333333333333,0.0,0.3333333333333333,0.17813765182186134,0.4089068825910927,0.8598726114649656,Moonee Valley,0.6419552719170282,0.2539216884651457,Western Metropolitan,0.2714313997228271
Avondale Heights,72 Military Rd,1.0,h,0.2679355783308927,PI,Nelson,24/09/2016,0.480392156862745,0.15609756097560998,1.0,0.4999999999999998,0.6666666666666667,0.4485829959514158,0.5668016194331974,0.6369426751592344,Moonee Valley,0.6174731108849307,0.2522918958562525,Western Metropolitan,0.2714313997228271
Avondale Heights,2 Drake Ct,0.6666666666666667,h,0.36310395314787697,S,Edward,25/02/2017,0.480392156862745,0.15609756097560998,0.6666666666666667,0.0,1.0,0.6574898785425102,0.4736842105263155,0.6369426751592344,Moonee Valley,0.6171980304238842,0.24108707167009716,Western Metropolitan,0.2714313997228271
Avondale Heights,109 North Rd,1.0,h,0.3079551000488043,S,Nelson,26/07/2016,0.480392156862745,0.15609756097560998,1.0,0.4999999999999998,0.6666666666666667,0.47692307692307745,0.6072874493927118,0.6433121019108281,Moonee Valley,0.6383792259235743,0.23212321232118444,Western Metropolitan,0.2714313997228271
Avondale Heights,2/4 Carmyle Ct,0.3333333333333332,u,0.1366520253782331,PI,Barry,27/11/2016,0.480392156862745,0.15609756097560998,0.3333333333333333,0.0,0.3333333333333333,0.0,0.3441295546558701,0.8598726114649656,Moonee Valley,0.628751409787344,0.2516807236279032,Western Metropolitan,0.2714313997228271
Avondale Heights,10 Skewes St,0.6666666666666667,h,0.3289409468033186,S,Nelson,27/11/2016,0.480392156862745,0.15609756097560998,0.6666666666666667,0.4999999999999998,0.6666666666666667,0.48016194331983836,0.41700404858299556,0.7006369426751567,Moonee Valley,0.6290264902483906,0.2416982438984465,Western Metropolitan,0.2714313997228271
Avondale Heights,43 Skewes St,0.6666666666666667,h,0.24548560273304026,S,Nelson,28/05/2016,0.480392156862745,0.15609756097560998,1.0,0.4999999999999998,0.3333333333333333,0.4712550607287451,0.6194331983805665,0.573248407643312,Moonee Valley,0.6353533408521862,0.23904983090895213,Western Metropolitan,0.2714313997228271
Balaclava,18 Linton St,1.0,h,0.8238164958516349,S,Gary,3/09/2016,0.2892156862745097,0.8829268292682942,0.6666666666666667,0.4999999999999998,0.3333333333333333,0.1975708502024267,0.7287449392712544,0.2547770700636934,Port Phillip,0.3371661210904233,0.516114574420348,Southern Metropolitan,0.16914142414043415
Balaclava,7/72 Grosvenor St,0.3333333333333332,u,0.13616398243045386,PI,hockingstuart,3/12/2016,0.2892156862745097,0.8829268292682942,0.3333333333333333,0.0,0.6666666666666667,0.0,0.24696356275303596,0.6687898089171965,Port Phillip,0.31983605204521975,0.5222262967037262,Southern Metropolitan,0.16914142414043415
Balaclava,1/34 Gourlay St,0.3333333333333332,t,0.43142996583699333,S,Gary,7/11/2016,0.2892156862745097,0.8829268292682942,0.3333333333333333,0.0,0.6666666666666667,0.09230769230769001,0.4858299595141692,0.8917197452229287,Port Phillip,0.3220366957334959,0.5228374689320752,Southern Metropolitan,0.16914142414043415
Balaclava,4/9 Gourlay St,0.3333333333333332,u,0.18130795510004863,S,Buxton,15/10/2016,0.2892156862745097,0.8829268292682942,0.3333333333333333,0.0,0.3333333333333333,0.0,0.2631578947368417,0.6369426751592344,Port Phillip,0.3214865348114304,0.5210039522470845,Southern Metropolitan,0.16914142414043415
Balaclava,1/22 Sycamore Gr,0.3333333333333332,u,0.18984870668618836,S,Gary,15/10/2016,0.2892156862745097,0.8829268292682942,0.3333333333333333,0.0,0.0,0.0,0.23481781376518096,0.7006369426751567,Port Phillip,0.3168101669738314,0.5250784337692609,Southern Metropolitan,0.16914142414043415
Balaclava,6/23 Gourlay St,0.3333333333333332,u,0.15178135675939455,SP,Buxton,17/09/2016,0.2892156862745097,0.8829268292682942,0.3333333333333333,0.0,0.3333333333333333,0.0,0.24696356275303596,0.6369426751592344,Port Phillip,0.3212114543503976,0.5230411930081157,Southern Metropolitan,0.16914142414043415
Balaclava,6 Blenheim St,0.6666666666666667,h,0.5183016105417272,S,McGrath,18/06/2016,0.2892156862745097,0.8829268292682942,0.6666666666666667,0.0,0.3333333333333333,0.14412955465587035,0.4048582995951407,0.382165605095542,Port Phillip,0.33854152339558724,0.5201890559425808,Southern Metropolitan,0.16914142414043415
Balaclava,3/20 Orange Gr,0.3333333333333332,u,0.1390922401171302,S,Chisholm,18/06/2016,0.2892156862745097,0.8829268292682942,0.3333333333333333,0.0,0.3333333333333333,0.0,0.19838056680161895,0.6369426751592344,Port Phillip,0.33441531648006795,0.5238560893126192,Southern Metropolitan,0.16914142414043415
Balaclava,2/19 Camden St,0.3333333333333332,u,0.16739873108833545,S,hockingstuart,22/05/2016,0.2892156862745097,0.8829268292682942,0.3333333333333333,0.0,0.3333333333333333,0.0,0.2388663967611331,0.7006369426751567,Port Phillip,0.33744120155144236,0.5138736095831623,Southern Metropolitan,0.16914142414043415
Balaclava,1/17 Albion St,0.3333333333333332,h,0.41483650561249363,S,Buxton,25/02/2017,0.2892156862745097,0.8829268292682942,0.3333333333333333,0.0,0.0,0.12874493927125236,0.3400809716599179,0.4458598726114633,Port Phillip,0.317360327895897,0.5171331948009488,Southern Metropolitan,0.16914142414043415
Balaclava,10 Grosvenor St,0.6666666666666667,h,0.7608589555880916,S,McGrath,25/02/2017,0.2892156862745097,0.8829268292682942,0.6666666666666667,0.4999999999999998,0.6666666666666667,0.2744939271255048,0.6437246963562752,0.19108280254777005,Port Phillip,0.32286193711660816,0.512243816974269,Southern Metropolitan,0.16914142414043415
Balaclava,3/33 Gourlay St,0.3333333333333332,u,0.19960956564177634,VB,McGrath,27/06/2016,0.2892156862745097,0.8829268292682942,0.3333333333333333,0.0,0.3333333333333333,0.39109311740890607,0.20647773279352177,0.7006369426751567,Port Phillip,0.320936373889351,0.5244672615409685,Southern Metropolitan,0.16914142414043415
Balwyn,166 Gordon St,0.3333333333333332,h,0.9609565641776472,S,Marshall,3/09/2016,0.44117647058823517,0.49268292682926895,0.3333333333333333,0.0,0.3333333333333333,0.5336032388663976,0.49797570850202394,0.382165605095542,Boroondara,0.4950623057244299,0.6951880373222225,Southern Metropolitan,0.34930376823071324
Balwyn,36 Narrak Rd,1.0,h,0.814543679843826,VB,Marshall,3/09/2016,0.44117647058823517,0.49268292682926895,1.0,0.4999999999999998,0.6666666666666667,0.5789473684210532,0.8825910931174082,0.7961783439490442,Boroondara,0.490661018347864,0.7259503728150396,Southern Metropolitan,0.34930376823071324
Balwyn,2/16 Westminster St,0.3333333333333332,t,0.5485602733040503,S,Noel,3/09/2016,0.44117647058823517,0.49268292682926895,0.3333333333333333,0.0,0.3333333333333333,0.1684210526315786,0.5222672064777325,0.8917197452229287,Boroondara,0.4857095700492323,0.7294136821089235,Southern Metropolitan,0.34930376823071324
Balwyn,2/74 Balwyn Rd,0.6666666666666667,u,0.4582723279648607,SA,Philip,3/12/2016,0.44117647058823517,0.49268292682926895,0.6666666666666667,0.4999999999999998,0.6666666666666667,0.16680161943319666,0.45344129554655765,0.878980891719744,Boroondara,0.47663191483509515,0.6962066577027664,Southern Metropolitan,0.34930376823071324
Balwyn,5/14 Parring Rd,0.3333333333333332,u,0.3294289897510978,S,Noel,3/12/2016,0.44117647058823517,0.49268292682926895,0.3333333333333333,0.0,0.3333333333333333,0.09878542510121179,0.392712550607287,0.7452229299363055,Boroondara,0.4868098918933772,0.7173939616183217,Southern Metropolitan,0.34930376823071324
Balwyn,142 Balwyn Rd,0.3333333333333332,h,0.838945827232796,VB,Fletchers,6/08/2016,0.44117647058823517,0.49268292682926895,0.6666666666666667,0.0,0.3333333333333333,0.8218623481781385,0.6720647773279345,0.4458598726114633,Boroondara,0.5005639149451133,0.699058794768358,Southern Metropolitan,0.34930376823071324
Balwyn,4/3 King St,0.6666666666666667,h,0.27769643728648113,VB,Marshall,7/05/2016,0.44117647058823517,0.49268292682926895,0.6666666666666667,0.0,0.3333333333333333,0.15222672064777112,0.44534412955465486,0.7006369426751567,Boroondara,0.5030396390944358,0.6632033573727067,Southern Metropolitan,0.34930376823071324
Balwyn,3/18 Weir St,0.3333333333333332,h,0.1800878477305998,S,Marshall,7/05/2016,0.44117647058823517,0.49268292682926895,0.3333333333333333,0.0,0.3333333333333333,0.0,0.2914979757085009,0.6369426751592344,Boroondara,0.4763568343740484,0.7021146559099902,Southern Metropolitan,0.34930376823071324
Balwyn,13 Naroo St,1.0,h,0.814543679843826,PI,Jellis,8/10/2016,0.44117647058823517,0.49268292682926895,0.6666666666666667,0.4999999999999998,0.6666666666666667,0.46720647773279167,0.8097165991902827,0.5605095541401254,Boroondara,0.512117294308587,0.671963492645522,Southern Metropolitan,0.34930376823071324
Balwyn,101/201 Whitehorse Rd,0.3333333333333332,u,0.24597364568081953,S,Fletchers,8/10/2016,0.44117647058823517,0.49268292682926895,0.3333333333333333,0.0,0.3333333333333333,0.0,0.28340080971659815,0.9808917197452212,Boroondara,0.4890105355816532,0.6782789390049409,Southern Metropolitan,0.34930376823071324
Balwyn,1/252 Union Rd,0.3333333333333332,u,0.1927769643728647,S,hockingstuart,10/09/2016,0.44117647058823517,0.49268292682926895,0.3333333333333333,0.0,0.3333333333333333,0.0,0.295546558704453,0.6369426751592344,Boroondara,0.4813082826726801,0.733080715478905,Southern Metropolitan,0.34930376823071324
Balwyn,1/18 Belmore Rd,0.6666666666666667,h,0.37774524158125883,S,Kay,10/12/2016,0.44117647058823517,0.49268292682926895,0.6666666666666667,0.0,0.6666666666666667,0.22753036437246726,0.6072874493927118,0.8598726114649656,Boroondara,0.5173438230682514,0.6636108055249587,Southern Metropolitan,0.34930376823071324
Balwyn,11/22 Brenbeal St,0.3333333333333332,t,0.30697901415324536,S,Christopher,10/12/2016,0.44117647058823517,0.49268292682926895,0.3333333333333333,0.0,0.3333333333333333,0.0979757085020223,0.4048582995951407,0.6369426751592344,Boroondara,0.4901108574257982,0.7102636189544563,Southern Metropolitan,0.34930376823071324
Balwyn,3/3 Iramoo St,0.6666666666666667,t,0.6032210834553439,S,Jellis,10/12/2016,0.44117647058823517,0.49268292682926895,0.6666666666666667,0.4999999999999998,0.6666666666666667,0.17732793522267187,0.6639676113360317,0.9108280254777043,Boroondara,0.48653481143234434,0.7037444485188835,Southern Metropolitan,0.34930376823071324
Balwyn,2/8 Evelina St,1.0,t,0.6193265007320642,PI,Noel,12/11/2016,0.44117647058823517,0.49268292682926895,1.0,1.0,0.6666666666666667,0.19514170040485834,0.9716599190283395,0.9490445859872612,Boroondara,0.5093664896982315,0.7430631952083616,Southern Metropolitan,0.34930376823071324
Balwyn,6/10 Brenbeal St,0.3333333333333332,u,0.24109321620302562,PI,Jellis,13/08/2016,0.44117647058823517,0.49268292682926895,0.3333333333333333,0.0,0.3333333333333333,0.0931174089068825,0.42105263157894646,0.6369426751592344,Boroondara,0.4873600528154566,0.7098561708022048,Southern Metropolitan,0.34930376823071324
Balwyn,6/29 Weir St,0.3333333333333332,u,0.1605661298194237,VB,Jellis,16/04/2016,0.44117647058823517,0.49268292682926895,0.3333333333333333,0.0,0.3333333333333333,0.0,0.3198380566801615,0.573248407643312,Boroondara,0.4791076389844039,0.7017072077577954,Southern Metropolitan,0.34930376823071324
Balwyn,3/94 Balwyn Rd,0.3333333333333332,u,0.4499755978526108,S,Fletchers,16/07/2016,0.44117647058823517,0.49268292682926895,0.3333333333333333,0.0,0.6666666666666667,0.18704453441295446,0.39676113360323795,0.7961783439490442,Boroondara,0.48708497235441006,0.6980401743877572,Southern Metropolitan,0.34930376823071324
Balwyn,1/32 Yerrin St,0.6666666666666667,t,0.6544655929721811,S,Noel,16/07/2016,0.44117647058823517,0.49268292682926895,0.6666666666666667,0.4999999999999998,0.6666666666666667,0.24777327935222507,0.6882591093117402,0.8598726114649656,Boroondara,0.491761340191995,0.7035407244427859,Southern Metropolitan,0.34930376823071324
Balwyn,5/95 Balwyn Rd,0.3333333333333332,u,0.304050756466569,PI,Marshall,18/03/2017,0.44117647058823517,0.49268292682926895,0.3333333333333333,0.0,0.3333333333333333,0.07044534412955321,0.3562753036437236,0.8280254777070054,Boroondara,0.4840590872830218,0.6957992095506287,Southern Metropolitan,0.34930376823071324
Balwyn,2/30 Kalimna St,0.3333333333333332,u,0.30453879941434814,PI,Noel,19/11/2016,0.44117647058823517,0.49268292682926895,0.3333333333333333,0.0,0.3333333333333333,0.17246963562752904,0.3724696356275294,0.7643312101910811,Boroondara,0.4956124666464955,0.691521003952241,Southern Metropolitan,0.34930376823071324
Balwyn,4/35 Weir St,0.3333333333333332,u,0.25329428989751085,S,Jellis,24/09/2016,0.44117647058823517,0.49268292682926895,0.3333333333333333,0.0,0.3333333333333333,0.0,0.6072874493927118,0.6369426751592344,Boroondara,0.480483041289568,0.7019109318338926,Southern Metropolitan,0.34930376823071324
Balwyn,165 Balwyn Rd,1.0,h,0.8633479746217664,S,Mandy,27/11/2016,0.44117647058823517,0.49268292682926895,1.0,0.4999999999999998,0.3333333333333333,0.5384615384615374,0.6275303643724695,0.5095541401273868,Boroondara,0.5052402827826983,0.6988550706922607,Southern Metropolitan,0.34930376823071324
Balwyn,47 Naroo St,0.6666666666666667,h,0.7901415324548557,VB,Jellis,27/11/2016,0.44117647058823517,0.49268292682926895,0.6666666666666667,0.4999999999999998,1.0,0.49635627530364274,0.7813765182186234,0.5286624203821652,Boroondara,0.5055153632437448,0.6709448722649782,Southern Metropolitan,0.34930376823071324
Balwyn,3/12 Brenbeal St,0.3333333333333332,u,0.29233772571986305,S,hockingstuart,28/08/2016,0.44117647058823517,0.49268292682926895,0.3333333333333333,0.0,0.3333333333333333,0.10526315789473667,0.3238866396761123,0.6369426751592344,Boroondara,0.4879102137375221,0.7092449985739123,Southern Metropolitan,0.34930376823071324
Balwyn,321a Union Rd,0.6666666666666667,h,0.6681307955100045,SP,Noel,28/08/2016,0.44117647058823517,0.49268292682926895,0.6666666666666667,0.4999999999999998,0.6666666666666667,0.3271255060728746,0.7692307692307685,0.961783439490443,Boroondara,0.5002888344840942,0.7367477488489431,Southern Metropolitan,0.34930376823071324
Balwyn,33 Power St,1.0,h,0.7657393850658855,VB,Marshall,30/07/2016,0.44117647058823517,0.49268292682926895,0.6666666666666667,0.0,0.3333333333333333,0.5441295546558698,0.46558704453441263,0.47770700636942653,Boroondara,0.49368690341925214,0.6921321761805332,Southern Metropolitan,0.34930376823071324
Balwyn North,3/41 Clifton St,0.6666666666666667,t,0.5778428501708149,S,hockingstuart,3/09/2016,0.4166666666666667,0.49756097560975643,0.6666666666666667,0.4999999999999998,0.6666666666666667,0.21052631578947334,0.6761133603238865,0.8917197452229287,Boroondara,0.530272604736889,0.7387849896100313,Southern Metropolitan,0.48967201214281
Balwyn North,153 Doncaster Rd,0.6666666666666667,h,0.6681307955100045,PI,Jellis,3/09/2016,0.4166666666666667,0.49756097560975643,0.6666666666666667,0.4999999999999998,0.3333333333333333,0.629959514170041,0.6234817813765174,0.573248407643312,Boroondara,0.5376997771848155,0.691521003952241,Southern Metropolitan,0.48967201214281
Balwyn North,25 Bolinda Rd,1.0,h,0.8657881893606635,S,Noel,3/12/2016,0.4166666666666667,0.49756097560975643,1.0,0.4999999999999998,0.6666666666666667,0.5238866396761118,0.748987854251012,0.6050955414012722,Boroondara,0.5437515473275919,0.7076152059650193,Southern Metropolitan,0.48967201214281
Balwyn North,30 Hood St,1.0,h,0.8633479746217664,VB,Fletchers,3/12/2016,0.4166666666666667,0.49756097560975643,1.0,0.4999999999999998,0.6666666666666667,0.5198380566801615,0.8704453441295547,0.6050955414012722,Boroondara,0.5242208345941123,0.6786863871571924,Southern Metropolitan,0.48967201214281
Balwyn North,43 Sweyn St,0.6666666666666667,h,0.5534407027818445,S,hockingstuart,3/12/2016,0.4166666666666667,0.49756097560975643,0.6666666666666667,0.4999999999999998,0.3333333333333333,0.28097165991902656,0.6477732793522258,0.961783439490443,Boroondara,0.5354991334965394,0.7416371266755659,Southern Metropolitan,0.48967201214281
Balwyn North,14 Kawarren St,1.0,h,0.7901415324548557,S,Kay,4/03/2017,0.4166666666666667,0.49756097560975643,1.0,0.4999999999999998,0.6666666666666667,0.5449392712550593,0.748987854251012,0.6369426751592344,Boroondara,0.5605314554507025,0.7178014097705735,Southern Metropolitan,0.48967201214281
Balwyn North,88 Longview Rd,0.6666666666666667,h,0.6437286481210341,VB,Jellis,4/03/2017,0.4166666666666667,0.49756097560975643,0.6666666666666667,0.0,0.6666666666666667,0.5384615384615374,0.5020242914979748,0.573248407643312,Boroondara,0.5588809726845055,0.6898912113433479,Southern Metropolitan,0.48967201214281
Balwyn North,6 Stuart Ct,1.0,h,0.8267447535383112,S,Fletchers,4/03/2017,0.4166666666666667,0.49756097560975643,1.0,0.4999999999999998,1.0,0.5959514170040471,0.9109311740890689,0.6242038216560507,Boroondara,0.5363243748796378,0.740211058142827,Southern Metropolitan,0.48967201214281
Balwyn North,15 Ellendale St,0.6666666666666667,t,0.4973157637872129,S,Christopher,6/08/2016,0.4166666666666667,0.49756097560975643,0.6666666666666667,0.4999999999999998,0.3333333333333333,0.16761133603238615,0.5829959514170032,0.9108280254777043,Boroondara,0.5503534783924341,0.7182088579228252,Southern Metropolitan,0.48967201214281
Balwyn North,39 Kawarren St,1.0,h,0.6138604197169347,S,Jellis,10/09/2016,0.4166666666666667,0.49756097560975643,0.6666666666666667,0.4999999999999998,0.3333333333333333,0.41862348178137526,1.0,0.7006369426751567,Boroondara,0.5676835474376101,0.7194312023794668,Southern Metropolitan,0.48967201214281
Balwyn North,1 Bolinda Rd,0.6666666666666667,h,0.7657393850658855,VB,Fletchers,13/08/2016,0.4166666666666667,0.49756097560975643,0.6666666666666667,0.4999999999999998,1.0,0.617813765182187,0.6801619433198374,0.6369426751592344,Boroondara,0.5388000990289604,0.7070040337366701,Southern Metropolitan,0.48967201214281
Balwyn North,56a Clifton St,0.6666666666666667,h,0.5363591996095656,S,Noel,14/05/2016,0.4166666666666667,0.49756097560975643,0.6666666666666667,1.0,0.3333333333333333,0.251012145748986,0.7611336032388657,0.9681528662420358,Boroondara,0.5349489725744737,0.7373589210772923,Southern Metropolitan,0.48967201214281
Balwyn North,28 Walnut Rd,1.0,h,0.8877501220107366,S,Fletchers,14/05/2016,0.4166666666666667,0.49756097560975643,0.6666666666666667,1.0,0.6666666666666667,0.5384615384615374,0.9392712550607282,0.7006369426751567,Boroondara,0.5514538002365653,0.7149492727049819,Southern Metropolitan,0.48967201214281
Balwyn North,54 Sutton St,0.6666666666666667,h,0.8233284529038553,S,Fletchers,15/10/2016,0.4166666666666667,0.49756097560975643,0.6666666666666667,0.0,0.3333333333333333,0.5846153846153854,0.36437246963562653,0.4458598726114633,Boroondara,0.5330234093472305,0.6996699669966504,Southern Metropolitan,0.48967201214281
Balwyn North,12 Clifton St,1.0,h,0.7755002440214734,PI,Marshall,18/03/2017,0.4166666666666667,0.49756097560975643,1.0,1.0,0.6666666666666667,0.7036437246963552,0.6882591093117402,0.573248407643312,Boroondara,0.5203697081396395,0.7343030599355463,Southern Metropolitan,0.48967201214281
Balwyn North,9 Seattle St,1.0,h,0.7535383113714003,S,Fletchers,18/03/2017,0.4166666666666667,0.49756097560975643,1.0,0.4999999999999998,0.6666666666666667,0.5400809716599194,0.8137651821862347,0.7261146496815281,Boroondara,0.56630814513246,0.7106710671067082,Southern Metropolitan,0.48967201214281
Balwyn North,16 Sylvan St,1.0,t,0.7559785261102974,S,Noel,18/03/2017,0.4166666666666667,0.49756097560975643,1.0,1.0,0.3333333333333333,0.29311740890688076,0.8097165991902827,0.9808917197452212,Boroondara,0.524495915055159,0.6913172798760868,Southern Metropolitan,0.48967201214281
Balwyn North,28 Severn St,0.6666666666666667,h,0.9609565641776472,VB,Jellis,19/11/2016,0.4166666666666667,0.49756097560975643,0.6666666666666667,0.4999999999999998,1.0,0.7684210526315791,0.7085020242914978,0.5095541401273868,Boroondara,0.5319230875030856,0.6725746648738715,Southern Metropolitan,0.48967201214281
Balwyn North,3/1 Corhampton Rd,0.3333333333333332,h,0.27037579306978987,SP,Jellis,22/05/2016,0.4166666666666667,0.49756097560975643,0.3333333333333333,0.0,0.3333333333333333,0.14331983805667786,0.3441295546558701,0.7324840764331199,Boroondara,0.5388000990289604,0.6691113555799874,Southern Metropolitan,0.48967201214281
Balwyn North,85a Woodville St,0.6666666666666667,h,0.5876037091264029,S,Fletchers,22/05/2016,0.4166666666666667,0.49756097560975643,0.6666666666666667,0.4999999999999998,0.6666666666666667,0.29797570850202354,0.7165991902834007,0.9490445859872612,Boroondara,0.5632822600610716,0.7212647190644574,Southern Metropolitan,0.48967201214281
Balwyn North,3/48 Alpha St,0.3333333333333332,u,0.4436310395314785,S,Fletchers,24/09/2016,0.4166666666666667,0.49756097560975643,0.3333333333333333,0.0,0.3333333333333333,0.20242914979756949,0.45344129554655765,0.8598726114649656,Boroondara,0.5220201909058362,0.726154096891137,Southern Metropolitan,0.48967201214281
Balwyn North,19 Hedderwick St,1.0,h,0.5461200585651531,VB,Marshall,25/02/2017,0.4166666666666667,0.49756097560975643,1.0,0.4999999999999998,0.6666666666666667,0.5214574898785433,0.6194331983805665,0.573248407643312,Boroondara,0.5217451104447896,0.733080715478905,Southern Metropolitan,0.48967201214281
Balwyn North,43 Helston St,1.0,h,0.6827720839433867,PI,hockingstuart,27/06/2016,0.4166666666666667,0.49756097560975643,1.0,0.4999999999999998,0.6666666666666667,0.5676113360323886,0.8016194331983798,0.6369426751592344,Boroondara,0.5652078232883012,0.7251354765105931,Southern Metropolitan,0.48967201214281
Balwyn North,11 Milfay Ct,0.6666666666666667,h,0.7418252806246949,S,Nelson,27/11/2016,0.4166666666666667,0.49756097560975643,0.6666666666666667,0.0,0.6666666666666667,0.5319838056680157,0.6113360323886637,0.6369426751592344,Boroondara,0.5498033174703686,0.7314509228700117,Southern Metropolitan,0.48967201214281
Balwyn North,15 Ellendale St,0.6666666666666667,h,0.44265495363591956,S,Christopher,28/05/2016,0.4166666666666667,0.49756097560975643,0.6666666666666667,0.4999999999999998,0.3333333333333333,0.16761133603238615,0.5829959514170032,0.9108280254777043,Boroondara,0.5503534783924341,0.7182088579228252,Southern Metropolitan,0.48967201214281
Balwyn North,24 Willis St,0.6666666666666667,h,0.7999023914104438,PI,Fletchers,28/08/2016,0.4166666666666667,0.49756097560975643,0.6666666666666667,0.4999999999999998,0.3333333333333333,0.5829959514170034,0.595141700404858,0.6050955414012722,Boroondara,0.5379748576458621,0.7015034836816411,Southern Metropolitan,0.48967201214281
Balwyn North,2/3 Hatfield St,0.3333333333333332,u,0.2735480722303561,S,Fletchers,30/07/2016,0.4166666666666667,0.49756097560975643,0.6666666666666667,0.0,0.3333333333333333,0.0,0.41295546558704355,0.687898089171974,Boroondara,0.5379748576458621,0.6664629425904933,Southern Metropolitan,0.48967201214281
Bentleigh,1/236 Patterson Rd,0.6666666666666667,u,0.36310395314787697,S,hockingstuart,3/09/2016,0.6029411764705883,0.985365853658538,0.6666666666666667,0.0,0.6666666666666667,0.2817813765182191,0.4898785425101212,0.573248407643312,Glen Eira,0.1707424421643315,0.6283665403577133,Southern Metropolitan,0.4227545700521347
Bentleigh,11 Rogers Rd,0.6666666666666667,h,0.6315275744265493,S,Buxton,3/12/2016,0.6029411764705883,0.985365853658538,0.6666666666666667,0.4999999999999998,0.6666666666666667,0.49635627530364274,0.5789473684210524,0.6369426751592344,Glen Eira,0.1602893846450028,0.6179766124760047,Southern Metropolitan,0.4227545700521347
Bentleigh,11A Mortimore St,0.6666666666666667,h,0.5326988775012197,S,Ray,4/02/2016,0.6029411764705883,0.985365853658538,0.6666666666666667,0.4999999999999998,0.6666666666666667,0.24210526315789277,0.7327935222672064,0.8917197452229287,Glen Eira,0.1710175226253782,0.6134946828015768,Southern Metropolitan,0.4227545700521347
Bentleigh,13 Somers St,0.6666666666666667,h,0.5790629575402633,S,Buxton,4/06/2016,0.6029411764705883,0.985365853658538,0.6666666666666667,0.0,0.3333333333333333,0.4663967611336022,0.5141700404858297,0.5414012738853508,Glen Eira,0.20485241933264547,0.5825286232326621,Southern Metropolitan,0.4227545700521347
Bentleigh,8/11 Brentwood St,0.3333333333333332,u,0.11176183504148343,PI,Buxton,6/08/2016,0.6029411764705883,0.985365853658538,0.3333333333333333,0.0,0.3333333333333333,0.0,0.2793522267206473,0.6687898089171965,Glen Eira,0.15451269496328685,0.6224585421504326,Southern Metropolitan,0.4227545700521347
Bentleigh,12b Coates St,1.0,t,0.6364080039043432,S,hockingstuart,6/08/2016,0.6029411764705883,0.985365853658538,0.6666666666666667,1.0,0.6666666666666667,0.235627530364371,0.8582995951416997,0.9681528662420358,Glen Eira,0.16936703985916757,0.5994377215499438,Southern Metropolitan,0.4227545700521347
Bentleigh,156 Patterson Rd,0.6666666666666667,h,0.47779404587603685,S,Buxton,6/08/2016,0.6029411764705883,0.985365853658538,0.6666666666666667,0.0,0.6666666666666667,0.5603238866396772,0.6639676113360317,0.5095541401273868,Glen Eira,0.17349324677468697,0.6122723383448784,Southern Metropolitan,0.4227545700521347
Bentleigh,23 Yawla St,0.6666666666666667,h,0.6681307955100045,PI,hockingstuart,7/05/2016,0.6029411764705883,0.985365853658538,0.6666666666666667,0.4999999999999998,0.3333333333333333,0.45748987854250894,0.898785425101214,0.5095541401273868,Glen Eira,0.20897862624816493,0.5843621399176526,Southern Metropolitan,0.4227545700521347
Bentleigh,39 Luckins Rd,1.0,h,0.5705222059541235,PI,Buxton,7/11/2016,0.6029411764705883,0.985365853658538,1.0,0.4999999999999998,0.6666666666666667,0.5643724696356276,0.7854251012145741,0.5095541401273868,Glen Eira,0.1583638214177594,0.6273479199771692,Southern Metropolitan,0.4227545700521347
Bentleigh,592 Centre Rd,0.6666666666666667,h,0.48511469009272773,S,hockingstuart,8/10/2016,0.6029411764705883,0.985365853658538,0.6666666666666667,0.0,0.6666666666666667,0.47287449392712405,0.4696356275303635,0.5605095541401254,Glen Eira,0.1910983962809234,0.6279590922054616,Southern Metropolitan,0.4227545700521347
Bentleigh,74 Fromer St,1.0,h,0.5841874084919468,S,hockingstuart,10/09/2016,0.6029411764705883,0.985365853658538,0.6666666666666667,0.4999999999999998,0.6666666666666667,0.49392712550607143,0.45344129554655765,0.5095541401273868,Glen Eira,0.1657909938657139,0.6269404718249176,Southern Metropolitan,0.4227545700521347
Bentleigh,4 Gordon St,0.6666666666666667,h,0.5900439238653001,S,hockingstuart,10/09/2016,0.6029411764705883,0.985365853658538,0.6666666666666667,0.4999999999999998,0.3333333333333333,0.42591093117408946,0.5465587044534411,0.3184713375796177,Glen Eira,0.16909195939812086,0.593937171494915,Southern Metropolitan,0.4227545700521347
Bentleigh,58 London St,1.0,t,0.4997559785261101,S,Buxton,10/09/2016,0.6029411764705883,0.985365853658538,1.0,1.0,0.6666666666666667,0.2194331983805665,0.8299595141700404,0.9554140127388528,Glen Eira,0.17651913184607523,0.6314224014993455,Southern Metropolitan,0.4227545700521347
Bentleigh,1/30 Daley St,0.3333333333333332,h,0.3533430941922888,SP,Marshall,10/12/2016,0.6029411764705883,0.985365853658538,0.3333333333333333,0.0,0.3333333333333333,0.23967611336032432,0.41700404858299556,0.5095541401273868,Glen Eira,0.17899485599537024,0.6073829605182556,Southern Metropolitan,0.4227545700521347
Bentleigh,13/27 Patterson Rd,0.3333333333333332,u,0.25329428989751085,SP,hockingstuart,10/12/2016,0.6029411764705883,0.985365853658538,0.3333333333333333,0.0,0.3333333333333333,0.09392712550607199,0.3724696356275294,0.6369426751592344,Glen Eira,0.17844469507330457,0.5992339974737892,Southern Metropolitan,0.4227545700521347
Bentleigh,11 Wheatley Rd,1.0,h,0.8438262567105903,PI,McGrath,12/11/2016,0.6029411764705883,0.985365853658538,1.0,0.4999999999999998,1.0,0.6923076923076936,0.797570850202429,0.4458598726114633,Glen Eira,0.2010012928781727,0.5967893085604496,Southern Metropolitan,0.4227545700521347
Bentleigh,2/15 Jasper Rd,0.3333333333333332,u,0.2898975109809659,S,hockingstuart,13/08/2016,0.6029411764705883,0.985365853658538,0.3333333333333333,0.0,0.3333333333333333,0.18380566801619364,0.4048582995951407,0.8280254777070054,Glen Eira,0.15616317772948343,0.609623925355498,Southern Metropolitan,0.4227545700521347
Bentleigh,6 Atkinson St,0.6666666666666667,h,0.5671059053196679,S,Buxton,15/10/2016,0.6029411764705883,0.985365853658538,0.6666666666666667,0.0,0.3333333333333333,0.5117408906882579,0.43724696356275206,0.573248407643312,Glen Eira,0.16826671801503634,0.605549443833208,Southern Metropolitan,0.4227545700521347
Bentleigh,33 Luckins Rd,0.6666666666666667,h,0.5841874084919468,S,Woodards,15/10/2016,0.6029411764705883,0.985365853658538,0.6666666666666667,0.4999999999999998,0.6666666666666667,0.5587044534412954,0.9919028340080973,0.7006369426751567,Glen Eira,0.1586389018788061,0.6263292995965684,Southern Metropolitan,0.4227545700521347
Bentleigh,4 Daley St,0.6666666666666667,h,0.6046852122986819,S,hockingstuart,16/07/2016,0.6029411764705883,0.985365853658538,0.6666666666666667,0.0,0.6666666666666667,0.5052631578947361,0.5789473684210524,0.573248407643312,Glen Eira,0.17541881000191642,0.6069755123660039,Southern Metropolitan,0.4227545700521347
Bentleigh,64 Tucker Rd,0.6666666666666667,h,0.47047340165934587,S,Buxton,17/09/2016,0.6029411764705883,0.985365853658538,0.6666666666666667,0.4999999999999998,0.3333333333333333,0.47044534412955563,0.6882591093117402,0.6687898089171965,Glen Eira,0.16716639617087756,0.6316261255754998,Southern Metropolitan,0.4227545700521347
Bentleigh,3/18 Bleazby St,0.3333333333333332,u,0.2898975109809659,S,hockingstuart,18/03/2017,0.6029411764705883,0.985365853658538,0.3333333333333333,0.0,0.3333333333333333,0.5481781376518231,0.3562753036437236,0.9681528662420358,Glen Eira,0.198250488267831,0.6039196512243147,Southern Metropolitan,0.4227545700521347
Bentleigh,2/1 Corbie St,0.6666666666666667,t,0.33870180575890657,S,Buxton,18/03/2017,0.6029411764705883,0.985365853658538,0.6666666666666667,0.4999999999999998,0.6666666666666667,0.11902834008096973,0.6032388663967609,0.9363057324840746,Glen Eira,0.1586389018788061,0.6024935826915759,Southern Metropolitan,0.4227545700521347
Bentleigh,77B Fromer St,0.6666666666666667,t,0.5387994143484623,S,Buxton,18/03/2017,0.6029411764705883,0.985365853658538,0.6666666666666667,0.4999999999999998,0.6666666666666667,0.0,0.6477732793522258,0.9681528662420358,Glen Eira,0.16634115478777933,0.628162816281559,Southern Metropolitan,0.4227545700521347
Bentleigh,5 Luckins Rd,0.6666666666666667,h,0.504636408003904,PI,Buxton,18/06/2016,0.6029411764705883,0.985365853658538,0.6666666666666667,0.0,0.6666666666666667,0.5619433198380561,0.5060728744939268,0.573248407643312,Glen Eira,0.15918906280087156,0.6214399217698886,Southern Metropolitan,0.4227545700521347
Bentleigh,1/7 Uonga Rd,0.3333333333333332,u,0.33626159102000946,S,hockingstuart,19/11/2016,0.6029411764705883,0.985365853658538,0.3333333333333333,0.0,1.0,0.2720647773279333,0.4412955465587041,0.6369426751592344,Glen Eira,0.1660660743267327,0.6071792364421013,Southern Metropolitan,0.4227545700521347
Bentleigh,81 Fromer St,1.0,h,0.6339677891654465,S,hockingstuart,22/08/2016,0.6029411764705883,0.985365853658538,1.0,0.4999999999999998,0.6666666666666667,0.49473684210526375,0.6801619433198374,0.7006369426751567,Glen Eira,0.16634115478777933,0.6287739885099082,Southern Metropolitan,0.4227545700521347
Bentleigh,13 Horsley St,0.3333333333333332,h,0.38018545632015593,S,Buxton,22/08/2016,0.6029411764705883,0.985365853658538,0.3333333333333333,0.0,0.6666666666666667,0.22186234817813794,0.388663967611335,0.7006369426751567,Glen Eira,0.19687508596263945,0.6149207513343727,Southern Metropolitan,0.4227545700521347
Bentleigh,1a Werona St,0.3333333333333332,t,0.26305514885309894,PI,Buxton,26/07/2016,0.6029411764705883,0.985365853658538,0.3333333333333333,0.4999999999999998,0.3333333333333333,0.09959514170040427,0.36437246963562653,0.9363057324840746,Glen Eira,0.16138970648914774,0.6079941327466047,Southern Metropolitan,0.4227545700521347
Bentleigh,40 Coates St,0.3333333333333332,t,0.2679355783308927,PI,Bayside,27/11/2016,0.6029411764705883,0.985365853658538,0.3333333333333333,0.0,0.3333333333333333,0.06720647773279237,0.43319838056680127,0.878980891719744,Glen Eira,0.17459356861883205,0.6002526178543335,Southern Metropolitan,0.4227545700521347
