suburb,address,rooms,type,price,method,sellerg,date,distance,postcode,bedrooms,bathrooms,car,landsize,buildingarea,build_year,councilarea,latitude,longitude,regionname,propertycount
Abbotsford,25 Bloomburg St,0.19999999999999993,h,0.4017777777777775,S,Biggin,4/02/2016,0.11467889908256865,0.32367149758454056,0.3333333333333333,0.0,0.0,0.11782477341389712,0.2752613240418114,0.297619047619047,Yarra,0.4943366951125056,0.5059372011476007,Northern Metropolitan,0.21219383877944697
Abbotsford,5 Charles St,0.4,h,0.5928888888888888,SP,Biggin,4/03/2017,0.11467889908256865,0.32367149758454056,0.6666666666666667,0.4999999999999998,0.0,0.10120845921450114,0.5226480836236926,0.297619047619047,Yarra,0.49071631755883455,0.5079295505260191,Northern Metropolitan,0.21219383877944697
Abbotsford,55a Park St,0.6,h,0.6528888888888889,VB,Nelson,4/06/2016,0.11467889908256865,0.32367149758454056,0.6666666666666667,0.0,0.6666666666666667,0.0906344410876123,0.4947735191637622,0.9761904761904749,Yarra,0.49614688388932154,0.507331845712488,Northern Metropolitan,0.21219383877944697
Abbotsford,124 Yarra St,0.4,h,0.7755555555555556,S,Nelson,7/05/2016,0.11467889908256865,0.32367149758454056,1.0,0.4999999999999998,0.0,0.18504531722054363,0.73170731707317,0.3571428571428572,Yarra,0.5085596069304497,0.5176920624800627,Northern Metropolitan,0.21219383877944697
Abbotsford,98 Charles St,0.19999999999999993,h,0.668888888888889,S,Nelson,8/10/2016,0.11467889908256865,0.32367149758454056,0.3333333333333333,0.0,0.6666666666666667,0.1933534743202416,0.3728222996515676,0.2380952380952377,Yarra,0.4992500646496166,0.509921899904326,Northern Metropolitan,0.21219383877944697
Abbotsford,10 Valiant St,0.19999999999999993,h,0.42933333333333307,S,Biggin,8/10/2016,0.11467889908256865,0.32367149758454056,0.6666666666666667,0.0,0.6666666666666667,0.16616314199395682,0.2613240418118463,0.297619047619047,Yarra,0.5121799844840946,0.5168951227287064,Northern Metropolitan,0.21219383877944697
Abbotsford,40 Nicholson St,0.4,h,0.5417777777777777,VB,Nelson,12/11/2016,0.11467889908256865,0.32367149758454056,0.6666666666666667,0.4999999999999998,0.6666666666666667,0.16163141993957508,0.6620209059233442,0.922619047619047,Yarra,0.49278510473235154,0.5119142492827444,Northern Metropolitan,0.21219383877944697
Abbotsford,123/56 Nicholson St,0.19999999999999993,u,0.2751111111111109,S,Biggin,12/11/2016,0.11467889908256865,0.32367149758454056,0.3333333333333333,0.4999999999999998,0.33333333333333337,0.0,0.32752613240418027,0.9464285714285716,Yarra,0.49459529350919357,0.5121134842205695,Northern Metropolitan,0.21219383877944697
Abbotsford,16 William St,0.19999999999999993,h,0.5239999999999999,S,Jellis,15/10/2016,0.11467889908256865,0.32367149758454056,0.3333333333333333,0.0,0.6666666666666667,0.1797583081570992,0.33797909407665466,0.2380952380952377,Yarra,0.4914921127489115,0.5143050685368129,Northern Metropolitan,0.21219383877944697
Abbotsford,42 Henry St,0.4,h,0.47511111111111104,S,Jellis,16/07/2016,0.11467889908256865,0.32367149758454056,0.6666666666666667,0.4999999999999998,0.33333333333333337,0.08534743202416788,0.38327526132404094,0.1785714285714275,Yarra,0.5002844582363686,0.5051402613962446,Northern Metropolitan,0.21219383877944697
Abbotsford,78 Yarra St,0.4,h,0.46466666666666656,S,LITTLE,16/07/2016,0.11467889908256865,0.32367149758454056,0.3333333333333333,0.0,0.33333333333333337,0.1042296072507547,0.365853658536585,0.2380952380952377,Yarra,0.5093354021205136,0.5121134842205695,Northern Metropolitan,0.21219383877944697
Abbotsford,42 Valiant St,0.19999999999999993,h,0.3373333333333332,S,Biggin,17/09/2016,0.11467889908256865,0.32367149758454056,0.3333333333333333,0.0,0.33333333333333337,0.11329305135951537,0.2543554006968637,0.8035714285714284,Yarra,0.5119213860874197,0.5198836467963062,Northern Metropolitan,0.21219383877944697
Abbotsford,3/72 Charles St,0.6,h,0.5328888888888887,PI,Kay,18/03/2017,0.11467889908256865,0.32367149758454056,1.0,0.4999999999999998,0.6666666666666667,0.5891238670694856,0.4703832752613238,0.297619047619047,Yarra,0.4958882854926466,0.5095234300287315,Northern Metropolitan,0.21219383877944697
Abbotsford,6/219 Nicholson St,0.19999999999999993,u,0.16399999999999965,S,Collins,18/06/2016,0.11467889908256865,0.32367149758454056,0.3333333333333333,0.0,0.33333333333333337,0.0,0.20905923344947636,0.7142857142857122,Yarra,0.5108869925006676,0.5135081287854568,Northern Metropolitan,0.21219383877944697
Abbotsford,52a William St,0.19999999999999993,h,0.4306666666666664,PI,Biggin,18/06/2016,0.11467889908256865,0.32367149758454056,0.3333333333333333,0.4999999999999998,0.33333333333333337,0.09365558912386585,0.4703832752613238,0.9702380952380945,Yarra,0.4943366951125056,0.5145043034746937,Northern Metropolitan,0.21219383877944697
Abbotsford,49 Park St,0.19999999999999993,h,0.5262222222222223,S,Marshall,19/11/2016,0.11467889908256865,0.32367149758454056,0.3333333333333333,0.0,0.0,0.11102719033232451,0.2961672473867592,0.297619047619047,Yarra,0.49407809671580455,0.5071326107746073,Northern Metropolitan,0.21219383877944697
Abbotsford,48 Abbotsford St,0.4,h,0.5851111111111109,PI,Nelson,22/08/2016,0.11467889908256865,0.32367149758454056,0.6666666666666667,1.0,0.33333333333333337,0.1253776435045296,0.6062717770034836,0.9642857142857122,Yarra,0.5103697957072786,0.5192859419827751,Northern Metropolitan,0.21219383877944697
Abbotsford,159 Park St,0.19999999999999993,h,0.4462222222222222,S,Nelson,22/08/2016,0.11467889908256865,0.32367149758454056,0.3333333333333333,0.4999999999999998,0.6666666666666667,0.07401812688821634,0.44599303135888413,0.4166666666666674,Yarra,0.5134729764675607,0.5095234300287315,Northern Metropolitan,0.21219383877944697
Abbotsford,60 Stafford St,0.4,h,0.5151111111111111,S,Biggin,25/02/2017,0.11467889908256865,0.32367149758454056,0.6666666666666667,0.0,0.33333333333333337,0.12688821752265778,0.432055749128919,0.5952380952380953,Yarra,0.5129557796741717,0.510718839655738,Northern Metropolitan,0.21219383877944697
Abbotsford,11/205 Gipps St,0.0,u,0.15066666666666656,S,Nelson,26/07/2016,0.11467889908256865,0.32367149758454056,0.0,0.0,0.33333333333333337,0.0,0.17421602787456347,0.9702380952380945,Yarra,0.5005430566330566,0.5113165444692689,Northern Metropolitan,0.21219383877944697
Abbotsford,47 Studley St,0.19999999999999993,h,0.46622222222222215,S,Jellis,27/11/2016,0.11467889908256865,0.32367149758454056,0.3333333333333333,0.0,0.0,0.12235649546827604,0.31707317073170693,0.297619047619047,Yarra,0.5106283941039667,0.5103203697800318,Northern Metropolitan,0.21219383877944697
Abbotsford,45 Yarra St,0.4,h,0.47288888888888875,SP,Jellis,27/11/2016,0.11467889908256865,0.32367149758454056,0.6666666666666667,0.4999999999999998,0.33333333333333337,0.0906344410876123,0.44599303135888413,0.88095238095238,Yarra,0.5090768037238256,0.509921899904326,Northern Metropolitan,0.21219383877944697
Abbotsford,200 Nicholson St,0.19999999999999993,h,0.3917777777777777,S,Nelson,28/05/2016,0.11467889908256865,0.32367149758454056,0.3333333333333333,0.0,0.0,0.13746223564954663,0.28571428571428475,0.297619047619047,Yarra,0.5093354021205136,0.5143050685368129,Northern Metropolitan,0.21219383877944697
Abbotsford,27 Charles St,0.19999999999999993,h,0.3995555555555556,S,Biggin,30/07/2016,0.11467889908256865,0.32367149758454056,0.3333333333333333,0.0,0.33333333333333337,0.12990936555891133,0.282229965156794,0.47619047619047494,Yarra,0.4925265063356766,0.5083280204016136,Northern Metropolitan,0.21219383877944697
Airport West,154 Halsey Rd,0.4,t,0.31511111111111095,PI,Nelson,3/09/2016,0.6192660550458714,0.20289855072463706,0.6666666666666667,0.4999999999999998,0.33333333333333337,0.2288519637462216,0.78397212543554,0.9880952380952377,Moonee Valley,0.7268166537367471,0.27602008288170427,Western Metropolitan,0.17975097913134963
Airport West,50 Bedford St,0.4,h,0.266222222222222,VB,Nelson,3/12/2016,0.6192660550458714,0.20289855072463706,0.6666666666666667,0.4999999999999998,0.33333333333333337,0.0,0.5052264808362367,0.6845238095238089,Moonee Valley,0.7208688906128842,0.27103920943574195,Western Metropolitan,0.17975097913134963
Airport West,50 Bedford St,0.4,h,0.28399999999999975,SP,Nelson,4/03/2017,0.6192660550458714,0.20289855072463706,0.6666666666666667,0.4999999999999998,0.33333333333333337,0.0,0.5052264808362367,0.6845238095238089,Moonee Valley,0.7208688906128842,0.27103920943574195,Western Metropolitan,0.17975097913134963
Airport West,23 Hart St,0.19999999999999993,h,0.20977777777777762,S,Nelson,4/03/2017,0.6192660550458714,0.20289855072463706,0.3333333333333333,0.0,0.33333333333333337,0.20543806646525586,0.29268292682926733,0.5952380952380953,Moonee Valley,0.697336436514107,0.29594357666560883,Western Metropolitan,0.17975097913134963
Airport West,1/80 Hawker St,0.4,t,0.25288888888888894,S,Brad,4/03/2017,0.6192660550458714,0.20289855072463706,0.6666666666666667,0.4999999999999998,0.6666666666666667,0.18051359516616192,0.4668989547038319,0.9464285714285716,Moonee Valley,0.7169899146625383,0.2873764743385158,Western Metropolitan,0.17975097913134963
Airport West,1/37 Hillside Gr,0.4,h,0.2084444444444443,S,Maddison,4/03/2017,0.6192660550458714,0.20289855072463706,0.3333333333333333,0.0,0.33333333333333337,0.21903323262839824,0.4041811846689887,0.7738095238095224,Moonee Valley,0.702767002844594,0.2688476251195541,Western Metropolitan,0.17975097913134963
Airport West,2/49 McIntosh St,0.19999999999999993,u,0.16399999999999965,VB,Barry,4/03/2017,0.6192660550458714,0.20289855072463706,0.3333333333333333,0.0,0.33333333333333337,0.12688821752265778,0.29965156794424996,0.9583333333333308,Moonee Valley,0.7177657098526151,0.29275581766018394,Western Metropolitan,0.17975097913134963
Airport West,2/252 Parer Rd,0.19999999999999993,t,0.1417777777777777,S,Barry,7/05/2016,0.6192660550458714,0.20289855072463706,0.3333333333333333,0.0,0.33333333333333337,0.08308157099697701,0.3135888501742151,0.9821428571428554,Moonee Valley,0.7175071114559142,0.26207363723299887,Western Metropolitan,0.17975097913134963
Airport West,3/19 Hart St,0.19999999999999993,u,0.17066666666666658,S,Barry,7/11/2016,0.6192660550458714,0.20289855072463706,0.3333333333333333,0.0,0.33333333333333337,0.10649546827794557,0.2543554006968637,0.9702380952380945,Moonee Valley,0.6963020429273552,0.29654128147908404,Western Metropolitan,0.17975097913134963
Airport West,2/62 Clydesdale Rd,0.19999999999999993,u,0.17733333333333315,S,Nelson,10/09/2016,0.6192660550458714,0.20289855072463706,0.3333333333333333,0.0,0.33333333333333337,0.0906344410876123,0.32752613240418027,0.9642857142857122,Moonee Valley,0.7128523403155043,0.27841090213577263,Western Metropolitan,0.17975097913134963
Airport West,13 Etzel St,0.4,h,0.2995555555555555,S,Nelson,10/12/2016,0.6192660550458714,0.20289855072463706,0.6666666666666667,0.0,0.33333333333333337,0.0,0.365853658536585,0.5952380952380953,Moonee Valley,0.7172485130592392,0.2766177876952352,Western Metropolitan,0.17975097913134963
Airport West,1/43 Cameron St,0.4,u,0.2759999999999999,S,Nelson,11/02/2017,0.6192660550458714,0.20289855072463706,0.6666666666666667,0.0,0.33333333333333337,0.20015105740181144,0.4529616724738668,0.8511904761904758,Moonee Valley,0.6952676493405772,0.2909627032196466,Western Metropolitan,0.17975097913134963
Airport West,2/40 Earl St,0.4,t,0.25288888888888894,PI,Brad,15/10/2016,0.6192660550458714,0.20289855072463706,0.6666666666666667,0.4999999999999998,0.6666666666666667,0.12462235649546691,0.46341463414634115,0.9464285714285716,Moonee Valley,0.7035427980346711,0.2939512272871903,Western Metropolitan,0.17975097913134963
Airport West,180 Parer Rd,0.4,h,0.3106666666666667,S,Barry,16/04/2016,0.6192660550458714,0.20289855072463706,0.6666666666666667,0.0,0.6666666666666667,0.7333836858006048,0.39372822299651533,0.6547619047619038,Moonee Valley,0.7252650633566062,0.2720353841249232,Western Metropolitan,0.17975097913134963
Airport West,174 Parer Rd,0.19999999999999993,h,0.2417777777777774,S,Barry,16/07/2016,0.6192660550458714,0.20289855072463706,0.3333333333333333,0.0,0.33333333333333337,0.4622356495468278,0.34843205574912806,0.7440476190476182,Moonee Valley,0.7250064649599313,0.2730315588141046,Western Metropolitan,0.17975097913134963
Airport West,478 Fullarton Rd,0.4,h,0.30177777777777787,PI,Barry,18/03/2017,0.6192660550458714,0.20289855072463706,0.6666666666666667,1.0,0.6666666666666667,0.41918429003021246,0.6689895470383268,0.7738095238095224,Moonee Valley,0.6996638220843252,0.2588858782276298,Western Metropolitan,0.17975097913134963
Airport West,144 Marshall Rd,0.4,h,0.25955555555555554,S,Rendina,18/03/2017,0.6192660550458714,0.20289855072463706,0.6666666666666667,0.4999999999999998,0.6666666666666667,0.31873111782477404,0.43902439024390155,0.8630952380952359,Moonee Valley,0.7309542280837942,0.27841090213577263,Western Metropolitan,0.17975097913134963
Airport West,3/7 South Rd,0.4,t,0.18177777777777776,SP,Nelson,18/06/2016,0.6192660550458714,0.20289855072463706,0.3333333333333333,0.4999999999999998,0.33333333333333337,0.12160120845921336,0.3519163763066198,0.9523809523809521,Moonee Valley,0.7136281355055683,0.28040325151419093,Western Metropolitan,0.17975097913134963
Airport West,37 North St,0.4,t,0.30844444444444435,SP,Barry,19/11/2016,0.6192660550458714,0.20289855072463706,0.6666666666666667,0.4999999999999998,0.33333333333333337,0.2212990936555891,0.35540069686411063,0.6547619047619038,Moonee Valley,0.7216446858029613,0.27522314313034807,Western Metropolitan,0.17975097913134963
Airport West,10 Hilbert Rd,0.4,h,0.246222222222222,S,Barry,22/05/2016,0.6192660550458714,0.20289855072463706,0.6666666666666667,0.0,0.33333333333333337,0.43731117824773386,0.39372822299651533,0.7440476190476182,Moonee Valley,0.7149211274890213,0.2666560408033109,Western Metropolitan,0.17975097913134963
Airport West,85 Roberts Rd,0.6,h,0.34177777777777746,S,Harcourts,27/11/2016,0.6192660550458714,0.20289855072463706,1.0,0.4999999999999998,1.0,0.47432024169184195,0.5087108013937274,0.7440476190476182,Moonee Valley,0.7071631755883161,0.2678514504303173,Western Metropolitan,0.17975097913134963
Albert Park,105 Kerferd Rd,0.19999999999999993,h,0.5084444444444441,S,hockingstuart,3/09/2016,0.1513761467889907,0.9951690821256042,0.3333333333333333,0.0,0.0,0.0906344410876123,0.28571428571428475,0.297619047619047,Port Phillip,0.3960693043703242,0.43042715970670004,Southern Metropolitan,0.16899514818495348
Albert Park,94 Graham St,0.4,h,0.7639999999999997,S,Greg,4/03/2017,0.1513761467889907,0.9951690821256042,0.6666666666666667,0.4999999999999998,0.0,0.09667673716011942,0.46341463414634115,0.2380952380952377,Port Phillip,0.39787949314715326,0.4170784188715256,Southern Metropolitan,0.16899514818495348
Albert Park,396 Montague St,0.19999999999999993,h,0.5800000000000001,S,RT,4/03/2017,0.1513761467889907,0.9951690821256042,0.3333333333333333,0.0,0.0,0.0981873111782476,0.282229965156794,0.297619047619047,Port Phillip,0.40331005947764026,0.4324195090851182,Southern Metropolitan,0.16899514818495348
Albert Park,104 Richardson St,0.6,h,0.9639999999999999,S,Marshall,7/05/2016,0.1513761467889907,0.9951690821256042,1.0,0.4999999999999998,0.33333333333333337,0.11555891238670624,0.6271777003484313,0.1785714285714275,Port Phillip,0.3991724851305933,0.4240516416959062,Southern Metropolitan,0.16899514818495348
Albert Park,1 Moubray St,0.4,h,0.7417777777777778,VB,Greg,7/11/2016,0.1513761467889907,0.9951690821256042,0.6666666666666667,0.4999999999999998,0.33333333333333337,0.09969788519637297,0.5540069686411148,0.8690476190476173,Port Phillip,0.40744763382467436,0.42345393688237515,Southern Metropolitan,0.16899514818495348
Albert Park,29 Faussett St,0.19999999999999993,h,0.8839999999999998,S,Greg,10/09/2016,0.1513761467889907,0.9951690821256042,0.3333333333333333,0.0,0.33333333333333337,0.15030211480362354,0.3728222996515676,0.297619047619047,Port Phillip,0.4056374450478582,0.4302279247688748,Southern Metropolitan,0.16899514818495348
Albert Park,24 Kerferd Pl,0.4,h,0.7417777777777778,S,Marshall,10/09/2016,0.1513761467889907,0.9951690821256042,0.6666666666666667,0.4999999999999998,0.33333333333333337,0.06797583081570922,0.4250871080139364,0.297619047619047,Port Phillip,0.4058960434445333,0.4336149187121246,Southern Metropolitan,0.16899514818495348
Albert Park,4a Gatehouse La,0.4,h,0.5506666666666664,S,Greg,12/06/2016,0.1513761467889907,0.9951690821256042,0.6666666666666667,0.4999999999999998,0.6666666666666667,0.0,0.2961672473867592,0.8928571428571419,Port Phillip,0.39813809154384133,0.421660822441782,Southern Metropolitan,0.16899514818495348
Albert Park,65 Graham St,0.19999999999999993,h,0.5295555555555556,S,Greg,15/10/2016,0.1513761467889907,0.9951690821256042,0.3333333333333333,0.0,0.0,0.1125377643504527,0.3414634146341455,0.2380952380952377,Port Phillip,0.4002068787173713,0.4156837743066942,Southern Metropolitan,0.16899514818495348
Albert Park,364 Montague St,0.19999999999999993,h,0.6362222222222221,S,Greg,15/10/2016,0.1513761467889907,0.9951690821256042,0.3333333333333333,0.0,0.0,0.10649546827794557,0.2891986062717766,0.2380952380952377,Port Phillip,0.4051202482544692,0.4318218042715873,Southern Metropolitan,0.16899514818495348
Albert Park,86 Mills St,0.4,h,0.8306666666666668,VB,RT,16/04/2016,0.1513761467889907,0.9951690821256042,0.6666666666666667,0.4999999999999998,0.33333333333333337,0.15936555891238702,0.5121951219512192,0.297619047619047,Port Phillip,0.39322472200673025,0.4344118584635365,Southern Metropolitan,0.16899514818495348
Albert Park,55 Merton St,0.4,h,0.875111111111111,SP,Marshall,23/04/2016,0.1513761467889907,0.9951690821256042,0.3333333333333333,0.0,0.33333333333333337,0.0906344410876123,0.42857142857142827,0.297619047619047,Port Phillip,0.4043444530643922,0.4286340452661624,Southern Metropolitan,0.16899514818495348
Albert Park,49 Page St,0.4,h,0.8306666666666668,PI,Marshall,24/09/2016,0.1513761467889907,0.9951690821256042,0.6666666666666667,0.0,0.33333333333333337,0.1797583081570992,0.4564459930313586,0.2380952380952377,Port Phillip,0.3955521075769482,0.42504781638508754,Southern Metropolitan,0.16899514818495348
Albert Park,13/52 Moubray St,0.0,u,0.13844444444444445,S,Marshall,25/02/2017,0.1513761467889907,0.9951690821256042,0.0,0.0,0.0,0.0,0.11846689895470282,0.7142857142857122,Port Phillip,0.4058960434445333,0.422856232068844,Southern Metropolitan,0.16899514818495348
Albert Park,27 Barrett St,0.6,h,0.8928888888888891,S,Greg,27/06/2016,0.1513761467889907,0.9951690821256042,0.6666666666666667,0.4999999999999998,0.33333333333333337,0.13821752265860932,0.5052264808362367,0.1785714285714275,Port Phillip,0.40253426428756317,0.41847306343641294,Southern Metropolitan,0.16899514818495348
Albert Park,6 Brooke St,0.19999999999999993,h,0.3773333333333333,S,Greg,28/05/2016,0.1513761467889907,0.9951690821256042,0.3333333333333333,0.0,0.0,0.05966767371601124,0.2369337979094067,0.2380952380952377,Port Phillip,0.4146883889319903,0.42325470194449427,Southern Metropolitan,0.16899514818495348
Albert Park,17 Reed St,0.4,h,0.7151111111111113,PI,Marshall,28/08/2016,0.1513761467889907,0.9951690821256042,0.6666666666666667,0.4999999999999998,0.6666666666666667,0.11102719033232451,0.4668989547038319,0.2380952380952377,Port Phillip,0.3989138867339183,0.4101051960472008,Southern Metropolitan,0.16899514818495348
Albert Park,9 Durham St,0.0,h,0.3795555555555556,S,Marshall,30/07/2016,0.1513761467889907,0.9951690821256042,0.0,0.0,0.0,0.061178247734136625,0.18815331010452865,0.297619047619047,Port Phillip,0.4084820274114393,0.4188715333120632,Southern Metropolitan,0.16899514818495348
Alphington,44 Shiers St,0.6,h,0.705111111111111,S,Collins,8/10/2016,0.2935779816513761,0.37681159420289856,1.0,0.4999999999999998,0.33333333333333337,0.4524169184290016,0.7073170731707316,0.44642857142857073,Darebin,0.5879493147142507,0.5808495377749707,Northern Metropolitan,0.10650610861051026
Alphington,3/19 Harker St,0.19999999999999993,u,0.17533333333333315,S,Miles,12/11/2016,0.2935779816513761,0.37681159420289856,0.3333333333333333,0.0,0.33333333333333337,0.06646525679758104,0.20905923344947636,0.6547619047619038,Darebin,0.5688130333592087,0.5800525980235587,Northern Metropolitan,0.10650610861051026
Alphington,4/2 Miller St,0.19999999999999993,t,0.2995555555555555,S,Miles,12/11/2016,0.2935779816513761,0.37681159420289856,0.3333333333333333,0.4999999999999998,1.0,0.11706948640483163,0.48780487804877964,0.9166666666666647,Darebin,0.5654512542022387,0.5804510678992647,Northern Metropolitan,0.10650610861051026
Alphington,10 Bennett St,0.6,h,0.7551111111111112,S,Nelson,19/11/2016,0.2935779816513761,0.37681159420289856,1.0,0.4999999999999998,0.6666666666666667,0.45770392749244604,0.39024390243902346,0.7142857142857122,Darebin,0.5812257564003238,0.5820449474019771,Northern Metropolitan,0.10650610861051026
Alphington,38 Bennett St,0.6,h,0.875111111111111,S,Nelson,19/11/2016,0.2935779816513761,0.37681159420289856,1.0,0.4999999999999998,0.6666666666666667,0.43429003021148027,0.9442508710801394,0.9404761904761902,Darebin,0.5863977243341099,0.5826426522155079,Northern Metropolitan,0.10650610861051026
Alphington,2c Hamilton St,0.4,h,0.3262222222222221,SP,hockingstuart,22/05/2016,0.2935779816513761,0.37681159420289856,0.6666666666666667,0.0,0.33333333333333337,0.13595166163141845,0.4564459930313586,0.9523809523809521,Darebin,0.5659684509956149,0.5675007969397963,Northern Metropolitan,0.10650610861051026
Alphington,5/5 Yarana Rd,0.19999999999999993,u,0.11511111111111076,VB,Nelson,22/05/2016,0.2935779816513761,0.37681159420289856,0.3333333333333333,0.0,0.33333333333333337,0.0,0.20905923344947636,0.6547619047619038,Darebin,0.5734678044996318,0.5816464775262711,Northern Metropolitan,0.10650610861051026
Alphington,1/14 Fulham Rd,0.19999999999999993,u,0.16933333333333328,S,Love,25/02/2017,0.2935779816513761,0.37681159420289856,0.3333333333333333,0.0,0.33333333333333337,0.0,0.2125435540069682,0.6845238095238089,Darebin,0.5651926558055378,0.5712862607586406,Northern Metropolitan,0.10650610861051026
Alphington,11 Margaret Gr,0.6,h,0.786222222222222,SP,McGrath,27/11/2016,0.2935779816513761,0.37681159420289856,1.0,0.4999999999999998,0.6666666666666667,0.4199395770392752,0.9477351916376301,0.47619047619047494,Yarra,0.5551073183346407,0.5639145680586657,Northern Metropolitan,0.10650610861051026
Alphington,42 Shiers St,0.6,h,0.8084444444444443,S,Jellis,30/07/2016,0.2935779816513761,0.37681159420289856,1.0,0.4999999999999998,1.0,0.4448640483383691,0.73170731707317,0.4166666666666674,Darebin,0.5874321179208748,0.5806503028370897,Northern Metropolitan,0.10650610861051026
Altona,158 Queen St,0.4,h,0.1728888888888889,VB,Greg,3/09/2016,0.6330275229357798,0.08695652173912935,0.6666666666666667,0.4999999999999998,0.33333333333333337,0.2658610271903326,0.8432055749128914,0.9821428571428554,Hobsons Bay,0.33374709076804804,0.17042556582714913,Western Metropolitan,0.2871339217864032
Altona,1/123 Blyth St,0.19999999999999993,t,0.2617777777777778,S,hockingstuart,4/02/2016,0.6330275229357798,0.08695652173912935,0.3333333333333333,0.0,0.6666666666666667,0.22054380664652362,0.43554006968641085,0.9702380952380945,Hobsons Bay,0.33710886992501815,0.1598661141217494,Western Metropolitan,0.2871339217864032
Altona,4 Blyth St,0.4,h,0.43955555555555564,S,Barlow,4/03/2017,0.6330275229357798,0.08695652173912935,0.6666666666666667,0.0,0.6666666666666667,0.38217522658610154,0.4181184668989539,0.47619047619047494,Hobsons Bay,0.3355572795448641,0.19532993305707164,Western Metropolitan,0.2871339217864032
Altona,1/170 Blyth St,0.4,u,0.22177777777777777,S,Barlow,6/08/2016,0.6330275229357798,0.08695652173912935,0.3333333333333333,0.0,0.6666666666666667,0.23489425981873152,0.32752613240418027,0.6249999999999987,Hobsons Bay,0.333229893974672,0.14910742747846878,Western Metropolitan,0.2871339217864032
Altona,156 Maidstone St,0.4,h,0.23511111111111088,VB,Greg,7/05/2016,0.6330275229357798,0.08695652173912935,0.6666666666666667,0.0,0.33333333333333337,0.4546827794561924,0.42857142857142827,0.6249999999999987,Hobsons Bay,0.35546935608999614,0.14372808415680055,Western Metropolitan,0.2871339217864032
Altona,1/136 Queen St,0.19999999999999993,u,0.19955555555555543,S,Barlow,8/10/2016,0.6330275229357798,0.08695652173912935,0.3333333333333333,0.0,0.33333333333333337,0.16993957703927307,0.3240418118466895,0.8214285714285698,Hobsons Bay,0.3347814843548131,0.17441026458398584,Western Metropolitan,0.2871339217864032
Altona,3/26 Grieve Pde,0.19999999999999993,u,0.16844444444444429,S,Village,10/09/2016,0.6330275229357798,0.08695652173912935,0.3333333333333333,0.0,0.33333333333333337,0.09592145015105671,0.264808362369337,0.8333333333333326,Hobsons Bay,0.3373674683217061,0.15687759005414975,Western Metropolitan,0.2871339217864032
Altona,4/5 Rose St,0.19999999999999993,u,0.13066666666666657,S,hockingstuart,10/09/2016,0.6330275229357798,0.08695652173912935,0.3333333333333333,0.0,0.6666666666666667,0.08685800604229606,0.19860627177700307,0.7738095238095224,Hobsons Bay,0.33116110680114214,0.15747529486768092,Western Metropolitan,0.2871339217864032
Altona,4/31 Millers Rd,0.19999999999999993,u,0.11555555555555547,SP,Greg,11/02/2017,0.6330275229357798,0.08695652173912935,0.3333333333333333,0.0,0.33333333333333337,0.0,0.2264808362369334,0.6845238095238089,Hobsons Bay,0.3394362554952231,0.19712304749760917,Western Metropolitan,0.2871339217864032
Altona,24 Wren St,0.6,h,0.31733333333333325,S,hockingstuart,11/02/2017,0.6330275229357798,0.08695652173912935,1.0,0.0,0.6666666666666667,0.5626888217522662,0.4529616724738668,0.5952380952380953,Hobsons Bay,0.34460822342902214,0.15149824673248163,Western Metropolitan,0.2871339217864032
Altona,4/57 Blyth St,0.4,u,0.266222222222222,SP,Barlow,13/08/2016,0.6330275229357798,0.08695652173912935,0.6666666666666667,0.4999999999999998,0.33333333333333337,0.052114803625375954,0.4912891986062715,0.9761904761904749,Hobsons Bay,0.3389190587018341,0.17759802358935478,Western Metropolitan,0.2871339217864032
Altona,3/46 Sargood St,0.19999999999999993,u,0.1404444444444444,S,Burnham,15/10/2016,0.6330275229357798,0.08695652173912935,0.3333333333333333,0.0,0.33333333333333337,0.10347432024169201,0.2682926829268289,0.8333333333333326,Hobsons Bay,0.3453840186190991,0.18018807778130425,Western Metropolitan,0.2871339217864032
Altona,22 Fenfield St,0.4,h,0.2431111111111111,S,hockingstuart,16/04/2016,0.6330275229357798,0.08695652173912935,0.6666666666666667,0.0,0.6666666666666667,0.45770392749244604,0.3031358885017418,0.5952380952380953,Hobsons Bay,0.35753814326352623,0.14532196365951294,Western Metropolitan,0.2871339217864032
Altona,5/8 David St,0.19999999999999993,u,0.19955555555555543,PI,Biggin,16/07/2016,0.6330275229357798,0.08695652173912935,0.3333333333333333,0.4999999999999998,0.33333333333333337,0.1321752265861022,0.264808362369337,0.9702380952380945,Hobsons Bay,0.33710886992501815,0.17401179470827993,Western Metropolitan,0.2871339217864032
Altona,27 McIntyre Dr,0.4,h,0.31511111111111095,SP,Greg,18/03/2017,0.6330275229357798,0.08695652173912935,0.6666666666666667,0.4999999999999998,0.6666666666666667,0.4033232628398792,0.4738675958188145,0.6845238095238089,Hobsons Bay,0.3596069304370431,0.16942939113802352,Western Metropolitan,0.2871339217864032
Altona,3/20 Mulga St,0.4,u,0.19822222222222213,S,Williams,23/04/2016,0.6330275229357798,0.08695652173912935,0.6666666666666667,0.4999999999999998,0.33333333333333337,0.15483383685800528,0.39372822299651533,0.934523809523808,Hobsons Bay,0.33788466511508214,0.1505020720433004,Western Metropolitan,0.2871339217864032
Altona,104 Maidstone St,0.19999999999999993,h,0.3226666666666665,SP,hockingstuart,27/11/2016,0.6330275229357798,0.08695652173912935,0.3333333333333333,0.4999999999999998,0.33333333333333337,0.5098187311178247,0.34843205574912806,0.5952380952380953,Hobsons Bay,0.34590121541247515,0.14631813834875002,Western Metropolitan,0.2871339217864032
Altona,5/57 Blyth St,0.4,u,0.266222222222222,SP,Barlow,28/05/2016,0.6330275229357798,0.08695652173912935,0.6666666666666667,0.4999999999999998,0.33333333333333337,0.05287009063443864,0.010452961672473332,0.9761904761904749,Hobsons Bay,0.3389190587018341,0.17739878865152975,Western Metropolitan,0.2871339217864032
Altona,2/60 David St,0.19999999999999993,h,0.17982222222222194,SP,Compton,30/07/2016,0.6330275229357798,0.08695652173912935,0.3333333333333333,0.0,0.33333333333333337,0.11631419939576894,0.31707317073170693,0.8690476190476173,Hobsons Bay,0.3477114041892912,0.17480873445963613,Western Metropolitan,0.2871339217864032
Altona North,4 Knapp St,0.4,h,0.28888888888888864,S,Jas,3/09/2016,0.5091743119266054,0.12077294685990306,0.6666666666666667,0.0,0.6666666666666667,0.4025679758308165,0.4076655052264805,0.7142857142857122,Hobsons Bay,0.4395138350142463,0.19034905961110954,Western Metropolitan,0.27725492488455017
Altona North,3/66 Marion St,0.19999999999999993,t,0.12888888888888855,S,hockingstuart,4/03/2017,0.5091743119266054,0.12077294685990306,0.3333333333333333,0.0,0.33333333333333337,0.05815709969788306,0.2682926829268289,0.9464285714285716,Hobsons Bay,0.4239979312128493,0.2260121134842012,Western Metropolitan,0.27725492488455017
Altona North,33 Carthy St,0.4,h,0.24533333333333301,S,FN,4/06/2016,0.5091743119266054,0.12077294685990306,0.6666666666666667,0.0,0.6666666666666667,0.4033232628398792,0.5818815331010451,0.6964285714285707,Hobsons Bay,0.44132402379106234,0.19134523430023515,Western Metropolitan,0.27725492488455017
Altona North,1/5 Little St,0.4,h,0.2617777777777778,VB,Greg,6/08/2016,0.5091743119266054,0.12077294685990306,0.6666666666666667,0.4999999999999998,0.33333333333333337,0.0,0.4529616724738668,0.9642857142857122,Hobsons Bay,0.4167571761055204,0.23677080012753743,Western Metropolitan,0.27725492488455017
Altona North,1/95 Mills St,0.4,h,0.20311111111111108,S,Williams,7/05/2016,0.5091743119266054,0.12077294685990306,0.6666666666666667,0.0,0.33333333333333337,0.24773413897280844,0.4111498257839713,0.7142857142857122,Hobsons Bay,0.4164985777088193,0.23119222186798843,Western Metropolitan,0.27725492488455017
Altona North,5 Binns St,0.4,h,0.2573333333333332,PI,Village,7/11/2016,0.5091743119266054,0.12077294685990306,0.6666666666666667,0.0,1.0,0.40785498489425814,0.4041811846689887,0.6547619047619038,Hobsons Bay,0.4387380398241563,0.19592763787054707,Western Metropolitan,0.27725492488455017
Altona North,2/36 May St,0.4,h,0.2417777777777774,S,hockingstuart,14/05/2016,0.5091743119266054,0.12077294685990306,0.6666666666666667,0.4999999999999998,0.6666666666666667,0.12915407854984864,0.3797909407665502,0.9642857142857122,Hobsons Bay,0.42761830876649437,0.2309929869301634,Western Metropolitan,0.27725492488455017
Altona North,11 Beevers St,0.4,h,0.2564444444444442,S,Greg,15/10/2016,0.5091743119266054,0.12077294685990306,0.6666666666666667,0.0,0.6666666666666667,0.4418429003021155,0.33797909407665466,0.6547619047619038,Hobsons Bay,0.44804758210500234,0.22481670385719482,Western Metropolitan,0.27725492488455017
Altona North,2 Gadsden St,0.4,h,0.2655555555555554,S,Jas,22/08/2016,0.5091743119266054,0.12077294685990306,0.6666666666666667,0.0,0.33333333333333337,0.40105740181268834,0.5470383275261321,0.6547619047619038,Hobsons Bay,0.4431342125678915,0.19732228243543432,Western Metropolitan,0.27725492488455017
Altona North,24 Hansen St,0.4,h,0.3555555555555553,S,hockingstuart,22/08/2016,0.5091743119266054,0.12077294685990306,0.6666666666666667,0.4999999999999998,0.33333333333333337,0.4456193353474318,0.5574912891986055,0.5952380952380953,Hobsons Bay,0.4159813809154434,0.2499203060248309,Western Metropolitan,0.27725492488455017
Altona North,6 Hill St,0.4,h,0.30399999999999977,S,hockingstuart,25/02/2017,0.5091743119266054,0.12077294685990306,0.6666666666666667,0.4999999999999998,1.0,0.41918429003021246,0.4529616724738668,0.6547619047619038,Hobsons Bay,0.43253167830360534,0.19791998724890975,Western Metropolitan,0.27725492488455017
Altona North,4/221 Blackshaws Rd,0.19999999999999993,u,0.07155555555555551,S,Jas,28/08/2016,0.5091743119266054,0.12077294685990306,0.3333333333333333,0.0,0.33333333333333337,0.11555891238670624,0.2439024390243893,0.7142857142857122,Hobsons Bay,0.42891130074994727,0.2499203060248309,Western Metropolitan,0.27725492488455017
Armadale,8/19 Mercer Rd,0.19999999999999993,u,0.208,S,Jellis,3/09/2016,0.2889908256880732,0.6908212560386484,0.3333333333333333,0.0,0.33333333333333337,0.0,0.264808362369337,0.6785714285714266,Stonnington,0.37434703904836325,0.5712862607586406,Southern Metropolitan,0.25995206640556495
Armadale,14/71 Denbigh Rd,0.4,u,0.38399999999999984,S,Marshall,3/12/2016,0.2889908256880732,0.6908212560386484,0.6666666666666667,0.4999999999999998,0.6666666666666667,0.0,0.34843205574912806,0.88095238095238,Stonnington,0.3720196534781452,0.5509642970991415,Southern Metropolitan,0.25995206640556495
Armadale,4/769 High St,0.4,t,0.4773333333333334,S,Jellis,3/12/2016,0.2889908256880732,0.6908212560386484,0.6666666666666667,0.4999999999999998,0.6666666666666667,0.0762839879154072,0.365853658536585,0.8928571428571419,Stonnington,0.37512283423844023,0.5459834236531793,Southern Metropolitan,0.25995206640556495
Armadale,7 Llaneast St,0.4,h,0.8035555555555555,S,Jellis,3/12/2016,0.2889908256880732,0.6908212560386484,0.6666666666666667,0.4999999999999998,0.6666666666666667,0.22356495468277998,0.5226480836236926,0.23214285714285632,Stonnington,0.35598655288337216,0.5736770800127651,Southern Metropolitan,0.25995206640556495
Armadale,28 Cambridge St,0.4,h,0.772888888888889,S,Hodges,4/03/2017,0.2889908256880732,0.6908212560386484,0.6666666666666667,0.0,0.33333333333333337,0.16389728096676592,0.4041811846689887,0.22619047619047494,Stonnington,0.3616757176105601,0.5553474657316284,Southern Metropolitan,0.25995206640556495
Armadale,3/20 Mercer Rd,0.4,t,0.7942222222222223,SP,Jellis,4/03/2017,0.2889908256880732,0.6908212560386484,0.6666666666666667,0.4999999999999998,0.6666666666666667,0.0,0.5749128919860624,0.8630952380952359,Stonnington,0.3758986294284911,0.5722824354478777,Southern Metropolitan,0.25995206640556495
Armadale,12 Willis St,0.4,h,0.8528888888888886,S,Marshall,4/03/2017,0.2889908256880732,0.6908212560386484,0.6666666666666667,0.4999999999999998,0.33333333333333337,0.15483383685800528,0.4041811846689887,0.3571428571428572,Stonnington,0.36633048875098323,0.5750717245775965,Southern Metropolitan,0.25995206640556495
Armadale,10 William St,0.0,h,0.5795555555555553,SP,Jellis,8/10/2016,0.2889908256880732,0.6908212560386484,0.3333333333333333,0.4999999999999998,0.33333333333333337,0.10876132930513364,0.3728222996515676,0.297619047619047,Stonnington,0.36891647271787614,0.564512272872141,Southern Metropolitan,0.25995206640556495
Armadale,15/405 Dandenong Rd,0.0,u,0.06622222222222189,PI,hockingstuart,10/09/2016,0.2889908256880732,0.6908212560386484,0.0,0.0,0.33333333333333337,0.0,0.13240418118466799,0.7440476190476182,Stonnington,0.35469356089993215,0.5559451705451037,Southern Metropolitan,0.25995206640556495
Armadale,8/58 Sutherland Rd,0.19999999999999993,u,0.20511111111111105,S,hockingstuart,10/12/2016,0.2889908256880732,0.6908212560386484,0.3333333333333333,0.0,0.33333333333333337,0.0,0.2543554006968637,0.7142857142857122,Stonnington,0.36633048875098323,0.553753586228916,Southern Metropolitan,0.25995206640556495
Armadale,40 New St,0.19999999999999993,h,0.4795555555555556,S,Marshall,12/11/2016,0.2889908256880732,0.6908212560386484,0.3333333333333333,0.0,0.0,0.18806646525679718,0.33449477351916285,0.3571428571428572,Stonnington,0.37434703904836325,0.5509642970991415,Southern Metropolitan,0.25995206640556495
Armadale,791 High St,0.4,h,0.7417777777777778,PI,RT,15/10/2016,0.2889908256880732,0.6908212560386484,0.6666666666666667,0.4999999999999998,0.6666666666666667,0.3058912386706943,0.4216027874564457,0.3571428571428572,Stonnington,0.3738298422549872,0.547975773031542,Southern Metropolitan,0.25995206640556495
Armadale,25 Llaneast St,0.6,h,0.9195555555555557,PI,Jellis,15/10/2016,0.2889908256880732,0.6908212560386484,1.0,0.0,0.6666666666666667,0.3738670694864035,0.5679442508710799,0.297619047619047,Stonnington,0.3562451512800732,0.5716847306343467,Southern Metropolitan,0.25995206640556495
Armadale,10/581 Orrong Rd,0.0,u,0.13733333333333309,SP,Jellis,18/03/2017,0.2889908256880732,0.6908212560386484,0.0,0.0,0.33333333333333337,0.0,0.1846689895470379,0.7142857142857122,Stonnington,0.3774502198086452,0.5419987248963984,Southern Metropolitan,0.25995206640556495
Armadale,14 New St,0.4,h,0.5195555555555552,VB,Jellis,18/06/2016,0.2889908256880732,0.6908212560386484,0.3333333333333333,0.0,0.6666666666666667,0.16012084592144968,0.3693379790940758,0.297619047619047,Stonnington,0.3746056374450642,0.5487727127829538,Southern Metropolitan,0.25995206640556495
Armadale,6/51 Armadale St,0.19999999999999993,u,0.25466666666666654,SP,Greg,19/11/2016,0.2889908256880732,0.6908212560386484,0.3333333333333333,0.0,0.33333333333333337,0.0,0.25783972125435445,0.7083333333333335,Stonnington,0.3665890871476581,0.5561444054829288,Southern Metropolitan,0.25995206640556495
Armadale,12/41 Kooyong Rd,0.19999999999999993,u,0.21733333333333316,VB,Marshall,19/11/2016,0.2889908256880732,0.6908212560386484,0.6666666666666667,0.0,0.33333333333333337,0.0,0.3414634146341455,0.7142857142857122,Stonnington,0.36064132402379506,0.5585352247369975,Southern Metropolitan,0.25995206640556495
Armadale,63 Denbigh Rd,0.4,h,0.786222222222222,S,Marshall,22/05/2016,0.2889908256880732,0.6908212560386484,0.6666666666666667,0.0,0.6666666666666667,0.24773413897280844,0.37630662020905836,0.297619047619047,Stonnington,0.37020946470132915,0.5505658272234915,Southern Metropolitan,0.25995206640556495
Armadale,1/14 Denbigh Rd,0.19999999999999993,u,0.2075555555555553,S,hockingstuart,25/02/2017,0.2889908256880732,0.6908212560386484,0.3333333333333333,0.0,0.33333333333333337,0.0,0.30662020905923254,0.7142857142857122,Stonnington,0.36141711921387215,0.5501673573477854,Southern Metropolitan,0.25995206640556495
Armadale,75 Sutherland Rd,0.4,h,0.5128888888888888,S,Marshall,25/02/2017,0.2889908256880732,0.6908212560386484,0.6666666666666667,0.0,0.6666666666666667,0.14048338368580018,0.2787456445993022,0.4166666666666674,Stonnington,0.3715024566847693,0.5535543512910353,Southern Metropolitan,0.25995206640556495
Armadale,1/403 Dandenong Rd,0.19999999999999993,u,0.1728888888888889,S,hockingstuart,27/06/2016,0.2889908256880732,0.6908212560386484,0.0,0.0,0.33333333333333337,0.0,0.264808362369337,0.7142857142857122,Stonnington,0.3549521592966202,0.5555467006694537,Southern Metropolitan,0.25995206640556495
Armadale,3/769 High St,0.4,t,0.43111111111111106,S,Jellis,27/11/2016,0.2889908256880732,0.6908212560386484,0.6666666666666667,0.0,0.6666666666666667,0.07779456193353258,0.010452961672473332,0.8928571428571419,Stonnington,0.3746056374450642,0.5459834236531793,Southern Metropolitan,0.25995206640556495
Armadale,1/31 Mercer Rd,0.4,u,0.32800000000000007,S,Jellis,28/05/2016,0.2889908256880732,0.6908212560386484,0.3333333333333333,0.0,0.33333333333333337,0.0,0.31707317073170693,0.5357142857142843,Stonnington,0.37770881820533314,0.5716847306343467,Southern Metropolitan,0.25995206640556495
Armadale,5/555 Orrong Rd,0.0,u,0.19377777777777752,S,hockingstuart,28/08/2016,0.2889908256880732,0.6908212560386484,0.0,0.0,0.33333333333333337,0.0,0.1846689895470379,0.9702380952380945,Stonnington,0.3727954486682223,0.5416002550207482,Southern Metropolitan,0.25995206640556495
Ascot Vale,30 Rothwell St,0.4,h,0.3595555555555556,S,Nelson,3/12/2016,0.27064220183486226,0.15458937198067677,0.6666666666666667,0.0,0.6666666666666667,0.2250755287009054,0.37630662020905836,0.4166666666666674,Moonee Valley,0.5724334109128537,0.358702582084755,Western Metropolitan,0.36113871514584667
Ascot Vale,9/5 Rothwell St,0.19999999999999993,u,0.14933333333333326,SP,Brad,3/12/2016,0.27064220183486226,0.15458937198067677,0.3333333333333333,0.0,0.33333333333333337,0.0,0.21602787456445896,0.7738095238095224,Moonee Valley,0.5765709852599008,0.3598979917118171,Western Metropolitan,0.36113871514584667
Ascot Vale,7 Francis St,0.4,h,0.5551111111111111,SP,Nelson,4/03/2017,0.27064220183486226,0.15458937198067677,0.6666666666666667,0.4999999999999998,0.6666666666666667,0.2092145015105721,0.6062717770034836,0.3571428571428572,Moonee Valley,0.5724334109128537,0.36388269046859795,Western Metropolitan,0.36113871514584667
Ascot Vale,2/21 Harold St,0.19999999999999993,u,0.15955555555555542,VB,Jellis,4/03/2017,0.27064220183486226,0.15458937198067677,0.3333333333333333,0.0,0.33333333333333337,0.3194864048338367,0.21602787456445896,0.7142857142857122,Moonee Valley,0.5830359451771399,0.32284029327378233,Western Metropolitan,0.36113871514584667
Ascot Vale,44 The Parade,0.6,h,0.7639999999999997,S,Brad,4/03/2017,0.27064220183486226,0.15458937198067677,1.0,1.0,0.33333333333333337,0.3610271903323266,0.9407665505226476,0.297619047619047,Moonee Valley,0.5848461339539819,0.3555148230793858,Western Metropolitan,0.36113871514584667
Ascot Vale,98 Epsom Rd,0.4,h,0.37333333333333335,SP,Nelson,4/06/2016,0.27064220183486226,0.15458937198067677,0.6666666666666667,0.4999999999999998,0.6666666666666667,0.21525679758308203,0.44599303135888413,0.297619047619047,Moonee Valley,0.5794155676234949,0.33798214854954994,Western Metropolitan,0.36113871514584667
Ascot Vale,8 Geddes St,0.19999999999999993,h,0.2573333333333332,PI,Nelson,4/06/2016,0.27064220183486226,0.15458937198067677,0.3333333333333333,0.0,0.33333333333333337,0.16163141993957508,0.2682926829268289,0.2380952380952377,Moonee Valley,0.5726920093095547,0.3481431303792994,Western Metropolitan,0.36113871514584667
Ascot Vale,119 Roseberry St,0.19999999999999993,h,0.2751111111111109,SP,Maddison,4/06/2016,0.27064220183486226,0.15458937198067677,0.3333333333333333,0.0,0.33333333333333337,0.17069486404833853,0.3205574912891977,0.4166666666666674,Moonee Valley,0.5807085596069348,0.33838061842525585,Western Metropolitan,0.36113871514584667
Ascot Vale,10 Fenton St,0.19999999999999993,h,0.40977777777777774,S,Nelson,6/08/2016,0.27064220183486226,0.15458937198067677,0.3333333333333333,0.0,0.33333333333333337,0.20317220543806497,0.3797909407665502,0.297619047619047,Moonee Valley,0.5799327644168708,0.3776299011794782,Western Metropolitan,0.36113871514584667
Ascot Vale,10 McCully St,0.4,h,0.5537777777777778,S,Nelson,6/08/2016,0.27064220183486226,0.15458937198067677,0.6666666666666667,0.0,0.33333333333333337,0.31495468277945493,0.5853658536585359,0.297619047619047,Moonee Valley,0.5778639772433538,0.3612926362767042,Western Metropolitan,0.36113871514584667
Ascot Vale,120 Epsom Rd,0.4,h,0.37288888888888866,S,Brad,7/05/2016,0.27064220183486226,0.15458937198067677,0.6666666666666667,0.0,0.6666666666666667,0.2643504531722044,0.43554006968641085,0.3214285714285725,Moonee Valley,0.5770881820532767,0.33977526299008726,Western Metropolitan,0.36113871514584667
Ascot Vale,63 Kent St,0.19999999999999993,h,0.2755555555555556,PI,Nelson,7/05/2016,0.27064220183486226,0.15458937198067677,0.3333333333333333,0.0,0.33333333333333337,0.08912386706948412,0.2752613240418114,0.2380952380952377,Moonee Valley,0.5646754590121619,0.3772314313037723,Western Metropolitan,0.36113871514584667
Ascot Vale,4 The Parade,0.19999999999999993,h,0.36399999999999977,SP,Raine,7/05/2016,0.27064220183486226,0.15458937198067677,0.3333333333333333,0.0,0.33333333333333337,0.13066465256797402,0.35540069686411063,0.297619047619047,Moonee Valley,0.5843289371606057,0.3608941664009983,Western Metropolitan,0.36113871514584667
Ascot Vale,1/17 Epsom Rd,0.19999999999999993,u,0.246222222222222,S,Brad,7/11/2016,0.27064220183486226,0.15458937198067677,0.3333333333333333,0.0,0.6666666666666667,0.17220543806646393,0.3135888501742151,0.8630952380952359,Moonee Valley,0.5876907163175757,0.33300127510358773,Western Metropolitan,0.36113871514584667
Ascot Vale,41 Monash St,0.4,h,0.4884444444444445,S,Nelson,8/10/2016,0.27064220183486226,0.15458937198067677,1.0,0.0,0.6666666666666667,0.44864048338368534,0.51567944250871,0.6547619047619038,Moonee Valley,0.5615722782518797,0.3326028052278818,Western Metropolitan,0.36113871514584667
Ascot Vale,51 Francis St,0.19999999999999993,h,0.28399999999999975,PI,Nelson,10/09/2016,0.27064220183486226,0.15458937198067677,0.3333333333333333,0.0,0.33333333333333337,0.17069486404833853,0.3031358885017418,0.297619047619047,Moonee Valley,0.5732092061029308,0.35690946764421755,Western Metropolitan,0.36113871514584667
Ascot Vale,12 Mirams St,0.6,h,0.3373333333333332,SP,Raine,10/12/2016,0.27064220183486226,0.15458937198067677,1.0,0.0,0.33333333333333337,0.22658610271903354,0.6445993031358883,0.2380952380952377,Moonee Valley,0.5752779932764478,0.34834236531718027,Western Metropolitan,0.36113871514584667
Ascot Vale,78 The Parade,0.4,h,0.5817777777777776,S,Nelson,11/02/2017,0.27064220183486226,0.15458937198067677,0.6666666666666667,0.0,0.33333333333333337,0.3678247734138964,0.4564459930313586,0.297619047619047,Moonee Valley,0.5858805275407337,0.3489400701307113,Western Metropolitan,0.36113871514584667
Ascot Vale,26 Newsom St,0.4,h,0.38622222222222213,PI,Brad,12/11/2016,0.27064220183486226,0.15458937198067677,0.6666666666666667,0.4999999999999998,0.6666666666666667,0.33232628398791364,0.4181184668989539,0.6249999999999987,Moonee Valley,0.5804499612102467,0.3260280522792072,Western Metropolitan,0.36113871514584667
Ascot Vale,8 Pentland St,0.4,h,0.5795555555555553,S,Nelson,12/11/2016,0.27064220183486226,0.15458937198067677,0.6666666666666667,0.4999999999999998,0.6666666666666667,0.40181268882175103,0.5121951219512192,0.5952380952380953,Moonee Valley,0.5827773467804649,0.32782116671974454,Western Metropolitan,0.36113871514584667
Ascot Vale,8/129 The Parade,0.0,u,0.11511111111111076,S,Alexkarbon,12/11/2016,0.27064220183486226,0.15458937198067677,0.0,0.0,0.33333333333333337,0.0,0.20209059233449378,0.7261904761904749,Moonee Valley,0.5863977243341099,0.3385798533630809,Western Metropolitan,0.36113871514584667
Ascot Vale,52 Monash St,0.4,h,0.575111111111111,PI,Jellis,13/08/2016,0.27064220183486226,0.15458937198067677,0.6666666666666667,0.4999999999999998,0.6666666666666667,0.3738670694864035,0.48432055749128894,0.4166666666666674,Moonee Valley,0.5610550814585038,0.3308096907873442,Western Metropolitan,0.36113871514584667
Ascot Vale,58 Fenton St,0.6,h,0.5373333333333334,S,Nelson,14/05/2016,0.27064220183486226,0.15458937198067677,0.6666666666666667,0.4999999999999998,0.6666666666666667,0.5158610271903319,0.8083623693379784,0.7619047619047623,Moonee Valley,0.5794155676234949,0.3836069493147332,Western Metropolitan,0.36113871514584667
Ascot Vale,70 Munro St,0.4,h,0.3662222222222221,S,Brad,14/05/2016,0.27064220183486226,0.15458937198067677,0.6666666666666667,0.0,0.33333333333333337,0.19864048338368603,0.4076655052264805,0.3571428571428572,Moonee Valley,0.5786397724334178,0.34296302199551215,Western Metropolitan,0.36113871514584667
Ascot Vale,3/28 Ormond Rd,0.19999999999999993,u,0.13377777777777747,S,Biggin,15/10/2016,0.27064220183486226,0.15458937198067677,0.3333333333333333,0.0,0.33333333333333337,0.0,0.21602787456445896,0.7619047619047623,Moonee Valley,0.5845875355572807,0.3802199553713161,Western Metropolitan,0.36113871514584667
Ascot Vale,7 Angler Pde,0.6,h,0.6706666666666665,S,Raine,16/04/2016,0.27064220183486226,0.15458937198067677,1.0,1.0,0.6666666666666667,0.4244712990936541,0.7108013937282223,0.2380952380952377,Moonee Valley,0.5613136798552048,0.32582881734138197,Western Metropolitan,0.36113871514584667
Ascot Vale,26 Ayr St,1.0,h,0.5773333333333334,S,Nelson,16/04/2016,0.27064220183486226,0.15458937198067677,1.0,0.4999999999999998,0.33333333333333337,0.3481873111782469,0.9965156794425082,0.297619047619047,Moonee Valley,0.5664856477889908,0.37862607586865943,Western Metropolitan,0.36113871514584667
Ascot Vale,2/127 Epsom Rd,0.19999999999999993,u,0.21288888888888893,SP,Brad,16/04/2016,0.27064220183486226,0.15458937198067677,0.3333333333333333,0.0,0.33333333333333337,0.2273413897280962,0.3623693379790932,0.8630952380952359,Moonee Valley,0.5688130333592087,0.3477446605036491,Western Metropolitan,0.36113871514584667
Ascot Vale,57 The Parade,0.4,h,0.3595555555555556,S,Nelson,16/04/2016,0.27064220183486226,0.15458937198067677,0.6666666666666667,1.0,0.33333333333333337,0.37084592145014994,0.4425087108013934,0.5952380952380953,Moonee Valley,0.5853633307473578,0.3469477207522929,Western Metropolitan,0.36113871514584667
Ascot Vale,62 Mirams St,0.4,h,0.3373333333333332,SP,Brad,16/07/2016,0.27064220183486226,0.15458937198067677,0.6666666666666667,0.0,0.33333333333333337,0.18277945619335276,0.38327526132404094,0.4166666666666674,Moonee Valley,0.5755365916731487,0.34256455211980624,Western Metropolitan,0.36113871514584667
Ascot Vale,67 Hurtle St,0.4,h,0.46622222222222215,SP,Brad,17/09/2016,0.27064220183486226,0.15458937198067677,0.6666666666666667,0.4999999999999998,0.6666666666666667,0.466012084592144,0.5191637630662018,0.47619047619047494,Moonee Valley,0.5814843547970119,0.33180586547658125,Western Metropolitan,0.36113871514584667
Ascot Vale,95 Walter St,0.6,h,0.5995555555555554,S,Raine,17/09/2016,0.27064220183486226,0.15458937198067677,1.0,0.4999999999999998,0.6666666666666667,0.4509063444108762,0.6271777003484313,0.5297619047619038,Moonee Valley,0.5776053788466657,0.3373844437360745,Western Metropolitan,0.36113871514584667
Ascot Vale,3/8 Walter St,0.19999999999999993,t,0.3262222222222221,SP,Nelson,18/03/2017,0.27064220183486226,0.15458937198067677,0.3333333333333333,0.4999999999999998,0.33333333333333337,0.11027190332326181,0.4599303135888494,0.9821428571428554,Moonee Valley,0.5889837083010288,0.32742269684409436,Western Metropolitan,0.36113871514584667
Ascot Vale,12/9 Milton St,0.19999999999999993,u,0.13822222222222208,S,Alexkarbon,18/06/2016,0.27064220183486226,0.15458937198067677,0.3333333333333333,0.0,0.33333333333333337,0.0,0.21602787456445896,0.7440476190476182,Moonee Valley,0.5838117403672167,0.36348422059289204,Western Metropolitan,0.36113871514584667
Ascot Vale,21A Geddes St,0.4,h,0.4028888888888889,S,Alexkarbon,19/11/2016,0.27064220183486226,0.15458937198067677,0.6666666666666667,0.0,0.6666666666666667,0.38217522658610154,0.38327526132404094,0.4166666666666674,Moonee Valley,0.5719162141194778,0.34635001593876186,Western Metropolitan,0.36113871514584667
Ascot Vale,1/20 Newsom St,0.4,t,0.40844444444444444,S,Jellis,19/11/2016,0.27064220183486226,0.15458937198067677,0.6666666666666667,0.4999999999999998,0.6666666666666667,0.24018126888217312,0.5574912891986055,0.9702380952380945,Moonee Valley,0.5809671580036357,0.32682499203061904,Western Metropolitan,0.36113871514584667
Ascot Vale,4/27 Roseberry St,0.19999999999999993,u,0.13733333333333309,S,McDonald,19/11/2016,0.27064220183486226,0.15458937198067677,0.3333333333333333,0.0,0.33333333333333337,0.0,0.2264808362369334,0.7142857142857122,Moonee Valley,0.5796741660201699,0.3471469556901739,Western Metropolitan,0.36113871514584667
Ascot Vale,43 Bloomfield Rd,0.6,h,0.5773333333333334,S,Nelson,22/05/2016,0.27064220183486226,0.15458937198067677,1.0,0.4999999999999998,0.0,0.3157099697885177,0.5505226480836228,0.297619047619047,Moonee Valley,0.5752779932764478,0.3571087025820983,Western Metropolitan,0.36113871514584667
Ascot Vale,21 Middle St,0.4,h,0.4439999999999999,S,Nelson,23/04/2016,0.27064220183486226,0.15458937198067677,0.6666666666666667,0.4999999999999998,0.33333333333333337,0.20543806646525586,0.5470383275261321,0.297619047619047,Moonee Valley,0.5732092061029308,0.3756375518010599,Western Metropolitan,0.36113871514584667
Ascot Vale,78 Francis St,0.4,h,0.4462222222222222,S,Brad,24/09/2016,0.27064220183486226,0.15458937198067677,0.6666666666666667,0.0,0.33333333333333337,0.22356495468277998,0.3623693379790932,0.3571428571428572,Moonee Valley,0.5742435996896829,0.35491711826585487,Western Metropolitan,0.36113871514584667
Ascot Vale,25 Geddes St,0.6,h,0.36399999999999977,PI,Nelson,24/09/2016,0.27064220183486226,0.15458937198067677,1.0,0.4999999999999998,0.33333333333333337,0.2250755287009054,0.5121951219512192,0.4166666666666674,Moonee Valley,0.5721748125161787,0.34595154606305595,Western Metropolitan,0.36113871514584667
Ascot Vale,15 Mirams St,0.6,h,0.5395555555555553,S,Jellis,25/02/2017,0.27064220183486226,0.15458937198067677,1.0,0.0,0.33333333333333337,0.4169184290030216,0.5400696864111496,0.4166666666666674,Moonee Valley,0.5745021980863838,0.34734619062799893,Western Metropolitan,0.36113871514584667
Ascot Vale,44 Walter St,0.4,h,0.5557777777777777,S,Barry,25/02/2017,0.27064220183486226,0.15458937198067677,0.6666666666666667,0.4999999999999998,0.6666666666666667,0.3141993957703923,0.5853658536585359,0.297619047619047,Moonee Valley,0.5853633307473578,0.3308096907873442,Western Metropolitan,0.36113871514584667
Ascot Vale,25 Dalgety Dr,0.4,h,0.3595555555555556,S,Jellis,26/07/2016,0.27064220183486226,0.15458937198067677,0.6666666666666667,0.4999999999999998,0.6666666666666667,0.21525679758308203,0.5993031358885009,0.9583333333333308,Moonee Valley,0.5721748125161787,0.3320051004144063,Western Metropolitan,0.36113871514584667
Ascot Vale,7 Dalgety Dr,0.4,h,0.38399999999999984,S,Nelson,26/07/2016,0.27064220183486226,0.15458937198067677,0.6666666666666667,0.4999999999999998,0.33333333333333337,0.2371601208459196,0.616724738675958,0.9523809523809521,Moonee Valley,0.5721748125161787,0.32821963659545056,Western Metropolitan,0.36113871514584667
Ascot Vale,6 Waller Ct,0.4,h,0.291111111111111,S,Brad,26/07/2016,0.27064220183486226,0.15458937198067677,0.6666666666666667,0.4999999999999998,0.33333333333333337,0.43504531722054296,0.4181184668989539,0.5357142857142843,Moonee Valley,0.5623480734419568,0.36308575071718613,Western Metropolitan,0.36113871514584667
Ascot Vale,17 Ascot St,0.19999999999999993,h,0.2551111111111109,PI,Nelson,27/06/2016,0.27064220183486226,0.15458937198067677,0.3333333333333333,0.0,1.0,0.19033232628398805,0.37630662020905836,0.3571428571428572,Moonee Valley,0.5600206878717517,0.3608941664009983,Western Metropolitan,0.36113871514584667
Ascot Vale,73 Kent St,0.19999999999999993,h,0.2795555555555555,PI,Nelson,27/06/2016,0.27064220183486226,0.15458937198067677,0.3333333333333333,0.0,0.33333333333333337,0.09365558912386585,0.2682926829268289,0.297619047619047,Moonee Valley,0.5646754590121619,0.37663372649029686,Western Metropolitan,0.36113871514584667
Ascot Vale,1 East St,0.4,t,0.38622222222222213,S,Nelson,27/11/2016,0.27064220183486226,0.15458937198067677,0.6666666666666667,0.4999999999999998,0.6666666666666667,0.151057401812689,0.5017421602787449,0.9107142857142834,Moonee Valley,0.5752779932764478,0.37503984698752885,Western Metropolitan,0.36113871514584667
Ascot Vale,1 Bloomfield Rd,0.4,h,0.5217777777777776,S,Barry,28/05/2016,0.27064220183486226,0.15458937198067677,0.3333333333333333,0.0,0.33333333333333337,0.2099697885196376,0.5783972125435533,0.297619047619047,Moonee Valley,0.5747607964830717,0.36428116034430386,Western Metropolitan,0.36113871514584667
Ascot Vale,58 Bloomfield Rd,0.4,h,0.4817777777777776,S,Stockdale,28/08/2016,0.27064220183486226,0.15458937198067677,0.6666666666666667,0.0,0.33333333333333337,0.34138972809667706,0.6097560975609754,0.6547619047619038,Moonee Valley,0.5763123868631999,0.35451864839014896,Western Metropolitan,0.36113871514584667
Ascot Vale,1/91 Epsom Rd,0.19999999999999993,u,0.18399999999999966,S,Nelson,28/08/2016,0.27064220183486226,0.15458937198067677,0.3333333333333333,0.0,0.6666666666666667,0.1465256797583073,0.2473867595818811,0.297619047619047,Moonee Valley,0.5737264028963067,0.34336149187121806,Western Metropolitan,0.36113871514584667
Ashburton,69 Albion Rd,0.4,h,0.684,S,Jellis,3/12/2016,0.5045871559633027,0.7101449275362326,0.6666666666666667,0.4999999999999998,0.6666666666666667,0.4524169184290016,0.7665505226480829,0.47619047619047494,Boroondara,0.340729247478676,0.6561603442779906,Southern Metropolitan,0.15566727070789732
Ashburton,3 Dunlop St,0.4,h,0.632888888888889,S,Jellis,4/06/2016,0.5045871559633027,0.7101449275362326,0.6666666666666667,0.4999999999999998,0.6666666666666667,0.5521148036253773,0.5191637630662018,0.5059523809523809,Boroondara,0.34253943625550504,0.6537695250239219,Southern Metropolitan,0.15566727070789732
Ashburton,16a Nicholas St,0.4,h,0.4306666666666664,PI,Marshall,8/10/2016,0.5045871559633027,0.7101449275362326,0.6666666666666667,1.0,0.6666666666666667,0.2084592145015094,0.6202090592334487,0.9166666666666647,Boroondara,0.334005689164736,0.6740914886834768,Southern Metropolitan,0.15566727070789732
Ashburton,5 Nicholas St,0.4,h,0.536,S,Buxton,8/10/2016,0.5045871559633027,0.7101449275362326,0.6666666666666667,0.0,0.6666666666666667,0.44033232628398733,0.39024390243902346,0.5952380952380953,Boroondara,0.33762606671840717,0.6756853681861892,Southern Metropolitan,0.15566727070789732
Ashburton,1/1 Nairn St,0.4,h,0.6164444444444445,S,Jellis,10/09/2016,0.5045871559633027,0.7101449275362326,0.6666666666666667,0.4999999999999998,0.6666666666666667,0.3897280966767368,0.5052264808362367,0.4166666666666674,Boroondara,0.3402120506853002,0.6521756455212095,Southern Metropolitan,0.15566727070789732
Ashburton,9 Gona Ct,0.4,h,0.7017777777777777,S,hockingstuart,10/12/2016,0.5045871559633027,0.7101449275362326,0.6666666666666667,0.0,0.6666666666666667,0.608761329305135,0.3519163763066198,0.5952380952380953,Boroondara,0.33504008275148806,0.6864440548294697,Southern Metropolitan,0.15566727070789732
Ashburton,45 Yuile St,0.4,h,0.6773333333333331,S,Jellis,10/12/2016,0.5045871559633027,0.7101449275362326,0.6666666666666667,0.0,1.0,0.5891238670694856,0.5296167247386752,0.5357142857142843,Boroondara,0.3598655288337181,0.6814631813835075,Southern Metropolitan,0.15566727070789732
Ashburton,47 Yuile St,0.6,h,0.6306666666666666,VB,Marshall,12/11/2016,0.5045871559633027,0.7101449275362326,1.0,0.4999999999999998,0.6666666666666667,0.5891238670694856,0.6271777003484313,0.5238095238095233,Boroondara,0.3596069304370431,0.6818616512592135,Southern Metropolitan,0.15566727070789732
Ashburton,6a Glen Rd,0.4,h,0.6804444444444444,S,Jellis,14/05/2016,0.5045871559633027,0.7101449275362326,0.6666666666666667,0.4999999999999998,0.6666666666666667,0.2651057401812671,0.7944250871080133,0.9285714285714275,Boroondara,0.32288595810706094,0.6585511635320034,Southern Metropolitan,0.15566727070789732
Ashburton,18 Glen Rd,0.4,h,0.6817777777777777,S,Jellis,15/10/2016,0.5045871559633027,0.7101449275362326,0.6666666666666667,0.4999999999999998,1.0,0.530211480362537,0.5052264808362367,0.5654761904761911,Boroondara,0.32417895009051395,0.6575549888428778,Southern Metropolitan,0.15566727070789732
Ashburton,2/17 Ashburn Gr,0.4,t,0.34177777777777746,S,Jellis,19/11/2016,0.5045871559633027,0.7101449275362326,0.6666666666666667,0.4999999999999998,0.6666666666666667,0.11555891238670624,0.38327526132404094,0.8333333333333326,Boroondara,0.3453840186190991,0.6800685368186203,Southern Metropolitan,0.15566727070789732
Ashburton,3 Mustang Ct,0.4,h,0.6084444444444442,VB,Jellis,22/08/2016,0.5045871559633027,0.7101449275362326,0.6666666666666667,0.4999999999999998,0.6666666666666667,0.5362537764350441,0.48432055749128894,0.5654761904761911,Boroondara,0.34590121541247515,0.6978004462862815,Southern Metropolitan,0.15566727070789732
Ashburton,4 Vears Rd,0.4,h,0.7551111111111112,S,Jellis,25/02/2017,0.5045871559633027,0.7101449275362326,0.6666666666666667,0.4999999999999998,1.0,0.546827794561933,0.5853658536585359,0.5357142857142843,Boroondara,0.35469356089993215,0.6942142174051509,Southern Metropolitan,0.15566727070789732
Ashburton,14 Lucerne St,0.4,h,0.5706666666666665,S,Buxton,27/06/2016,0.5045871559633027,0.7101449275362326,0.6666666666666667,0.0,0.33333333333333337,0.4569486404833833,0.38675958188153275,0.5952380952380953,Boroondara,0.33297129557797106,0.6732945489321207,Southern Metropolitan,0.15566727070789732
Ashburton,5 Pitt St,0.19999999999999993,h,0.5817777777777776,PI,Jellis,27/06/2016,0.5045871559633027,0.7101449275362326,0.3333333333333333,0.0,0.33333333333333337,0.5188821752265854,0.3623693379790932,0.5357142857142843,Boroondara,0.3285751228342491,0.6569572840293467,Southern Metropolitan,0.15566727070789732
Ashburton,1/65 Ashburn Gr,0.6,t,0.49733333333333296,VB,Noel,27/11/2016,0.5045871559633027,0.7101449275362326,1.0,0.4999999999999998,0.6666666666666667,0.242447129909364,0.6933797909407664,0.934523809523808,Boroondara,0.3355572795448641,0.6784746573159637,Southern Metropolitan,0.15566727070789732
Ashburton,5 Taylor St,0.6,h,0.7684444444444444,S,Jellis,27/11/2016,0.5045871559633027,0.7101449275362326,1.0,0.4999999999999998,1.0,0.525679758308158,0.9547038327526127,0.8928571428571419,Boroondara,0.33090250840445407,0.6677159706726274,Southern Metropolitan,0.15566727070789732
Ashburton,33 Highgate Gr,0.6,h,0.7373333333333332,PI,hockingstuart,28/05/2016,0.5045871559633027,0.7101449275362326,1.0,0.4999999999999998,0.6666666666666667,0.3882175226586086,0.8362369337979088,0.5059523809523809,Boroondara,0.34305663304888107,0.6728960790564147,Southern Metropolitan,0.15566727070789732
Ashburton,9 Pitt St,0.6,h,0.8084444444444443,S,Tim,28/05/2016,0.5045871559633027,0.7101449275362326,1.0,0.4999999999999998,0.6666666666666667,0.6374622356495481,0.9686411149825779,0.5357142857142843,Boroondara,0.3298681148177021,0.6561603442779906,Southern Metropolitan,0.15566727070789732
Ashburton,19 Poulter St,0.4,h,0.6751111111111108,S,Marshall,28/08/2016,0.5045871559633027,0.7101449275362326,0.6666666666666667,0.0,0.33333333333333337,0.5264350453172207,0.5714285714285707,0.5773809523809512,Boroondara,0.3502973881562101,0.6989958559133436,Southern Metropolitan,0.15566727070789732
Ashwood,1/53 Winbirra Pde,0.6,h,0.47511111111111104,SP,Purplebricks,4/03/2017,0.5596330275229358,0.7101449275362326,1.0,1.0,0.6666666666666667,0.28096676737160037,0.7003484320557489,0.9880952380952377,Monash,0.32960951642100106,0.7181224099457806,Southern Metropolitan,0.14643128543870923
Ashwood,18 Montrose St,0.19999999999999993,h,0.4195555555555556,VB,Jellis,4/06/2016,0.5596330275229358,0.7101449275362326,0.3333333333333333,0.0,0.6666666666666667,0.5249244712990926,0.39721254355400615,0.5952380952380953,Monash,0.335298681148189,0.7071644883647306,Southern Metropolitan,0.14643128543870923
Ashwood,4 Scenic Dr,0.6,h,0.6084444444444442,S,Fletchers,6/08/2016,0.5596330275229358,0.7101449275362326,0.3333333333333333,0.4999999999999998,0.6666666666666667,0.4690332326283976,0.7073170731707316,0.8928571428571419,Monash,0.3474528057926161,0.7229040484539735,Southern Metropolitan,0.14643128543870923
Ashwood,1/7 Farmer St,0.19999999999999993,t,0.25288888888888894,S,hockingstuart,7/11/2016,0.5596330275229358,0.7101449275362326,0.3333333333333333,0.0,0.6666666666666667,0.2771903323262841,0.38327526132404094,0.7142857142857122,Monash,0.3435738298422701,0.7362527892891477,Southern Metropolitan,0.14643128543870923
Ashwood,95 Huntingdale Rd,0.6,h,0.4306666666666664,VB,Tim,10/12/2016,0.5596330275229358,0.7101449275362326,0.6666666666666667,0.4999999999999998,0.6666666666666667,0.606495468277947,0.5296167247386752,0.7142857142857122,Monash,0.35417636410655623,0.7434252470512976,Southern Metropolitan,0.14643128543870923
Ashwood,1/7 Murra Ct,0.19999999999999993,u,0.24844444444444433,S,Ray,14/05/2016,0.5596330275229358,0.7101449275362326,0.3333333333333333,0.0,0.33333333333333337,0.16314199395770326,0.3135888501742151,0.9107142857142834,Monash,0.33090250840445407,0.7217086388269112,Southern Metropolitan,0.14643128543870923
Ashwood,58 Ashwood Dr,0.4,h,0.6666666666666666,S,Jellis,15/10/2016,0.5596330275229358,0.7101449275362326,0.6666666666666667,0.4999999999999998,1.0,0.5906344410876138,0.749128919860627,0.5952380952380953,Monash,0.35417636410655623,0.7225055785782675,Southern Metropolitan,0.14643128543870923
Ashwood,3 Harold St,0.6,h,0.6084444444444442,S,Buxton,15/10/2016,0.5596330275229358,0.7101449275362326,1.0,0.4999999999999998,0.33333333333333337,0.4478851963746227,0.8885017421602787,0.47619047619047494,Monash,0.3453840186190991,0.7103522473700996,Southern Metropolitan,0.14643128543870923
Ashwood,4/36 Queens Pde,0.19999999999999993,u,0.2084444444444443,S,Noel,18/03/2017,0.5596330275229358,0.7101449275362326,0.3333333333333333,0.0,0.33333333333333337,0.11555891238670624,0.2787456445993022,0.7142857142857122,Monash,0.3347814843548131,0.7107507172458056,Southern Metropolitan,0.14643128543870923
Ashwood,17 Parkhill Dr,0.6,h,0.49288888888888877,S,Tim,19/11/2016,0.5596330275229358,0.7101449275362326,1.0,0.4999999999999998,0.6666666666666667,0.5785498489425995,0.6689895470383268,0.5952380952380953,Monash,0.352107576933026,0.7376474338540349,Southern Metropolitan,0.14643128543870923
Ashwood,2/6 Murra Ct,0.19999999999999993,u,0.25288888888888894,S,hockingstuart,22/08/2016,0.5596330275229358,0.7101449275362326,0.3333333333333333,0.0,0.6666666666666667,0.14501510574017912,0.30662020905923254,0.934523809523808,Monash,0.3314197051978431,0.7223063436404422,Southern Metropolitan,0.14643128543870923
Ashwood,4 Teck St,0.19999999999999993,h,0.43511111111111106,S,Fletchers,24/09/2016,0.5596330275229358,0.7101449275362326,0.3333333333333333,0.0,0.33333333333333337,0.4425981873111782,0.29965156794424996,0.5952380952380953,Monash,0.3381432635117832,0.7346589097864353,Southern Metropolitan,0.14643128543870923
Ashwood,14 Ashwood Dr,0.4,h,0.5217777777777776,S,Jellis,25/02/2017,0.5596330275229358,0.7101449275362326,0.6666666666666667,0.0,0.33333333333333337,0.5740181268882177,0.4181184668989539,0.6547619047619038,Monash,0.36477889837084226,0.7258925725215173,Southern Metropolitan,0.14643128543870923
Ashwood,1/2 Condah Ct,0.4,h,0.32177777777777783,S,Noel,25/02/2017,0.5596330275229358,0.7101449275362326,0.6666666666666667,0.4999999999999998,0.33333333333333337,0.24169184290030132,0.2961672473867592,0.6428571428571428,Monash,0.33374709076804804,0.7388428434810412,Southern Metropolitan,0.14643128543870923
Ashwood,1/16 Raymond St,0.4,t,0.34199999999999986,S,Jellis,27/11/2016,0.5596330275229358,0.7101449275362326,0.6666666666666667,0.4999999999999998,0.6666666666666667,0.1933534743202416,0.4668989547038319,0.9642857142857122,Monash,0.3453840186190991,0.7374481989161541,Southern Metropolitan,0.14643128543870923
Ashwood,4 Newbury Ct,0.4,h,0.47511111111111104,VB,Buxton,28/05/2016,0.5596330275229358,0.7101449275362326,0.6666666666666667,0.4999999999999998,0.6666666666666667,0.6336858006042291,0.6898954703832745,0.7142857142857122,Monash,0.35598655288337216,0.7378466687918601,Southern Metropolitan,0.14643128543870923
Ashwood,2/53 Salisbury Rd,0.4,t,0.3106666666666667,S,Barry,28/08/2016,0.5596330275229358,0.7101449275362326,0.3333333333333333,0.0,0.6666666666666667,0.16012084592144968,0.4529616724738668,0.9642857142857122,Monash,0.32779932764417213,0.7360535543513225,Southern Metropolitan,0.14643128543870923
Avondale Heights,8 Norma Ct,0.4,h,0.31955555555555554,S,Moonee,3/09/2016,0.48165137614678893,0.16425120772946794,0.6666666666666667,0.0,0.33333333333333337,0.4478851963746227,0.4111498257839713,0.7142857142857122,Moonee Valley,0.5982932505818619,0.2549011794707932,Western Metropolitan,0.240427895013737
Avondale Heights,9 Rogerson St,0.4,h,0.2751111111111109,SP,Moonee,3/09/2016,0.48165137614678893,0.16425120772946794,0.6666666666666667,0.0,0.33333333333333337,0.0,0.35888501742160245,0.7738095238095224,Moonee Valley,0.6094129816395368,0.24234937838697507,Western Metropolitan,0.240427895013737
Avondale Heights,157 Canning St,0.4,t,0.31999999999999984,S,Nelson,3/12/2016,0.48165137614678893,0.16425120772946794,0.6666666666666667,1.0,0.33333333333333337,0.42069486404833784,0.6306620209059232,0.9940476190476191,Moonee Valley,0.5923454874579859,0.23457921581129398,Western Metropolitan,0.240427895013737
Avondale Heights,2 Arbor Tce,0.6,h,0.455111111111111,S,Nelson,4/06/2016,0.48165137614678893,0.16425120772946794,0.6666666666666667,0.4999999999999998,0.6666666666666667,0.42975830815709853,0.78397212543554,0.9404761904761902,Moonee Valley,0.6042410137057248,0.251115715651893,Western Metropolitan,0.240427895013737
Avondale Heights,68 Thompson St,0.4,h,0.2439999999999997,S,Nelson,6/08/2016,0.48165137614678893,0.16425120772946794,0.6666666666666667,0.0,0.6666666666666667,0.43051359516616405,0.4181184668989539,0.7142857142857122,Moonee Valley,0.6205327126971989,0.22860216767609493,Western Metropolitan,0.240427895013737
Avondale Heights,97 Military Rd,0.4,h,0.22066666666666643,SP,Moonee,8/10/2016,0.48165137614678893,0.16425120772946794,0.6666666666666667,0.0,0.33333333333333337,0.4154078549848934,0.4982578397212541,0.7142857142857122,Moonee Valley,0.609930178432913,0.2445409627032184,Western Metropolitan,0.240427895013737
Avondale Heights,3 Clive Ct,0.6,h,0.36399999999999977,S,Moonee,10/12/2016,0.48165137614678893,0.16425120772946794,1.0,1.0,1.0,0.5747734138972804,0.9790940766550523,0.7142857142857122,Moonee Valley,0.6378588052754119,0.26287057698435506,Western Metropolitan,0.240427895013737
Avondale Heights,8 Herbert St,0.4,h,0.2551111111111109,S,Nelson,22/05/2016,0.48165137614678893,0.16425120772946794,0.6666666666666667,0.0,0.33333333333333337,0.438821752265862,0.3693379790940758,0.6547619047619038,Moonee Valley,0.5946728730281907,0.23517692062476953,Western Metropolitan,0.240427895013737
Avondale Heights,20 Westminster Dr,0.4,h,0.3384444444444442,S,Nelson,22/05/2016,0.48165137614678893,0.16425120772946794,0.6666666666666667,0.0,0.33333333333333337,0.4425981873111782,0.4111498257839713,0.6845238095238089,Moonee Valley,0.6073441944659939,0.24075549888426268,Western Metropolitan,0.240427895013737
Avondale Heights,1/24 Bordeaux St,0.19999999999999993,h,0.17399999999999985,S,Nelson,24/09/2016,0.48165137614678893,0.16425120772946794,0.3333333333333333,0.0,0.33333333333333337,0.16616314199395682,0.3519163763066198,0.8630952380952359,Moonee Valley,0.6285492629945788,0.24832642652217424,Western Metropolitan,0.240427895013737
Avondale Heights,72 Military Rd,0.6,h,0.2439999999999997,PI,Nelson,24/09/2016,0.48165137614678893,0.16425120772946794,1.0,0.4999999999999998,0.6666666666666667,0.418429003021147,0.48780487804877964,0.6547619047619038,Moonee Valley,0.6055340056891778,0.24673254701946196,Western Metropolitan,0.240427895013737
Avondale Heights,2 Drake Ct,0.4,h,0.3306666666666667,S,Edward,25/02/2017,0.48165137614678893,0.16425120772946794,0.6666666666666667,0.0,1.0,0.6132930513595167,0.4076655052264805,0.6547619047619038,Moonee Valley,0.6052754072924769,0.23577462543830047,Western Metropolitan,0.240427895013737
Avondale Heights,109 North Rd,0.6,h,0.2804444444444445,S,Nelson,26/07/2016,0.48165137614678893,0.16425120772946794,1.0,0.4999999999999998,0.6666666666666667,0.4448640483383691,0.5226480836236926,0.660714285714286,Moonee Valley,0.6251874838376088,0.22700828817338253,Western Metropolitan,0.240427895013737
Avondale Heights,2/4 Carmyle Ct,0.19999999999999993,u,0.12444444444444433,PI,Barry,27/11/2016,0.48165137614678893,0.16425120772946794,0.3333333333333333,0.0,0.33333333333333337,0.0,0.2961672473867592,0.8630952380952359,Moonee Valley,0.6161365399534509,0.2461348422059308,Western Metropolitan,0.240427895013737
Avondale Heights,10 Skewes St,0.4,h,0.2995555555555555,S,Nelson,27/11/2016,0.48165137614678893,0.16425120772946794,0.6666666666666667,0.4999999999999998,0.6666666666666667,0.4478851963746227,0.35888501742160245,0.7142857142857122,Moonee Valley,0.6163951383501518,0.23637233025183163,Western Metropolitan,0.240427895013737
Avondale Heights,43 Skewes St,0.4,h,0.2235555555555554,S,Nelson,28/05/2016,0.48165137614678893,0.16425120772946794,1.0,0.4999999999999998,0.33333333333333337,0.4395770392749247,0.533101045296167,0.5952380952380953,Moonee Valley,0.6223429014740149,0.23378227605988217,Western Metropolitan,0.240427895013737
Balaclava,18 Linton St,0.6,h,0.7502222222222223,S,Gary,3/09/2016,0.30275229357798156,0.8840579710144941,0.6666666666666667,0.4999999999999998,0.33333333333333337,0.18429003021147816,0.6271777003484313,0.297619047619047,Port Phillip,0.342022239462129,0.5047417915205388,Southern Metropolitan,0.14982171041094283
Balaclava,7/72 Grosvenor St,0.19999999999999993,u,0.12400000000000003,PI,hockingstuart,3/12/2016,0.30275229357798156,0.8840579710144941,0.3333333333333333,0.0,0.6666666666666667,0.0,0.2125435540069682,0.6845238095238089,Port Phillip,0.32573054047065503,0.510718839655738,Southern Metropolitan,0.14982171041094283
Balaclava,1/34 Gourlay St,0.19999999999999993,t,0.3928888888888887,S,Gary,7/11/2016,0.30275229357798156,0.8840579710144941,0.3333333333333333,0.0,0.6666666666666667,0.08610271903323057,0.4181184668989539,0.8928571428571419,Port Phillip,0.32779932764417213,0.5113165444692689,Southern Metropolitan,0.14982171041094283
Balaclava,4/9 Gourlay St,0.19999999999999993,u,0.165111111111111,S,Buxton,15/10/2016,0.30275229357798156,0.8840579710144941,0.3333333333333333,0.0,0.33333333333333337,0.0,0.2264808362369334,0.6547619047619038,Port Phillip,0.3272821308507961,0.5095234300287315,Southern Metropolitan,0.14982171041094283
Balaclava,1/22 Sycamore Gr,0.19999999999999993,u,0.1728888888888889,S,Gary,15/10/2016,0.30275229357798156,0.8840579710144941,0.3333333333333333,0.0,0.0,0.0,0.20209059233449378,0.7142857142857122,Port Phillip,0.32288595810706094,0.5135081287854568,Southern Metropolitan,0.14982171041094283
Balaclava,6/23 Gourlay St,0.19999999999999993,u,0.13822222222222208,SP,Buxton,17/09/2016,0.30275229357798156,0.8840579710144941,0.3333333333333333,0.0,0.33333333333333337,0.0,0.2125435540069682,0.6547619047619038,Port Phillip,0.32702353245410815,0.5115157794070384,Southern Metropolitan,0.14982171041094283
Balaclava,6 Blenheim St,0.4,h,0.47199999999999975,S,McGrath,18/06/2016,0.30275229357798156,0.8840579710144941,0.6666666666666667,0.0,0.33333333333333337,0.13444108761329307,0.34843205574912806,0.4166666666666674,Port Phillip,0.343315231445569,0.5087264902773194,Southern Metropolitan,0.14982171041094283
Balaclava,3/20 Orange Gr,0.19999999999999993,u,0.12666666666666665,S,Chisholm,18/06/2016,0.30275229357798156,0.8840579710144941,0.3333333333333333,0.0,0.33333333333333337,0.0,0.17073170731707274,0.6547619047619038,Port Phillip,0.3394362554952231,0.5123127191584502,Southern Metropolitan,0.14982171041094283
Balaclava,2/19 Camden St,0.19999999999999993,u,0.1524444444444442,S,hockingstuart,22/05/2016,0.30275229357798156,0.8840579710144941,0.3333333333333333,0.0,0.33333333333333337,0.0,0.20557491289198565,0.7142857142857122,Port Phillip,0.3422808378588041,0.5025502072043508,Southern Metropolitan,0.14982171041094283
Balaclava,1/17 Albion St,0.19999999999999993,h,0.3777777777777776,S,Buxton,25/02/2017,0.30275229357798156,0.8840579710144941,0.3333333333333333,0.0,0.0,0.12009063444108518,0.29268292682926733,0.47619047619047494,Port Phillip,0.323403154900437,0.5057379662097756,Southern Metropolitan,0.14982171041094283
Balaclava,10 Grosvenor St,0.4,h,0.6928888888888889,S,McGrath,25/02/2017,0.30275229357798156,0.8840579710144941,0.6666666666666667,0.4999999999999998,0.6666666666666667,0.2560422960725064,0.5540069686411148,0.2380952380952377,Port Phillip,0.3285751228342491,0.5009563277016384,Southern Metropolitan,0.14982171041094283
Balaclava,3/33 Gourlay St,0.19999999999999993,u,0.18177777777777776,VB,McGrath,27/06/2016,0.30275229357798156,0.8840579710144941,0.3333333333333333,0.0,0.33333333333333337,0.3648036253776428,0.17770034843205532,0.7142857142857122,Port Phillip,0.3267649340574071,0.5129104239719813,Southern Metropolitan,0.14982171041094283
Balwyn,166 Gordon St,0.19999999999999993,h,0.875111111111111,S,Marshall,3/09/2016,0.44495412844036686,0.4975845410628021,0.3333333333333333,0.0,0.33333333333333337,0.49773413897281055,0.42857142857142827,0.4166666666666674,Boroondara,0.4904577191621596,0.6798693018807953,Southern Metropolitan,0.3094055065177996
Balwyn,36 Narrak Rd,0.6,h,0.7417777777777778,VB,Marshall,3/09/2016,0.44495412844036686,0.4975845410628021,1.0,0.4999999999999998,0.6666666666666667,0.5400302114803631,0.7595818815331004,0.8035714285714284,Boroondara,0.4863201448151126,0.7099537774944493,Southern Metropolitan,0.3094055065177996
Balwyn,2/16 Westminster St,0.19999999999999993,t,0.4995555555555553,S,Noel,3/09/2016,0.44495412844036686,0.4975845410628021,0.3333333333333333,0.0,0.33333333333333337,0.15709969788519615,0.449477351916376,0.8928571428571419,Boroondara,0.4816653736746895,0.7133407714376991,Southern Metropolitan,0.3094055065177996
Balwyn,2/74 Balwyn Rd,0.4,u,0.41733333333333333,SA,Philip,3/12/2016,0.44495412844036686,0.4975845410628021,0.6666666666666667,0.4999999999999998,0.6666666666666667,0.15558912386706797,0.39024390243902346,0.88095238095238,Boroondara,0.47313162658393354,0.6808654765699764,Southern Metropolitan,0.3094055065177996
Balwyn,5/14 Parring Rd,0.19999999999999993,u,0.2999999999999998,S,Noel,3/12/2016,0.44495412844036686,0.4975845410628021,0.3333333333333333,0.0,0.33333333333333337,0.09214501510573768,0.33797909407665466,0.7559523809523809,Boroondara,0.4826997672614544,0.7015859101051816,Southern Metropolitan,0.3094055065177996
Balwyn,142 Balwyn Rd,0.19999999999999993,h,0.7639999999999997,VB,Fletchers,6/08/2016,0.44495412844036686,0.4975845410628021,0.6666666666666667,0.0,0.33333333333333337,0.7666163141993967,0.5783972125435533,0.47619047619047494,Boroondara,0.4956296870959456,0.6836547656997509,Southern Metropolitan,0.3094055065177996
Balwyn,4/3 King St,0.4,h,0.25288888888888894,VB,Marshall,7/05/2016,0.44495412844036686,0.4975845410628021,0.6666666666666667,0.0,0.33333333333333337,0.14199395770392556,0.38327526132404094,0.7142857142857122,Boroondara,0.49795707266616357,0.648589416640079,Southern Metropolitan,0.3094055065177996
Balwyn,3/18 Weir St,0.19999999999999993,h,0.16399999999999965,S,Marshall,7/05/2016,0.44495412844036686,0.4975845410628021,0.3333333333333333,0.0,0.33333333333333337,0.0,0.25087108013937187,0.6547619047619038,Boroondara,0.47287302818723237,0.6866432897672949,Southern Metropolitan,0.3094055065177996
Balwyn,3 Westminster St,0.4,h,0.8862222222222221,SP,Jellis,7/05/2016,0.44495412844036686,0.4975845410628021,0.6666666666666667,0.4999999999999998,0.6666666666666667,0.5279456193353461,0.8780487804878042,0.8035714285714284,Boroondara,0.47856219291440755,0.711547656997106,Southern Metropolitan,0.3094055065177996
Balwyn,13 Naroo St,0.6,h,0.7417777777777778,PI,Jellis,8/10/2016,0.44495412844036686,0.4975845410628021,0.6666666666666667,0.4999999999999998,0.6666666666666667,0.43580060422960565,0.6968641114982571,0.5833333333333317,Boroondara,0.5064908197569327,0.6571565189671718,Southern Metropolitan,0.3094055065177996
Balwyn,101/201 Whitehorse Rd,0.19999999999999993,u,0.2239999999999997,S,Fletchers,8/10/2016,0.44495412844036686,0.4975845410628021,0.3333333333333333,0.0,0.33333333333333337,0.0,0.2439024390243893,0.9761904761904749,Boroondara,0.4847685544349714,0.6633328020401406,Southern Metropolitan,0.3094055065177996
Balwyn,1/252 Union Rd,0.19999999999999993,u,0.17555555555555552,S,hockingstuart,10/09/2016,0.44495412844036686,0.4975845410628021,0.3333333333333333,0.0,0.33333333333333337,0.0,0.2543554006968637,0.6547619047619038,Boroondara,0.4775277993276555,0.7169270003187742,Southern Metropolitan,0.3094055065177996
Balwyn,1/18 Belmore Rd,0.4,h,0.3439999999999998,S,Kay,10/12/2016,0.44495412844036686,0.4975845410628021,0.6666666666666667,0.0,0.6666666666666667,0.21223564954682564,0.5226480836236926,0.8630952380952359,Boroondara,0.5114041892940437,0.648987886515785,Southern Metropolitan,0.3094055065177996
Balwyn,11/22 Brenbeal St,0.19999999999999993,t,0.2795555555555555,S,Christopher,10/12/2016,0.44495412844036686,0.4975845410628021,0.3333333333333333,0.0,0.33333333333333337,0.09138972809667499,0.34843205574912806,0.6547619047619038,Boroondara,0.48580294802173646,0.6946126872808567,Southern Metropolitan,0.3094055065177996
Balwyn,3/3 Iramoo St,0.4,t,0.5493333333333332,S,Jellis,10/12/2016,0.44495412844036686,0.4975845410628021,0.6666666666666667,0.4999999999999998,0.6666666666666667,0.1654078549848941,0.5714285714285707,0.9107142857142834,Boroondara,0.48244116886476646,0.6882371692700073,Southern Metropolitan,0.3094055065177996
Balwyn,2/8 Evelina St,0.6,t,0.564,PI,Noel,12/11/2016,0.44495412844036686,0.4975845410628021,1.0,1.0,0.6666666666666667,0.1820241691842901,0.8362369337979088,0.9464285714285716,Boroondara,0.5039048357900267,0.7266895122728734,Southern Metropolitan,0.3094055065177996
Balwyn,6/10 Brenbeal St,0.19999999999999993,u,0.21955555555555548,PI,Jellis,13/08/2016,0.44495412844036686,0.4975845410628021,0.3333333333333333,0.0,0.33333333333333337,0.08685800604229606,0.3623693379790932,0.6547619047619038,Boroondara,0.48321696405484343,0.6942142174051509,Southern Metropolitan,0.3094055065177996
Balwyn,6/29 Weir St,0.19999999999999993,u,0.14622222222222195,VB,Jellis,16/04/2016,0.44495412844036686,0.4975845410628021,0.3333333333333333,0.0,0.33333333333333337,0.0,0.2752613240418114,0.5952380952380953,Boroondara,0.4754590121541384,0.6862448198916447,Southern Metropolitan,0.3094055065177996
Balwyn,3/94 Balwyn Rd,0.19999999999999993,u,0.40977777777777774,S,Fletchers,16/07/2016,0.44495412844036686,0.4975845410628021,0.3333333333333333,0.0,0.6666666666666667,0.17447129909365477,0.3414634146341455,0.8035714285714284,Boroondara,0.4829583656581425,0.6826585910105141,Southern Metropolitan,0.3094055065177996
Balwyn,1/32 Yerrin St,0.4,t,0.5959999999999998,S,Noel,16/07/2016,0.44495412844036686,0.4975845410628021,0.6666666666666667,0.4999999999999998,0.6666666666666667,0.23111782477341247,0.5923344947735184,0.8630952380952359,Boroondara,0.48735453840186455,0.6880379343321821,Southern Metropolitan,0.3094055065177996
Balwyn,5/95 Balwyn Rd,0.19999999999999993,u,0.2768888888888889,PI,Marshall,18/03/2017,0.44495412844036686,0.4975845410628021,0.3333333333333333,0.0,0.33333333333333337,0.06570996978851835,0.30662020905923254,0.8333333333333326,Boroondara,0.4801137832945485,0.6804670066943821,Southern Metropolitan,0.3094055065177996
Balwyn,29 Bevan St,0.6,h,0.9142222222222219,S,Marshall,19/11/2016,0.44495412844036686,0.4975845410628021,1.0,0.4999999999999998,0.6666666666666667,0.5679758308157107,0.8815331010452961,0.7797619047619038,Boroondara,0.4762348073442025,0.6679152056104525,Southern Metropolitan,0.3094055065177996
Balwyn,2/30 Kalimna St,0.19999999999999993,u,0.27733333333333315,PI,Noel,19/11/2016,0.44495412844036686,0.4975845410628021,0.3333333333333333,0.0,0.33333333333333337,0.1608761329305124,0.3205574912891977,0.7738095238095224,Boroondara,0.4909749159555356,0.6762830729997202,Southern Metropolitan,0.3094055065177996
Balwyn,4/35 Weir St,0.19999999999999993,u,0.23066666666666663,S,Jellis,24/09/2016,0.44495412844036686,0.4975845410628021,0.3333333333333333,0.0,0.33333333333333337,0.0,0.5226480836236926,0.6547619047619038,Boroondara,0.4767520041375785,0.6864440548294697,Southern Metropolitan,0.3094055065177996
Balwyn,165 Balwyn Rd,0.6,h,0.786222222222222,S,Mandy,27/11/2016,0.44495412844036686,0.4975845410628021,1.0,0.4999999999999998,0.33333333333333337,0.5022658610271895,0.5400696864111496,0.5357142857142843,Boroondara,0.5000258598396676,0.6834555307619259,Southern Metropolitan,0.3094055065177996
Balwyn,47 Naroo St,0.4,h,0.7195555555555555,VB,Jellis,27/11/2016,0.44495412844036686,0.4975845410628021,0.6666666666666667,0.4999999999999998,1.0,0.4629909365558904,0.6724738675958186,0.5535714285714284,Boroondara,0.5002844582363686,0.6561603442779906,Southern Metropolitan,0.3094055065177996
Balwyn,3/12 Brenbeal St,0.19999999999999993,u,0.266222222222222,S,hockingstuart,28/08/2016,0.44495412844036686,0.4975845410628021,0.3333333333333333,0.0,0.33333333333333337,0.0981873111782476,0.2787456445993022,0.6547619047619038,Boroondara,0.48373416084821946,0.6936165125916753,Southern Metropolitan,0.3094055065177996
Balwyn,321a Union Rd,0.4,h,0.6084444444444442,SP,Noel,28/08/2016,0.44495412844036686,0.4975845410628021,0.6666666666666667,0.4999999999999998,0.6666666666666667,0.30513595166163165,0.6620209059233442,0.9583333333333308,Boroondara,0.49537108869927055,0.7205132291999048,Southern Metropolitan,0.3094055065177996
Balwyn,33 Power St,0.6,h,0.6973333333333331,VB,Marshall,30/07/2016,0.44495412844036686,0.4975845410628021,0.6666666666666667,0.0,0.33333333333333337,0.5075528700906339,0.4006968641114979,0.5059523809523809,Boroondara,0.48916472717870657,0.6768807778131956,Southern Metropolitan,0.3094055065177996
Balwyn North,3/41 Clifton St,0.4,t,0.5262222222222223,S,hockingstuart,3/09/2016,0.4220183486238532,0.5024154589371979,0.6666666666666667,0.4999999999999998,0.6666666666666667,0.1963746223564952,0.5818815331010451,0.8928571428571419,Boroondara,0.5235583139384707,0.7225055785782675,Southern Metropolitan,0.4337405740340211
Balwyn North,153 Doncaster Rd,0.4,h,0.6084444444444442,PI,Jellis,3/09/2016,0.4220183486238532,0.5024154589371979,0.6666666666666667,0.4999999999999998,0.33333333333333337,0.5876132930513601,0.5365853658536578,0.5952380952380953,Boroondara,0.5305404706490857,0.6762830729997202,Southern Metropolitan,0.4337405740340211
Balwyn North,25 Bolinda Rd,0.6,h,0.7884444444444444,S,Noel,3/12/2016,0.4220183486238532,0.5024154589371979,1.0,0.4999999999999998,0.6666666666666667,0.488670694864047,0.6445993031358883,0.6249999999999987,Boroondara,0.5362296353762737,0.6920226330889632,Southern Metropolitan,0.4337405740340211
Balwyn North,30 Hood St,0.6,h,0.786222222222222,VB,Fletchers,3/12/2016,0.4220183486238532,0.5024154589371979,1.0,0.4999999999999998,0.6666666666666667,0.4848942598187308,0.749128919860627,0.6249999999999987,Boroondara,0.5178691492112826,0.6637312719158464,Southern Metropolitan,0.4337405740340211
Balwyn North,36 Kenny St,0.4,h,0.9422222222222223,S,Marshall,3/12/2016,0.4220183486238532,0.5024154589371979,0.6666666666666667,0.0,0.6666666666666667,0.67069486404834,0.47735191637630636,0.5952380952380953,Boroondara,0.5142487716576376,0.7081606630538562,Southern Metropolitan,0.4337405740340211
Balwyn North,13 Riverview Rd,0.6,h,0.9217777777777779,PI,RW,3/12/2016,0.4220183486238532,0.5024154589371979,1.0,0.4999999999999998,0.6666666666666667,0.5664652567975824,0.7456445993031352,0.5952380952380953,Boroondara,0.5390742177398677,0.6760838380618395,Southern Metropolitan,0.4337405740340211
Balwyn North,43 Sweyn St,0.4,h,0.5039999999999999,S,hockingstuart,3/12/2016,0.4220183486238532,0.5024154589371979,0.6666666666666667,0.4999999999999998,0.33333333333333337,0.26208459214501356,0.5574912891986055,0.9583333333333308,Boroondara,0.5284716834755687,0.7252948677079862,Southern Metropolitan,0.4337405740340211
Balwyn North,14 Kawarren St,0.6,h,0.7195555555555555,S,Kay,4/03/2017,0.4220183486238532,0.5024154589371979,1.0,0.4999999999999998,0.6666666666666667,0.5083081570996966,0.6445993031358883,0.6547619047619038,Boroondara,0.5520041375743459,0.7019843799808876,Southern Metropolitan,0.4337405740340211
Balwyn North,88 Longview Rd,0.4,h,0.5862222222222219,VB,Jellis,4/03/2017,0.4220183486238532,0.5024154589371979,0.6666666666666667,0.0,0.6666666666666667,0.5022658610271895,0.432055749128919,0.5952380952380953,Boroondara,0.5504525471942177,0.6746891934970078,Southern Metropolitan,0.4337405740340211
Balwyn North,6 Stuart Ct,0.6,h,0.7528888888888889,S,Fletchers,4/03/2017,0.4220183486238532,0.5024154589371979,1.0,0.4999999999999998,1.0,0.5558912386706936,0.78397212543554,0.6428571428571428,Boroondara,0.5292474786656327,0.7239002231431546,Southern Metropolitan,0.4337405740340211
Balwyn North,15 Ellendale St,0.4,t,0.4528888888888887,S,Christopher,6/08/2016,0.4220183486238532,0.5024154589371979,0.6666666666666667,0.4999999999999998,0.33333333333333337,0.15634441087613066,0.5017421602787449,0.9107142857142834,Boroondara,0.5424359968968377,0.7023828498565934,Southern Metropolitan,0.4337405740340211
Balwyn North,5 Carrington St,0.6,h,0.7639999999999997,VB,Jellis,7/11/2016,0.4220183486238532,0.5024154589371979,1.0,0.4999999999999998,0.6666666666666667,0.46752265861027215,0.8850174216027868,0.8333333333333326,Boroondara,0.5083010085337487,0.687041759643001,Southern Metropolitan,0.4337405740340211
Balwyn North,3 Clive Ct,0.6,h,0.8884444444444445,PI,RW,8/10/2016,0.4220183486238532,0.5024154589371979,1.0,1.0,0.6666666666666667,0.9622356495468292,0.9581881533101045,0.7142857142857122,Boroondara,0.5607964830618029,0.6997927956646441,Southern Metropolitan,0.4337405740340211
Balwyn North,8 Cash St,0.6,h,0.7151111111111113,VB,Jellis,10/09/2016,0.4220183486238532,0.5024154589371979,1.0,0.4999999999999998,0.6666666666666667,0.4607250755286996,0.9581881533101045,0.8511904761904758,Boroondara,0.5553659167313159,0.6966050366592194,Southern Metropolitan,0.4337405740340211
Balwyn North,39 Kawarren St,0.6,h,0.559022222222222,S,Jellis,10/09/2016,0.4220183486238532,0.5024154589371979,0.6666666666666667,0.4999999999999998,0.33333333333333337,0.3904833836857995,0.8606271777003484,0.7142857142857122,Boroondara,0.5587276958882859,0.7035782594836,Southern Metropolitan,0.4337405740340211
Balwyn North,1 Bolinda Rd,0.4,h,0.6973333333333331,VB,Fletchers,13/08/2016,0.4220183486238532,0.5024154589371979,0.6666666666666667,0.4999999999999998,1.0,0.5762839879154087,0.5853658536585359,0.6547619047619038,Boroondara,0.5315748642358507,0.6914249282754321,Southern Metropolitan,0.4337405740340211
Balwyn North,56a Clifton St,0.4,h,0.4884444444444445,S,Noel,14/05/2016,0.4220183486238532,0.5024154589371979,0.6666666666666667,1.0,0.33333333333333337,0.23413897280966603,0.6550522648083617,0.9642857142857122,Boroondara,0.5279544866821926,0.7211109340134358,Southern Metropolitan,0.4337405740340211
Balwyn North,28 Walnut Rd,0.6,h,0.8084444444444443,S,Fletchers,14/05/2016,0.4220183486238532,0.5024154589371979,0.6666666666666667,1.0,0.6666666666666667,0.5022658610271895,0.8083623693379784,0.7142857142857122,Boroondara,0.5434703904835898,0.6991950908511131,Southern Metropolitan,0.4337405740340211
Balwyn North,54 Sutton St,0.4,h,0.7497777777777777,S,Fletchers,15/10/2016,0.4220183486238532,0.5024154589371979,0.6666666666666667,0.0,0.33333333333333337,0.5453172205438075,0.3135888501742151,0.47619047619047494,Boroondara,0.5261442979053637,0.6842524705132265,Southern Metropolitan,0.4337405740340211
Balwyn North,12 Clifton St,0.6,h,0.706222222222222,PI,Marshall,18/03/2017,0.4220183486238532,0.5024154589371979,1.0,1.0,0.6666666666666667,0.656344410876132,0.5923344947735184,0.5952380952380953,Boroondara,0.5142487716576376,0.7181224099457806,Southern Metropolitan,0.4337405740340211
Balwyn North,9 Seattle St,0.6,h,0.686222222222222,S,Fletchers,18/03/2017,0.4220183486238532,0.5024154589371979,1.0,0.4999999999999998,0.6666666666666667,0.5037764350453177,0.7003484320557489,0.7380952380952377,Boroondara,0.5574347039048588,0.6950111571565627,Southern Metropolitan,0.4337405740340211
Balwyn North,16 Sylvan St,0.6,t,0.6884444444444443,S,Noel,18/03/2017,0.4220183486238532,0.5024154589371979,1.0,1.0,0.33333333333333337,0.2734138972809651,0.6968641114982571,0.9761904761904749,Boroondara,0.5181277476079837,0.6760838380618395,Southern Metropolitan,0.4337405740340211
Balwyn North,5 Grieve St,0.6,h,0.9217777777777779,S,Fletchers,19/11/2016,0.4220183486238532,0.5024154589371979,1.0,0.4999999999999998,0.6666666666666667,0.7628398791540776,0.8710801393728217,0.5952380952380953,Boroondara,0.5194207395914237,0.6989958559133436,Southern Metropolitan,0.4337405740340211
Balwyn North,28 Severn St,0.4,h,0.875111111111111,VB,Jellis,19/11/2016,0.4220183486238532,0.5024154589371979,0.6666666666666667,0.4999999999999998,1.0,0.7167673716012087,0.6097560975609754,0.5357142857142843,Boroondara,0.5251099043185987,0.657754223780703,Southern Metropolitan,0.4337405740340211
Balwyn North,3/1 Corhampton Rd,0.19999999999999993,h,0.246222222222222,SP,Jellis,22/05/2016,0.4220183486238532,0.5024154589371979,0.3333333333333333,0.0,0.33333333333333337,0.13368580060422758,0.2961672473867592,0.7440476190476182,Boroondara,0.5315748642358507,0.654367229837453,Southern Metropolitan,0.4337405740340211
Balwyn North,85a Woodville St,0.4,h,0.5351111111111111,S,Fletchers,22/05/2016,0.4220183486238532,0.5024154589371979,0.6666666666666667,0.4999999999999998,0.6666666666666667,0.2779456193353468,0.616724738675958,0.9464285714285716,Boroondara,0.5545901215412647,0.7053713739241374,Southern Metropolitan,0.4337405740340211
Balwyn North,3/48 Alpha St,0.19999999999999993,u,0.40399999999999986,S,Fletchers,24/09/2016,0.4220183486238532,0.5024154589371979,0.3333333333333333,0.0,0.33333333333333337,0.18882175226585987,0.39024390243902346,0.8630952380952359,Boroondara,0.5158003620377656,0.7101530124322744,Southern Metropolitan,0.4337405740340211
Balwyn North,19 Hedderwick St,0.6,h,0.49733333333333296,VB,Marshall,25/02/2017,0.4220183486238532,0.5024154589371979,1.0,0.4999999999999998,0.6666666666666667,0.48640483383685895,0.533101045296167,0.5952380952380953,Boroondara,0.5155417636410646,0.7169270003187742,Southern Metropolitan,0.4337405740340211
Balwyn North,43 Helston St,0.6,h,0.6217777777777777,PI,hockingstuart,27/06/2016,0.4220183486238532,0.5024154589371979,1.0,0.4999999999999998,0.6666666666666667,0.5294561933534743,0.6898954703832745,0.6547619047619038,Boroondara,0.5564003103180808,0.7091568377430932,Southern Metropolitan,0.4337405740340211
Balwyn North,11 Milfay Ct,0.4,h,0.6755555555555556,S,Nelson,27/11/2016,0.4220183486238532,0.5024154589371979,0.6666666666666667,0.0,0.6666666666666667,0.4962235649546824,0.5261324041811843,0.6547619047619038,Boroondara,0.5419188001034618,0.7153331208160618,Southern Metropolitan,0.4337405740340211
Balwyn North,15 Ellendale St,0.4,h,0.40311111111111086,S,Christopher,28/05/2016,0.4220183486238532,0.5024154589371979,0.6666666666666667,0.4999999999999998,0.33333333333333337,0.15634441087613066,0.5017421602787449,0.9107142857142834,Boroondara,0.5424359968968377,0.7023828498565934,Southern Metropolitan,0.4337405740340211
Balwyn North,15 Maughan Pde,0.8,h,0.6795555555555555,PI,hockingstuart,28/05/2016,0.4220183486238532,0.5024154589371979,1.0,1.0,0.6666666666666667,0.5566465256797591,0.6724738675958186,0.5952380952380953,Boroondara,0.5212309283682526,0.7105514823079804,Southern Metropolitan,0.4337405740340211
Balwyn North,24 Willis St,0.4,h,0.7284444444444443,PI,Fletchers,28/08/2016,0.4220183486238532,0.5024154589371979,0.6666666666666667,0.4999999999999998,0.33333333333333337,0.5438066465256793,0.5121951219512192,0.6249999999999987,Boroondara,0.5307990690457867,0.6860455849537639,Southern Metropolitan,0.4337405740340211
Balwyn North,2/3 Hatfield St,0.19999999999999993,u,0.249111111111111,S,Fletchers,30/07/2016,0.4220183486238532,0.5024154589371979,0.6666666666666667,0.0,0.33333333333333337,0.0,0.35540069686411063,0.7023809523809521,Boroondara,0.5307990690457867,0.6517771756455037,Southern Metropolitan,0.4337405740340211
Bentleigh,1/236 Patterson Rd,0.4,u,0.3306666666666667,S,hockingstuart,3/09/2016,0.5963302752293578,0.985507246376813,0.6666666666666667,0.0,0.6666666666666667,0.262839879154079,0.4216027874564457,0.5952380952380953,Glen Eira,0.18557020946470565,0.6145202422696996,Southern Metropolitan,0.37446659262290277
Bentleigh,11 Rogers Rd,0.4,h,0.575111111111111,S,Buxton,3/12/2016,0.5963302752293578,0.985507246376813,0.6666666666666667,0.4999999999999998,0.6666666666666667,0.4629909365558904,0.4982578397212541,0.6547619047619038,Glen Eira,0.1757434703904836,0.6043592604398944,Southern Metropolitan,0.37446659262290277
Bentleigh,3/2 Scotts St,0.19999999999999993,t,0.31999999999999984,S,hockingstuart,3/12/2016,0.5963302752293578,0.985507246376813,0.3333333333333333,0.0,0.33333333333333337,0.10574018126888009,0.8710801393728217,0.7142857142857122,Glen Eira,0.20341349883630772,0.6073477845074939,Southern Metropolitan,0.37446659262290277
Bentleigh,11A Mortimore St,0.4,h,0.4851111111111108,S,Ray,4/02/2016,0.5963302752293578,0.985507246376813,0.6666666666666667,0.4999999999999998,0.6666666666666667,0.22583081570996805,0.6306620209059232,0.8928571428571419,Glen Eira,0.1858288078614067,0.5999760918074633,Southern Metropolitan,0.37446659262290277
Bentleigh,13 Somers St,0.4,h,0.5273333333333332,S,Buxton,4/06/2016,0.5963302752293578,0.985507246376813,0.6666666666666667,0.0,0.33333333333333337,0.43504531722054296,0.4425087108013934,0.5654761904761911,Glen Eira,0.2176364106542517,0.569692381255984,Southern Metropolitan,0.37446659262290277
Bentleigh,8/11 Brentwood St,0.19999999999999993,u,0.10177777777777769,PI,Buxton,6/08/2016,0.5963302752293578,0.985507246376813,0.3333333333333333,0.0,0.33333333333333337,0.0,0.24041811846689853,0.6845238095238089,Glen Eira,0.1703129040600097,0.6087424290723256,Southern Metropolitan,0.37446659262290277
Bentleigh,12b Coates St,0.6,t,0.5795555555555553,S,hockingstuart,6/08/2016,0.5963302752293578,0.985507246376813,0.6666666666666667,1.0,0.6666666666666667,0.21978851963746096,0.7386759581881526,0.9642857142857122,Glen Eira,0.18427721748126563,0.5862288810966387,Southern Metropolitan,0.37446659262290277
Bentleigh,156 Patterson Rd,0.4,h,0.43511111111111106,S,Buxton,6/08/2016,0.5963302752293578,0.985507246376813,0.6666666666666667,0.0,0.6666666666666667,0.5226586102719045,0.5714285714285707,0.5357142857142843,Glen Eira,0.18815619343161166,0.5987806821804011,Southern Metropolitan,0.37446659262290277
Bentleigh,23 Yawla St,0.4,h,0.6084444444444442,PI,hockingstuart,7/05/2016,0.5963302752293578,0.985507246376813,0.6666666666666667,0.4999999999999998,0.33333333333333337,0.42673716012084495,0.7735191637630655,0.5357142857142843,Glen Eira,0.22151538660459785,0.5714854956965214,Southern Metropolitan,0.37446659262290277
Bentleigh,39 Luckins Rd,0.6,h,0.5195555555555552,PI,Buxton,7/11/2016,0.5963302752293578,0.985507246376813,1.0,0.4999999999999998,0.6666666666666667,0.5264350453172207,0.6759581881533093,0.5357142857142843,Glen Eira,0.17393328161365457,0.6135240675805183,Southern Metropolitan,0.37446659262290277
Bentleigh,592 Centre Rd,0.4,h,0.44177777777777755,S,hockingstuart,8/10/2016,0.5963302752293578,0.985507246376813,0.6666666666666667,0.0,0.6666666666666667,0.4410876132930501,0.4041811846689887,0.5833333333333317,Glen Eira,0.2047064908197737,0.6141217723939938,Southern Metropolitan,0.37446659262290277
Bentleigh,74 Fromer St,0.6,h,0.5319999999999997,S,hockingstuart,10/09/2016,0.5963302752293578,0.985507246376813,0.6666666666666667,0.4999999999999998,0.6666666666666667,0.4607250755286996,0.39024390243902346,0.5357142857142843,Glen Eira,0.18091543832429574,0.6131255977048125,Southern Metropolitan,0.37446659262290277
Bentleigh,4 Gordon St,0.4,h,0.5373333333333334,S,hockingstuart,10/09/2016,0.5963302752293578,0.985507246376813,0.6666666666666667,0.4999999999999998,0.33333333333333337,0.39728096676737207,0.4703832752613238,0.3571428571428572,Glen Eira,0.18401861908456457,0.5808495377749707,Southern Metropolitan,0.37446659262290277
Bentleigh,58 London St,0.6,t,0.455111111111111,S,Buxton,10/09/2016,0.5963302752293578,0.985507246376813,1.0,1.0,0.6666666666666667,0.20468277945619315,0.7142857142857141,0.9523809523809521,Glen Eira,0.19100077579520564,0.6175087663372436,Southern Metropolitan,0.37446659262290277
Bentleigh,1/30 Daley St,0.19999999999999993,h,0.32177777777777783,SP,Marshall,10/12/2016,0.5963302752293578,0.985507246376813,0.3333333333333333,0.0,0.33333333333333337,0.22356495468277998,0.35888501742160245,0.5357142857142843,Glen Eira,0.1933281613653976,0.5939990436723197,Southern Metropolitan,0.37446659262290277
Bentleigh,13/27 Patterson Rd,0.19999999999999993,u,0.23066666666666663,SP,hockingstuart,10/12/2016,0.5963302752293578,0.985507246376813,0.3333333333333333,0.0,0.33333333333333337,0.08761329305135875,0.3205574912891977,0.6547619047619038,Glen Eira,0.19281096457202157,0.5860296461587577,Southern Metropolitan,0.37446659262290277
Bentleigh,11 Wheatley Rd,0.6,h,0.7684444444444444,PI,McGrath,12/11/2016,0.5963302752293578,0.985507246376813,1.0,0.4999999999999998,1.0,0.6457703927492461,0.6864111498257838,0.47619047619047494,Glen Eira,0.21401603310060674,0.5836388269046895,Southern Metropolitan,0.37446659262290277
Bentleigh,2/15 Jasper Rd,0.19999999999999993,u,0.26399999999999973,S,hockingstuart,13/08/2016,0.5963302752293578,0.985507246376813,0.3333333333333333,0.0,0.33333333333333337,0.17145015105740125,0.34843205574912806,0.8333333333333326,Glen Eira,0.17186449444013768,0.5961906279885631,Southern Metropolitan,0.37446659262290277
