suburb,address,rooms,type,price,method,sellerg,date,distance,postcode,bedrooms,bathrooms,car,landsize,buildingarea,build_year,councilarea,latitude,longitude,regionname,propertycount
Abbotsford,85 Turner St,0.1111111111111111,h,0.15647784632641615,S,Biggin,3/12/2016,0.05197505197505197,0.06857727737973374,0.1,0.125,0.1,0.0004664976190146277,,,Yarra,0.4947546575023978,0.5176512507537439,Northern Metropolitan,0.17615999252371384
Abbotsford,25 Bloomburg St,0.1111111111111111,h,0.1065619742007852,S,Biggin,4/02/2016,0.05197505197505197,0.06857727737973374,0.1,0.125,0.0,0.0003602654879518907,0.001774682691227676,0.856447688564477,Yarra,0.48403142037673774,0.5130831216766865,Northern Metropolitan,0.17615999252371384
Abbotsford,5 Charles St,0.2222222222222222,h,0.15479528883903534,SP,Biggin,4/03/2017,0.05197505197505197,0.06857727737973374,0.15000000000000002,0.25,0.0,0.00030945881657406,0.0033696506795462206,0.856447688564477,Yarra,0.48222268158446013,0.513996747492115,Northern Metropolitan,0.17615999252371384
Abbotsford,40 Federation La,0.2222222222222222,h,0.08581043185642176,PI,Biggin,4/03/2017,0.05197505197505197,0.06857727737973374,0.15000000000000002,0.25,0.1,0.00021708305043254954,,,Yarra,0.49824293945892606,0.5162808120306295,Northern Metropolitan,0.17615999252371384
Abbotsford,55a Park St,0.3333333333333333,h,0.16993830622546272,VB,Nelson,4/06/2016,0.05197505197505197,0.06857727737973374,0.15000000000000002,0.125,0.2,0.00027712729842453135,0.0031899359766370886,0.9951338199513382,Yarra,0.48493578977287655,0.5137226597474864,Northern Metropolitan,0.17615999252371384
Abbotsford,129 Charles St,0.1111111111111111,h,0.0960179472798654,S,Jellis,7/05/2016,0.05197505197505197,0.06857727737973374,0.1,0.125,0.0,0.0004180003417903348,,,Yarra,0.48894085424149836,0.5148190107259438,Northern Metropolitan,0.17615999252371384
Abbotsford,124 Yarra St,0.2222222222222222,h,0.20089736399326977,S,Nelson,7/05/2016,0.05197505197505197,0.06857727737973374,0.2,0.25,0.0,0.0005658015676167515,0.004717510951364709,0.8686131386861315,Yarra,0.49113717991783545,0.5184735139876295,Northern Metropolitan,0.17615999252371384
Abbotsford,98 Charles St,0.1111111111111111,h,0.17397644419517666,S,Nelson,8/10/2016,0.05197505197505197,0.06857727737973374,0.1,0.125,0.2,0.0005912049033056668,0.002403684151409637,0.8442822384428224,Yarra,0.4864861373091216,0.5149103733074867,Northern Metropolitan,0.17615999252371384
Abbotsford,6/241 Nicholson St,0.0,u,0.02411665731912507,S,Biggin,8/10/2016,0.05197505197505197,0.06857727737973374,0.05,0.125,0.1,0.0,,,Yarra,0.4932043099661527,0.5166462623567725,Northern Metropolitan,0.17615999252371384
Abbotsford,10 Valiant St,0.1111111111111111,h,0.11351654514862591,S,Biggin,8/10/2016,0.05197505197505197,0.06857727737973374,0.15000000000000002,0.125,0.2,0.0005080667137783075,0.0016848253397731103,0.856447688564477,Yarra,0.49294591871011306,0.5181080636614297,Northern Metropolitan,0.17615999252371384
Abbotsford,411/8 Grosvenor St,0.1111111111111111,u,0.06898485698261357,VB,Jellis,12/11/2016,0.05197505197505197,0.06857727737973374,0.1,0.25,0.1,0.0,,,Yarra,0.48002635590811593,0.5252343450216586,Northern Metropolitan,0.17615999252371384
Abbotsford,40 Nicholson St,0.2222222222222222,h,0.1418956814357824,VB,Nelson,12/11/2016,0.05197505197505197,0.06857727737973374,0.15000000000000002,0.25,0.2,0.0004942103488570808,0.004268224194091879,0.9841849148418491,Yarra,0.48325624660861166,0.5158239991229152,Northern Metropolitan,0.17615999252371384
Abbotsford,123/56 Nicholson St,0.1111111111111111,u,0.07459338194054964,S,Biggin,12/11/2016,0.05197505197505197,0.06857727737973374,0.1,0.25,0.1,0.0,0.002111647759182298,0.9890510948905111,Yarra,0.48416061600475757,0.5159153617044581,Northern Metropolitan,0.17615999252371384
Abbotsford,45 William St,0.1111111111111111,h,0.12198541783510938,S,Biggin,13/08/2016,0.05197505197505197,0.06857727737973374,0.1,0.125,0.1,0.0004503318599398634,,,Yarra,0.4833854422366386,0.5166462623567725,Northern Metropolitan,0.17615999252371384
Abbotsford,7/20 Abbotsford St,0.0,u,0.03993269770050477,SP,Greg,14/05/2016,0.05197505197505197,0.06857727737973374,0.05,0.125,0.1,0.0,,,Yarra,0.4921707449419941,0.5180167010798868,Northern Metropolitan,0.17615999252371384
Abbotsford,16 William St,0.1111111111111111,h,0.13740886146943354,S,Jellis,15/10/2016,0.05197505197505197,0.06857727737973374,0.1,0.125,0.2,0.0005496358085419871,0.0021790407727732227,0.8442822384428224,Yarra,0.4826102684685196,0.5169203501014294,Northern Metropolitan,0.17615999252371384
Abbotsford,42 Henry St,0.2222222222222222,h,0.1250701065619742,S,Jellis,16/07/2016,0.05197505197505197,0.06857727737973374,0.15000000000000002,0.25,0.1,0.000260961539349767,0.0024710771650005617,0.8321167883211678,Yarra,0.4870029198211938,0.512717671350515,Northern Metropolitan,0.17615999252371384
Abbotsford,78 Yarra St,0.2222222222222222,h,0.12243409983174425,S,LITTLE,16/07/2016,0.05197505197505197,0.06857727737973374,0.1,0.125,0.1,0.00031869639318821103,0.0023587554756823543,0.8442822384428224,Yarra,0.49152476680188784,0.5159153617044581,Northern Metropolitan,0.17615999252371384
Abbotsford,196 Nicholson St,0.2222222222222222,h,0.0975883342680875,S,Collins,17/09/2016,0.05197505197505197,0.06857727737973374,0.15000000000000002,0.125,0.0,0.0004226191300974103,,,Yarra,0.4913955711738751,0.5168289875198866,Northern Metropolitan,0.17615999252371384
Abbotsford,42 Valiant St,0.1111111111111111,h,0.09029725182277061,S,Biggin,17/09/2016,0.05197505197505197,0.06857727737973374,0.1,0.125,0.1,0.00034640912303066416,0.0016398966640458273,0.9598540145985404,Yarra,0.49281672308209323,0.5194785023845725,Northern Metropolitan,0.17615999252371384
Abbotsford,3/72 Charles St,0.3333333333333333,h,0.13965227145260797,PI,Kay,18/03/2017,0.05197505197505197,0.06857727737973374,0.2,0.25,0.2,0.0018013274397594536,0.0030326856115915984,0.856447688564477,Yarra,0.4848065941448567,0.5147276481444294,Northern Metropolitan,0.17615999252371384
Abbotsford,13/11 Nicholson St,0.2222222222222222,t,0.09141895681435783,S,Beller,18/03/2017,0.05197505197505197,0.06857727737973374,0.15000000000000002,0.25,0.2,0.0,,0.9902676399026766,Yarra,0.48222268158446013,0.5153671862152294,Northern Metropolitan,0.17615999252371384
Abbotsford,138/56 Nicholson St,0.2222222222222222,u,0.11273135165451487,S,Jellis,18/03/2017,0.05197505197505197,0.06857727737973374,0.15000000000000002,0.25,0.2,0.009907300918676995,0.0006065371223183197,,Yarra,0.48416061600475757,0.5159153617044581,Northern Metropolitan,0.17615999252371384
Abbotsford,6/219 Nicholson St,0.1111111111111111,u,0.046550757150869315,S,Collins,18/06/2016,0.05197505197505197,0.06857727737973374,0.1,0.125,0.1,0.0,0.0013478602718184883,0.9416058394160582,Yarra,0.4922999405700139,0.5165548997752296,Northern Metropolitan,0.17615999252371384
Abbotsford,52a William St,0.1111111111111111,h,0.11385305664610208,PI,Biggin,18/06/2016,0.05197505197505197,0.06857727737973374,0.1,0.25,0.1,0.00028636487503868235,0.0030326856115915984,0.9939172749391727,Yarra,0.48403142037673774,0.5170117126829723,Northern Metropolitan,0.17615999252371384
Abbotsford,49 Park St,0.1111111111111111,h,0.13796971396522714,S,Marshall,19/11/2016,0.05197505197505197,0.06857727737973374,0.1,0.125,0.0,0.00033948094057005085,0.001909468718409525,0.856447688564477,Yarra,0.4839022247487179,0.5136312971659436,Northern Metropolitan,0.17615999252371384
Abbotsford,5/20 Abbotsford St,0.0,u,0.03825014021312395,SP,Greg,22/08/2016,0.05197505197505197,0.06857727737973374,0.05,0.125,0.1,0.0,,,Yarra,0.4921707449419941,0.5180167010798868,Northern Metropolitan,0.17615999252371384
Abbotsford,48 Abbotsford St,0.2222222222222222,h,0.15283230510375773,PI,Nelson,22/08/2016,0.05197505197505197,0.06857727737973374,0.15000000000000002,0.375,0.1,0.00038335942948726834,0.003908794788273616,0.9927007299270072,Yarra,0.49204154931397426,0.5192044146399439,Northern Metropolitan,0.17615999252371384
Abbotsford,116/56 Nicholson St,0.0,u,0.04172742568704431,S,Jellis,22/08/2016,0.05197505197505197,0.06857727737973374,0.05,0.125,0.1,0.0,0.0011232168931820735,,Yarra,0.48416061600475757,0.5159153617044581,Northern Metropolitan,0.17615999252371384
Abbotsford,159 Park St,0.1111111111111111,h,0.11777902411665733,S,Nelson,22/08/2016,0.05197505197505197,0.06857727737973374,0.1,0.25,0.2,0.00022632062704670058,0.002875435246546108,0.8807785888077861,Yarra,0.4935918968502122,0.5147276481444294,Northern Metropolitan,0.17615999252371384
Abbotsford,31 Turner St,0.3333333333333333,h,0.16343241727425686,S,Collins,24/09/2016,0.05197505197505197,0.06857727737973374,0.2,0.375,0.1,0.0,,,Yarra,0.49501304875843033,0.5159153617044581,Northern Metropolitan,0.17615999252371384
Abbotsford,166 Gipps St,0.2222222222222222,h,0.1351654514862591,S,Biggin,25/02/2017,0.05197505197505197,0.06857727737973374,0.15000000000000002,0.25,0.2,0.00033948094057005085,0.00040435808154554647,,Yarra,0.4877780935893128,0.5139053849105721,Northern Metropolitan,0.17615999252371384
Abbotsford,60 Stafford St,0.2222222222222222,h,0.1351654514862591,S,Biggin,25/02/2017,0.05197505197505197,0.06857727737973374,0.15000000000000002,0.125,0.1,0.00038797821779434384,0.002785577895091542,0.9172749391727495,Yarra,0.49333350559417255,0.5152758236336865,Northern Metropolitan,0.17615999252371384
Abbotsford,11/205 Gipps St,0.0,u,0.04318564217610768,S,Nelson,26/07/2016,0.05197505197505197,0.06857727737973374,0.05,0.125,0.1,0.0,0.0011232168931820735,0.9939172749391727,Yarra,0.48713211544921364,0.5155499113783151,Northern Metropolitan,0.17615999252371384
Abbotsford,47 Studley St,0.1111111111111111,h,0.12282669657879977,S,Jellis,27/11/2016,0.05197505197505197,0.06857727737973374,0.1,0.125,0.0,0.0003741218528731173,0.002044254745591374,0.856447688564477,Yarra,0.4921707449419941,0.5150930984705724,Northern Metropolitan,0.17615999252371384
Abbotsford,45 Yarra St,0.2222222222222222,h,0.1245092540661806,SP,Jellis,27/11/2016,0.05197505197505197,0.06857727737973374,0.15000000000000002,0.25,0.1,0.00027712729842453135,0.002875435246546108,0.975669099756691,Yarra,0.4913955711738751,0.5149103733074867,Northern Metropolitan,0.17615999252371384
Abbotsford,200 Nicholson St,0.1111111111111111,h,0.10403813796971396,S,Nelson,28/05/2016,0.05197505197505197,0.06857727737973374,0.1,0.125,0.0,0.0004203097359438725,0.0018420757048186005,0.856447688564477,Yarra,0.49152476680188784,0.5169203501014294,Northern Metropolitan,0.17615999252371384
Abbotsford,27 Charles St,0.1111111111111111,h,0.1060011217049916,S,Biggin,30/07/2016,0.05197505197505197,0.06857727737973374,0.1,0.125,0.1,0.0003972157944084949,0.001819611366954959,0.8929440389294403,Yarra,0.48312705098059894,0.5141794726551723,Northern Metropolitan,0.17615999252371384
Airport West,154 Halsey Rd,0.2222222222222222,t,0.08468872686483456,PI,Nelson,3/09/2016,0.2806652806652806,0.04298874104401218,0.15000000000000002,0.25,0.1,0.0006997464285219416,0.0050544760193193304,0.9975669099756692,Moonee Valley,0.6001782899666637,0.40765070257825187,Western Metropolitan,0.15022662492406896
Airport West,50 Bedford St,0.2222222222222222,h,0.07234997195737522,VB,Nelson,3/12/2016,0.2806652806652806,0.04298874104401218,0.15000000000000002,0.25,0.1,0.0,0.003257328990228013,0.9355231143552312,Moonee Valley,0.5972067905222076,0.40536663803970896,Western Metropolitan,0.15022662492406896
Airport West,50 Bedford St,0.2222222222222222,h,0.07683679192372407,SP,Nelson,4/03/2017,0.2806652806652806,0.04298874104401218,0.15000000000000002,0.25,0.1,0.0,0.003257328990228013,0.9355231143552312,Moonee Valley,0.5972067905222076,0.40536663803970896,Western Metropolitan,0.15022662492406896
Airport West,23 Hart St,0.1111111111111111,h,0.05810431856421762,S,Nelson,4/03/2017,0.2806652806652806,0.04298874104401218,0.1,0.125,0.1,0.000628155209762271,0.0018870043805458835,0.9172749391727495,Moonee Valley,0.585449988372396,0.41678696073236665,Western Metropolitan,0.15022662492406896
Airport West,1/80 Hawker St,0.2222222222222222,t,0.06898485698261357,S,Brad,4/03/2017,0.2806652806652806,0.04298874104401218,0.15000000000000002,0.25,0.2,0.0005519452026955248,0.003010221273727957,0.9890510948905111,Moonee Valley,0.5952688561019102,0.41285836972610923,Western Metropolitan,0.15022662492406896
Airport West,1/37 Hillside Gr,0.2222222222222222,h,0.05776780706674145,S,Maddison,4/03/2017,0.2806652806652806,0.04298874104401218,0.1,0.125,0.1,0.0006697243045259507,0.0026058631921824105,0.9537712895377128,Moonee Valley,0.5881630965608124,0.404361649642766,Western Metropolitan,0.15022662492406896
Airport West,2/49 McIntosh St,0.1111111111111111,u,0.046550757150869315,VB,Barry,4/03/2017,0.2806652806652806,0.04298874104401218,0.1,0.125,0.1,0.00038797821779434384,0.0019319330562731665,0.9914841849148417,Moonee Valley,0.5956564429859696,0.4153251594277094,Western Metropolitan,0.15022662492406896
Airport West,54 Marshall Rd,0.2222222222222222,h,0.071228266965788,S,Barry,6/08/2016,0.2806652806652806,0.04298874104401218,0.1,0.125,0.1,0.0014318243751934119,,,Moonee Valley,0.6010826593628096,0.41605606008005225,Western Metropolitan,0.15022662492406896
Airport West,36 Roberts Rd,0.3333333333333333,h,0.07851934941110489,S,Considine,6/08/2016,0.2806652806652806,0.04298874104401218,0.15000000000000002,0.125,0.2,0.0013787083096620434,0.0028529709086824668,,Moonee Valley,0.5899718353530901,0.4087470535567377,Western Metropolitan,0.15022662492406896
Airport West,11 Harrington Rd,0.5555555555555556,h,0.0717891194615816,SP,Barry,7/05/2016,0.2806652806652806,0.04298874104401218,0.30000000000000004,0.375,0.2,0.002253968693852855,0.004178366842637313,0.9537712895377128,Moonee Valley,0.5925557479134937,0.40353938640890874,Western Metropolitan,0.15022662492406896
Airport West,2/252 Parer Rd,0.1111111111111111,t,0.04094223219293326,S,Barry,7/05/2016,0.2806652806652806,0.04298874104401218,0.1,0.125,0.1,0.0002540333568891537,0.002021790407727732,0.9963503649635037,Moonee Valley,0.5955272473579498,0.40125532187039425,Western Metropolitan,0.15022662492406896
Airport West,3/19 Hart St,0.1111111111111111,u,0.04823331463825015,S,Barry,7/11/2016,0.2806652806652806,0.04298874104401218,0.1,0.125,0.1,0.0003256245756488243,0.0016398966640458273,0.9939172749391727,Moonee Valley,0.5849332058603167,0.4170610484769668,Western Metropolitan,0.15022662492406896
Airport West,2/62 Clydesdale Rd,0.1111111111111111,u,0.049915872125630964,S,Nelson,10/09/2016,0.2806652806652806,0.04298874104401218,0.1,0.125,0.1,0.00027712729842453135,0.002111647759182298,0.9927007299270072,Moonee Valley,0.5932017260535929,0.4087470535567377,Western Metropolitan,0.15022662492406896
Airport West,3 Deidre Ct,0.2222222222222222,h,0.09085810431856423,PI,Rendina,10/09/2016,0.2806652806652806,0.04298874104401218,0.15000000000000002,0.125,0.6000000000000001,0.00245488598521064,0.0029877569358643156,0.9476885644768858,Moonee Valley,0.5912637916332955,0.4028998483381372,Western Metropolitan,0.15022662492406896
Airport West,13 Etzel St,0.2222222222222222,h,0.08076275939427931,S,Nelson,10/12/2016,0.2806652806652806,0.04298874104401218,0.15000000000000002,0.125,0.1,0.0,0.0023587554756823543,0.9172749391727495,Moonee Valley,0.59539805172993,0.4079247903228804,Western Metropolitan,0.15022662492406896
Airport West,1/43 Cameron St,0.2222222222222222,u,0.07481772293886708,S,Nelson,11/02/2017,0.2806652806652806,0.04298874104401218,0.15000000000000002,0.125,0.1,0.0006119894506875067,0.002920363922273391,0.969586374695864,Moonee Valley,0.5844164233482303,0.41450289619385217,Western Metropolitan,0.15022662492406896
Airport West,145a Victory Rd,0.1111111111111111,u,0.039820527201346045,S,Barry,13/08/2016,0.2806652806652806,0.04298874104401218,0.1,0.125,0.1,0.0004434036774792501,,,Moonee Valley,0.6005658768507303,0.40829024064905184,Western Metropolitan,0.15022662492406896
Airport West,241 Parer Rd,0.4444444444444445,h,0.07515423443634324,PI,Propertyau,14/05/2016,0.2806652806652806,0.04298874104401218,0.15000000000000002,0.25,0.2,0.0013763989155085056,,,Moonee Valley,0.5913929872613082,0.40025033347342287,Western Metropolitan,0.15022662492406896
Airport West,2/40 Earl St,0.2222222222222222,t,0.06898485698261357,PI,Brad,15/10/2016,0.2806652806652806,0.04298874104401218,0.15000000000000002,0.25,0.2,0.0003810500353337306,0.0029877569358643156,0.9890510948905111,Moonee Valley,0.588550683444879,0.4158733349169381,Western Metropolitan,0.15022662492406896
Airport West,180 Parer Rd,0.2222222222222222,h,0.08356702187324734,S,Barry,16/04/2016,0.2806652806652806,0.04298874104401218,0.15000000000000002,0.125,0.2,0.002242421723085166,0.002538470178591486,0.9294403892944041,Moonee Valley,0.5994031161985447,0.4058234509474232,Western Metropolitan,0.15022662492406896
Airport West,4/54 Hawker St,0.1111111111111111,u,0.04234436343241728,S,Barry,16/07/2016,0.2806652806652806,0.04298874104401218,0.1,0.125,0.1,0.0003787406411801928,,0.9817518248175181,Moonee Valley,0.5952688561019102,0.41523379684616657,Western Metropolitan,0.15022662492406896
Airport West,43 Hillside Gr,0.2222222222222222,h,0.06561974200785194,SP,Barry,16/07/2016,0.2806652806652806,0.04298874104401218,0.15000000000000002,0.25,0.2,0.001517271958874309,,,Moonee Valley,0.5886798790728918,0.4041789244796803,Western Metropolitan,0.15022662492406896
Airport West,174 Parer Rd,0.1111111111111111,h,0.06618059450364555,S,Barry,16/07/2016,0.2806652806652806,0.04298874104401218,0.1,0.125,0.1,0.0014133492219651096,0.002246433786364147,0.9476885644768858,Moonee Valley,0.599273920570532,0.4062802638551375,Western Metropolitan,0.15022662492406896
Airport West,138 Victory Rd,0.2222222222222222,h,0.10734716769489624,S,Nelson,16/07/2016,0.2806652806652806,0.04298874104401218,0.15000000000000002,0.25,0.5,0.0014133492219651096,0.003908794788273616,0.9172749391727495,Moonee Valley,0.6010826593628096,0.4091125038829091,Western Metropolitan,0.15022662492406896
Airport West,75 King St,0.2222222222222222,h,0.09254066180594504,S,McDonald,17/09/2016,0.2806652806652806,0.04298874104401218,0.15000000000000002,0.125,0.1,0.0017897804689917648,,,Moonee Valley,0.5935893129376524,0.4126756445630235,Western Metropolitan,0.15022662492406896
Airport West,6 Kittyhawk St,0.3333333333333333,h,0.07717330342120023,S,Brad,17/09/2016,0.2806652806652806,0.04298874104401218,0.25,0.375,0.4,0.0012262882955285511,0.006941480399865215,0.9537712895377128,Moonee Valley,0.5894550528410107,0.39842308184259423,Western Metropolitan,0.15022662492406896
Airport West,478 Fullarton Rd,0.2222222222222222,h,0.08132361189007291,PI,Barry,18/03/2017,0.2806652806652806,0.04298874104401218,0.15000000000000002,0.375,0.2,0.0012817137552134574,0.004313152869819162,0.9537712895377128,Moonee Valley,0.5866127490245816,0.399793520565737,Western Metropolitan,0.15022662492406896
Airport West,144 Marshall Rd,0.2222222222222222,h,0.07066741446999439,S,Rendina,18/03/2017,0.2806652806652806,0.04298874104401218,0.15000000000000002,0.25,0.2,0.0009745643327929352,0.0028305065708188254,0.9720194647201945,Moonee Valley,0.602245420014988,0.4087470535567377,Western Metropolitan,0.15022662492406896
Airport West,106 Parer Rd,0.2222222222222222,h,0.07908020190689849,S,Nelson,18/03/2017,0.2806652806652806,0.04298874104401218,0.15000000000000002,0.125,0.30000000000000004,0.0014179680102721854,,,Moonee Valley,0.5983695511743932,0.4119447439106807,Western Metropolitan,0.15022662492406896
Airport West,3/7 South Rd,0.2222222222222222,t,0.051037577117218166,SP,Nelson,18/06/2016,0.2806652806652806,0.04298874104401218,0.1,0.25,0.1,0.00037181245871957953,0.0022688981242277883,0.9902676399026766,Moonee Valley,0.5935893129376524,0.4096606793721662,Western Metropolitan,0.15022662492406896
Airport West,37 North St,0.2222222222222222,t,0.08300616937745374,SP,Barry,19/11/2016,0.2806652806652806,0.04298874104401218,0.15000000000000002,0.25,0.1,0.000676652486986564,0.00229136246209143,0.9294403892944041,Moonee Valley,0.5975943774062742,0.40728525225208045,Western Metropolitan,0.15022662492406896
Airport West,10 Hilbert Rd,0.2222222222222222,h,0.06730229949523275,S,Barry,22/05/2016,0.2806652806652806,0.04298874104401218,0.15000000000000002,0.125,0.1,0.0013371392148983636,0.002538470178591486,0.9476885644768858,Moonee Valley,0.5942352910777515,0.40335666124582303,Western Metropolitan,0.15022662492406896
Airport West,110 Halsey Rd,0.2222222222222222,h,0.08076275939427931,S,Barry,22/08/2016,0.2806652806652806,0.04298874104401218,0.15000000000000002,0.125,0.1,0.0014387525576540251,,,Moonee Valley,0.5996615074545844,0.41130520583990915,Western Metropolitan,0.15022662492406896
Airport West,2/13 North St,0.1111111111111111,u,0.04767246214245653,S,Nelson,22/08/2016,0.2806652806652806,0.04298874104401218,0.1,0.125,0.1,0.0003256245756488243,0.0017072896776367517,,Moonee Valley,0.5973359861502345,0.40920386646445195,Western Metropolitan,0.15022662492406896
Airport West,105a Victory Rd,0.2222222222222222,h,0.05911385305664611,S,Nelson,22/08/2016,0.2806652806652806,0.04298874104401218,0.15000000000000002,0.25,0.1,0.0004895915605500053,,,Moonee Valley,0.600049094338651,0.41167065616605214,Western Metropolitan,0.15022662492406896
Airport West,117 Marshall Rd,0.2222222222222222,h,0.06472237801458217,S,Brad,23/04/2016,0.2806652806652806,0.04298874104401218,0.15000000000000002,0.125,0.2,0.0014133492219651096,,,Moonee Valley,0.6015994418748889,0.41084839293216646,Western Metropolitan,0.15022662492406896
Airport West,34 Moorna Dr,0.3333333333333333,h,0.10016825574873808,S,Nelson,24/09/2016,0.2806652806652806,0.04298874104401218,0.2,0.375,0.2,0.001228597689682089,,,Moonee Valley,0.5894550528410107,0.3994280702395656,Western Metropolitan,0.15022662492406896
Airport West,33 North St,0.2222222222222222,h,0.071228266965788,PI,Nelson,25/02/2017,0.2806652806652806,0.04298874104401218,0.15000000000000002,0.125,0.1,0.0013509955798195901,,,Moonee Valley,0.5975943774062742,0.40765070257825187,Western Metropolitan,0.15022662492406896
Airport West,49 Roberts Rd,0.3333333333333333,h,0.07627593942793046,S,Prof.,27/11/2016,0.2806652806652806,0.04298874104401218,0.2,0.125,0.2,0.0011754816241507204,,,Moonee Valley,0.5897134440970504,0.40810751548596613,Western Metropolitan,0.15022662492406896
Airport West,85 Roberts Rd,0.3333333333333333,h,0.09141895681435783,S,Harcourts,27/11/2016,0.2806652806652806,0.04298874104401218,0.2,0.25,0.30000000000000004,0.0014502995284217139,0.0032797933280916546,0.9476885644768858,Moonee Valley,0.5903594222371567,0.40390483673505173,Western Metropolitan,0.15022662492406896
Albert Park,105 Kerferd Rd,0.1111111111111111,h,0.1334828939988783,S,hockingstuart,3/09/2016,0.0686070686070686,0.21084953940634588,0.1,0.125,0.0,0.00027712729842453135,0.0018420757048186005,0.856447688564477,Port Phillip,0.4349370817291529,0.4784567032725988,Southern Metropolitan,0.1416288958459885
Albert Park,85 Richardson St,0.1111111111111111,h,0.15367358384744811,S,Thomson,3/09/2016,0.0686070686070686,0.21084953940634588,0.1,0.125,0.0,0.00036719367041250403,,,Port Phillip,0.4360998423813385,0.47690353938639873,Southern Metropolitan,0.1416288958459885
Albert Park,112 Beaconsfield Pde,0.2222222222222222,h,0.31015143017386426,PI,Buxton,4/03/2017,0.0686070686070686,0.21084953940634588,0.15000000000000002,0.25,0.0,0.0004872821663964676,0.004447938897001011,0.8442822384428224,Port Phillip,0.43209477791271667,0.4733403987063127,Southern Metropolitan,0.1416288958459885
Albert Park,94 Graham St,0.2222222222222222,h,0.19798093101514302,S,Greg,4/03/2017,0.0686070686070686,0.21084953940634588,0.15000000000000002,0.25,0.0,0.0002956024516528334,0.0029877569358643156,0.8442822384428224,Port Phillip,0.4358414511252988,0.47233541030936976,Southern Metropolitan,0.1416288958459885
Albert Park,396 Montague St,0.1111111111111111,h,0.15154234436343242,S,RT,4/03/2017,0.0686070686070686,0.21084953940634588,0.1,0.125,0.0,0.0003002212399599089,0.001819611366954959,0.856447688564477,Port Phillip,0.43855455931371523,0.47937032908802735,Southern Metropolitan,0.1416288958459885
Albert Park,75 Graham St,0.1111111111111111,h,0.11497476163768929,S,Marshall,6/08/2016,0.0686070686070686,0.21084953940634588,0.05,0.125,0.0,0.00033948094057005085,,0.856447688564477,Port Phillip,0.43687501614945745,0.47196995998316993,Southern Metropolitan,0.1416288958459885
Albert Park,54 Brooke St,0.1111111111111111,h,0.16432978126752665,S,Sotheby's,7/05/2016,0.0686070686070686,0.21084953940634588,0.1,0.125,0.1,0.0003856688236408061,,,Port Phillip,0.4419136456422379,0.47535037550019865,Southern Metropolitan,0.1416288958459885
Albert Park,104 Richardson St,0.3333333333333333,h,0.24845765563656758,S,Marshall,7/05/2016,0.0686070686070686,0.21084953940634588,0.2,0.25,0.1,0.0003533373054912774,0.004043580815455464,0.8321167883211678,Port Phillip,0.43648742926539086,0.4755331006633128,Southern Metropolitan,0.1416288958459885
Albert Park,4a Mills St,0.2222222222222222,t,0.16432978126752665,VB,Marshall,7/11/2016,0.0686070686070686,0.21084953940634588,0.15000000000000002,0.25,0.2,0.0016581450022401124,,,Port Phillip,0.4370042117774773,0.48238529427888466,Southern Metropolitan,0.1416288958459885
Albert Park,1 Moubray St,0.2222222222222222,h,0.19237240605720696,VB,Greg,7/11/2016,0.0686070686070686,0.21084953940634588,0.15000000000000002,0.25,0.1,0.00030484002826698447,0.0035718297203189936,0.97323600973236,Port Phillip,0.4406216893620325,0.4752590129186558,Southern Metropolitan,0.1416288958459885
Albert Park,29 Faussett St,0.1111111111111111,h,0.22826696578799777,S,Greg,10/09/2016,0.0686070686070686,0.21084953940634588,0.1,0.125,0.1,0.00045956943655401446,0.002403684151409637,0.856447688564477,Port Phillip,0.4397173199658937,0.47836534069105596,Southern Metropolitan,0.1416288958459885
Albert Park,3 Herbert St,0.2222222222222222,h,0.19237240605720696,VB,Cayzer,10/09/2016,0.0686070686070686,0.21084953940634588,0.15000000000000002,0.125,0.1,0.0005842767208450536,,,Port Phillip,0.4370042117774773,0.48064940522959887,Southern Metropolitan,0.1416288958459885
Albert Park,24 Kerferd Pl,0.2222222222222222,h,0.19237240605720696,S,Marshall,10/09/2016,0.0686070686070686,0.21084953940634588,0.15000000000000002,0.25,0.1,0.00020784547381839848,0.0027406492193642593,0.856447688564477,Port Phillip,0.4398465155939135,0.47991850457725604,Southern Metropolitan,0.1416288958459885
Albert Park,44 Draper St,0.1111111111111111,h,0.19349411104879416,PI,Greg,10/12/2016,0.0686070686070686,0.21084953940634588,0.1,0.125,0.0,0.0005542545968490627,,,Port Phillip,0.44527273197075345,0.4769949019679416,Southern Metropolitan,0.1416288958459885
Albert Park,2 Dundas Pl,0.2222222222222222,h,0.28379136287156476,S,Cayzer,10/12/2016,0.0686070686070686,0.21084953940634588,0.15000000000000002,0.25,0.1,0.0004087627651761837,0.0040660451533191064,0.8321167883211678,Port Phillip,0.4406216893620325,0.48119758071882757,Southern Metropolitan,0.1416288958459885
Albert Park,23 Finlay St,0.4444444444444445,h,0.22602355580482333,S,Greg,10/12/2016,0.0686070686070686,0.21084953940634588,0.25,0.25,0.1,0.0005473264143884493,,,Port Phillip,0.437908581173609,0.4786394284356845,Southern Metropolitan,0.1416288958459885
Albert Park,31 Richardson St,0.2222222222222222,h,0.13628715647784634,S,hockingstuart,10/12/2016,0.0686070686070686,0.21084953940634588,0.15000000000000002,0.125,0.0,0.00029791184580637116,,,Port Phillip,0.4397173199658937,0.4725181354723986,Southern Metropolitan,0.1416288958459885
Albert Park,4a Gatehouse La,0.2222222222222222,h,0.1441390914189568,S,Greg,12/06/2016,0.0686070686070686,0.21084953940634588,0.15000000000000002,0.25,0.2,0.0,0.001909468718409525,0.978102189781022,Port Phillip,0.43597064675331154,0.47443674968479854,Southern Metropolitan,0.1416288958459885
Albert Park,60 Brooke St,0.1111111111111111,h,0.10263600673022995,S,Cayzer,12/11/2016,0.0686070686070686,0.21084953940634588,0.1,0.125,0.0,0.0006651055162188752,,,Port Phillip,0.44165525438619824,0.4755331006633128,Southern Metropolitan,0.1416288958459885
Albert Park,70 Barrett St,0.2222222222222222,h,0.27930454290521595,S,Greg,15/10/2016,0.0686070686070686,0.21084953940634588,0.15000000000000002,0.25,0.1,0.0005265418670066095,,,Port Phillip,0.4367458205214376,0.47352312386937,Southern Metropolitan,0.1416288958459885
Albert Park,65 Graham St,0.1111111111111111,h,0.13881099270891756,S,Greg,15/10/2016,0.0686070686070686,0.21084953940634588,0.1,0.125,0.0,0.0003440997288771264,0.002201505110636864,0.8442822384428224,Port Phillip,0.4370042117774773,0.4716958722385698,Southern Metropolitan,0.1416288958459885
Albert Park,364 Montague St,0.1111111111111111,h,0.16573191250701066,S,Greg,15/10/2016,0.0686070686070686,0.21084953940634588,0.1,0.125,0.0,0.0003256245756488243,0.001864540042682242,0.8442822384428224,Port Phillip,0.43945892870985404,0.4790962413433988,Southern Metropolitan,0.1416288958459885
Albert Park,86 Mills St,0.2222222222222222,h,0.2148065058889512,VB,RT,16/04/2016,0.0686070686070686,0.21084953940634588,0.15000000000000002,0.25,0.1,0.0004872821663964676,0.003302257665955296,0.856447688564477,Port Phillip,0.4335159298209348,0.48028395490342746,Southern Metropolitan,0.1416288958459885
Albert Park,129 Kerferd Rd,0.2222222222222222,h,0.2035894559730791,S,Greg,18/03/2017,0.0686070686070686,0.21084953940634588,0.15000000000000002,0.125,0.0,0.0004826633780893921,,0.856447688564477,Port Phillip,0.43377432107697445,0.47763444003874156,Southern Metropolitan,0.1416288958459885
Albert Park,97 Page St,0.2222222222222222,h,0.32809871003925967,S,Greg,18/03/2017,0.0686070686070686,0.21084953940634588,0.15000000000000002,0.25,0.0,0.00033948094057005085,0.0032797933280916546,0.8442822384428224,Port Phillip,0.4331283429368824,0.4780912529464274,Southern Metropolitan,0.1416288958459885
Albert Park,55 Withers St,0.3333333333333333,h,0.3045429052159282,VB,Cayzer,18/06/2016,0.0686070686070686,0.21084953940634588,0.2,0.375,0.1,0.0007551718882068478,0.0057059418173649335,0.8686131386861315,Port Phillip,0.4339035167050014,0.47114769674931267,Southern Metropolitan,0.1416288958459885
Albert Park,10/140 Kerferd Rd,0.1111111111111111,u,0.06303982052720135,S,Greg,22/05/2016,0.0686070686070686,0.21084953940634588,0.1,0.125,0.1,0.0,,,Port Phillip,0.4348078861011402,0.47726898971257015,Southern Metropolitan,0.1416288958459885
Albert Park,55 Merton St,0.2222222222222222,h,0.22602355580482333,SP,Marshall,23/04/2016,0.0686070686070686,0.21084953940634588,0.1,0.125,0.1,0.00027712729842453135,0.0027631135572279007,0.856447688564477,Port Phillip,0.43907134182579455,0.47763444003874156,Southern Metropolitan,0.1416288958459885
Albert Park,49 Page St,0.2222222222222222,h,0.2148065058889512,PI,Marshall,24/09/2016,0.0686070686070686,0.21084953940634588,0.15000000000000002,0.125,0.1,0.0005496358085419871,0.0029428282601370328,0.8442822384428224,Port Phillip,0.43467869047311325,0.4759899135709986,Southern Metropolitan,0.1416288958459885
Albert Park,13/52 Moubray St,0.0,u,0.040100953449242846,S,Marshall,25/02/2017,0.0686070686070686,0.21084953940634588,0.05,0.125,0.0,0.0,0.0007637874873638099,0.9416058394160582,Port Phillip,0.4398465155939135,0.47498492517402724,Southern Metropolitan,0.1416288958459885
Albert Park,115 Page St,0.3333333333333333,h,0.5215928210880538,S,Marshall,25/02/2017,0.0686070686070686,0.21084953940634588,0.2,0.25,0.1,0.0007621000706674612,0.0046501179377737845,0.8686131386861315,Port Phillip,0.432611560424796,0.4787307910172274,Southern Metropolitan,0.1416288958459885
Albert Park,32 Page St,0.1111111111111111,h,0.14077397644419518,S,Greg,25/02/2017,0.0686070686070686,0.21084953940634588,0.1,0.125,0.0,0.0003140776048811355,,,Port Phillip,0.4348078861011402,0.47498492517402724,Southern Metropolitan,0.1416288958459885
Albert Park,34 Richardson St,0.2222222222222222,h,0.1924845765563657,S,hockingstuart,25/02/2017,0.0686070686070686,0.21084953940634588,0.15000000000000002,0.125,0.1,0.0004664976190146277,,,Port Phillip,0.4388129505697549,0.4727922232170556,Southern Metropolitan,0.1416288958459885
Albert Park,2b Dundas Pl,0.2222222222222222,h,0.16231071228266966,S,Chisholm,26/07/2016,0.0686070686070686,0.21084953940634588,0.15000000000000002,0.375,0.1,0.0,,,Port Phillip,0.4406216893620325,0.48119758071882757,Southern Metropolitan,0.1416288958459885
Albert Park,22 Greig St,0.2222222222222222,h,0.411665731912507,S,Greg,26/07/2016,0.0686070686070686,0.21084953940634588,0.15000000000000002,0.25,0.2,0.0007505530998997723,,,Port Phillip,0.44088008061807926,0.47343176128782716,Southern Metropolitan,0.1416288958459885
Albert Park,27 Barrett St,0.3333333333333333,h,0.2305103757711722,S,Greg,27/06/2016,0.0686070686070686,0.21084953940634588,0.15000000000000002,0.25,0.1,0.0004226191300974103,0.003257328990228013,0.8321167883211678,Port Phillip,0.43816697242964864,0.4729749483801413,Southern Metropolitan,0.1416288958459885
Albert Park,44 Greig St,0.1111111111111111,h,0.1867638810992709,S,Marshall,27/11/2016,0.0686070686070686,0.21084953940634588,0.1,0.125,0.1,0.0003741218528731173,,,Port Phillip,0.44049249373401267,0.47233541030936976,Southern Metropolitan,0.1416288958459885
Albert Park,6 Brooke St,0.1111111111111111,h,0.10039259674705553,S,Greg,28/05/2016,0.0686070686070686,0.21084953940634588,0.1,0.125,0.0,0.0001824421381294831,0.0015275749747276199,0.8442822384428224,Port Phillip,0.4442391669465877,0.47516765033711295,Southern Metropolitan,0.1416288958459885
Albert Park,227a Danks St,0.2222222222222222,h,0.21817162086371286,S,hockingstuart,28/08/2016,0.0686070686070686,0.21084953940634588,0.15000000000000002,0.25,0.0,0.00035102791133773966,,,Port Phillip,0.43119040851658497,0.4780912529464274,Southern Metropolitan,0.1416288958459885
Albert Park,17 Reed St,0.2222222222222222,h,0.1856421761076837,PI,Marshall,28/08/2016,0.0686070686070686,0.21084953940634588,0.15000000000000002,0.25,0.2,0.00033948094057005085,0.003010221273727957,0.8442822384428224,Port Phillip,0.43635823363737813,0.46913771995542675,Southern Metropolitan,0.1416288958459885
Albert Park,74 Bridport St,0.2222222222222222,h,0.3045429052159282,VB,Buxton,30/07/2016,0.0686070686070686,0.21084953940634588,0.15000000000000002,0.375,0.1,0.0,,,Port Phillip,0.44268881941034977,0.48046668006651316,Southern Metropolitan,0.1416288958459885
Albert Park,9 Durham St,0.0,h,0.10095344924284913,S,Marshall,30/07/2016,0.0686070686070686,0.21084953940634588,0.05,0.125,0.0,0.00018706092643655864,0.0012130742446366395,0.856447688564477,Port Phillip,0.4411384718741189,0.473157673543227,Southern Metropolitan,0.1416288958459885
Alphington,6 Smith St,0.3333333333333333,h,0.2148065058889512,S,Brace,3/09/2016,0.13305613305613304,0.07983623336745138,0.15000000000000002,0.25,0.4,0.00196991321296771,0.005908120858137707,0.8929440389294403,Darebin,0.5320921940001568,0.54816635298846,Northern Metropolitan,0.09167795897387972
Alphington,5/6 Yarralea St,0.2222222222222222,h,0.11497476163768929,S,Jellis,3/09/2016,0.13305613305613304,0.07983623336745138,0.15000000000000002,0.25,0.2,0.0004803539839358543,,0.9939172749391727,Yarra,0.5131004366812206,0.5488058910592599,Northern Metropolitan,0.09167795897387972
Alphington,136A Fulham Rd,0.2222222222222222,h,0.15782389231632082,S,Jellis,4/03/2017,0.13305613305613304,0.07983623336745138,0.15000000000000002,0.25,0.2,0.0009491609971040198,,,Darebin,0.531317020232045,0.5446032123083455,Northern Metropolitan,0.09167795897387972
Alphington,44 Shiers St,0.3333333333333333,h,0.18311833987661247,S,Collins,8/10/2016,0.13305613305613304,0.07983623336745138,0.2,0.25,0.1,0.0013833270979691189,0.004560260586319218,0.8868613138686132,Darebin,0.5308002377199514,0.5474354523361455,Northern Metropolitan,0.09167795897387972
Alphington,83 Fulham Rd,0.4444444444444445,h,0.30902972518227706,S,Nelson,12/06/2016,0.13305613305613304,0.07983623336745138,0.25,0.5,0.4,0.0018682998702120486,0.0037066157475008424,0.8686131386861315,Darebin,0.5265367819953042,0.543598223911431,Northern Metropolitan,0.09167795897387972
Alphington,3/19 Harker St,0.1111111111111111,u,0.04941110487941672,S,Miles,12/11/2016,0.13305613305613304,0.07983623336745138,0.1,0.125,0.1,0.00020322668551132298,0.0013478602718184883,0.9294403892944041,Darebin,0.5212397612464841,0.5470700020099741,Northern Metropolitan,0.09167795897387972
Alphington,4/2 Miller St,0.1111111111111111,t,0.08076275939427931,S,Miles,12/11/2016,0.13305613305613304,0.07983623336745138,0.1,0.25,0.30000000000000004,0.00035795609379835297,0.0031450073009098058,0.9829683698296836,Darebin,0.5195602180822192,0.5472527271730598,Northern Metropolitan,0.09167795897387972
Alphington,2/5 Yarana Rd,0.1111111111111111,u,0.04262478968031408,S,McGrath,12/11/2016,0.13305613305613304,0.07983623336745138,0.1,0.125,0.1,0.0,,,Darebin,0.5235652825508481,0.5478009026622885,Northern Metropolitan,0.09167795897387972
Alphington,815 Heidelberg Rd,0.2222222222222222,h,0.2148065058889512,PI,hockingstuart,15/10/2016,0.13305613305613304,0.07983623336745138,0.15000000000000002,0.375,0.2,0.0015842443893269041,,,Darebin,0.5200770005942985,0.5502676923639171,Northern Metropolitan,0.09167795897387972
Alphington,44 Naroon Rd,0.2222222222222222,h,0.16320807627593945,S,Nelson,16/04/2016,0.13305613305613304,0.07983623336745138,0.15000000000000002,0.125,0.2,0.0013671613388943546,,,Darebin,0.5258908038551979,0.5454254755422312,Northern Metropolitan,0.09167795897387972
Alphington,3/98 Grange Rd,0.1111111111111111,u,0.08244531688166012,S,Nelson,18/03/2017,0.13305613305613304,0.07983623336745138,0.1,0.125,0.1,0.0004226191300974103,,,Darebin,0.5269243688793566,0.5432327735852596,Northern Metropolitan,0.09167795897387972
Alphington,10 Bennett St,0.3333333333333333,h,0.1957375210319686,S,Nelson,19/11/2016,0.13305613305613304,0.07983623336745138,0.2,0.25,0.2,0.0013994928570438831,0.0025160058407278445,0.9416058394160582,Darebin,0.527441151391443,0.5479836278253742,Northern Metropolitan,0.09167795897387972
Alphington,38 Bennett St,0.3333333333333333,h,0.22602355580482333,S,Nelson,19/11/2016,0.13305613305613304,0.07983623336745138,0.2,0.25,0.2,0.0013279016382842126,0.006087835561046838,0.9878345498783456,Darebin,0.5300250639518396,0.5482577155700312,Northern Metropolitan,0.09167795897387972
Alphington,2c Hamilton St,0.2222222222222222,h,0.08749298934380259,SP,hockingstuart,22/05/2016,0.13305613305613304,0.07983623336745138,0.15000000000000002,0.125,0.1,0.00041569094763679697,0.0029428282601370328,0.9902676399026766,Darebin,0.5198186093382589,0.5413141593728881,Northern Metropolitan,0.09167795897387972
Alphington,5/5 Yarana Rd,0.1111111111111111,u,0.03421200224340998,VB,Nelson,22/05/2016,0.13305613305613304,0.07983623336745138,0.1,0.125,0.1,0.0,0.0013478602718184883,0.9294403892944041,Darebin,0.5235652825508481,0.5478009026622885,Northern Metropolitan,0.09167795897387972
Alphington,7/7 Chandler Hwy,0.1111111111111111,t,0.06337633202467752,SP,Brace,24/09/2016,0.13305613305613304,0.07983623336745138,0.0,0.125,0.0,0.0,,,Yarra,0.5138756104493467,0.541953697443688,Northern Metropolitan,0.09167795897387972
Alphington,1/14 Fulham Rd,0.1111111111111111,u,0.04789680314077398,S,Love,25/02/2017,0.13305613305613304,0.07983623336745138,0.1,0.125,0.1,0.0,0.0013703246096821297,0.9355231143552312,Darebin,0.5194310224541994,0.5430500484221454,Northern Metropolitan,0.09167795897387972
Alphington,22 Lowther St,0.2222222222222222,h,0.12114413909141897,S,Barry,27/06/2016,0.13305613305613304,0.07983623336745138,0.15000000000000002,0.125,0.2,0.002260896876313468,,,Yarra,0.5211105656184571,0.5456082007053169,Northern Metropolitan,0.09167795897387972
Alphington,11 Margaret Gr,0.3333333333333333,h,0.2035894559730791,SP,McGrath,27/11/2016,0.13305613305613304,0.07983623336745138,0.2,0.25,0.2,0.0012840231493669951,0.0061102998989104795,0.8929440389294403,Yarra,0.514392392961426,0.5396696329051451,Northern Metropolitan,0.09167795897387972
Alphington,6 Naroon Rd,0.2222222222222222,h,0.15703869882220978,SP,McGrath,28/08/2016,0.13305613305613304,0.07983623336745138,0.15000000000000002,0.0,0.0,0.0013787083096620434,,,Darebin,0.5225317175266753,0.5450600252160882,Northern Metropolitan,0.09167795897387972
Alphington,42 Shiers St,0.3333333333333333,h,0.20919798093101516,S,Jellis,30/07/2016,0.13305613305613304,0.07983623336745138,0.2,0.25,0.30000000000000004,0.0013602331564337411,0.004717510951364709,0.8807785888077861,Darebin,0.5305418464639118,0.5473440897546027,Northern Metropolitan,0.09167795897387972
Altona,158 Queen St,0.2222222222222222,h,0.04879416713404375,VB,Greg,3/09/2016,0.28690228690228686,0.01842374616171938,0.15000000000000002,0.25,0.1,0.0008129067420452919,0.005436369763001236,0.9963503649635037,Hobsons Bay,0.40380093537635275,0.3592285343614492,Western Metropolitan,0.23606373533947012
Altona,59 Bracken Gr,0.4444444444444445,h,0.16152551878855861,S,Greg,3/12/2016,0.28690228690228686,0.01842374616171938,0.25,0.375,0.30000000000000004,0.0016835483379290278,0.006020442547455914,0.9841849148418491,Hobsons Bay,0.40108782718792924,0.3459809600379913,Western Metropolitan,0.23606373533947012
Altona,1/123 Blyth St,0.1111111111111111,t,0.071228266965788,S,hockingstuart,4/02/2016,0.28690228690228686,0.01842374616171938,0.1,0.125,0.2,0.0006743430928330262,0.0028080422329551835,0.9939172749391727,Hobsons Bay,0.40548047854061053,0.35438631753979166,Western Metropolitan,0.23606373533947012
Altona,4 Blyth St,0.2222222222222222,h,0.1160964666292765,S,Barlow,4/03/2017,0.28690228690228686,0.01842374616171938,0.15000000000000002,0.125,0.2,0.0011685534416901071,0.0026957205436369766,0.8929440389294403,Hobsons Bay,0.40470530477248445,0.3706488570541069,Western Metropolitan,0.23606373533947012
Altona,20 Linnet St,0.3333333333333333,h,0.07795849691531127,PI,Sweeney,4/06/2016,0.28690228690228686,0.01842374616171938,0.2,0.125,0.4,0.0015126531705672334,,,Hobsons Bay,0.40638484793674223,0.35045772653353424,Western Metropolitan,0.23606373533947012
Altona,29 Rose St,0.3333333333333333,h,0.19012899607403252,SP,Greg,4/06/2016,0.28690228690228686,0.01842374616171938,0.2,0.375,0.6000000000000001,0.0024410296202894135,0.0049421543300011235,0.9318734793187347,Hobsons Bay,0.4062556523087295,0.3537467794689917,Western Metropolitan,0.23606373533947012
Altona,1/170 Blyth St,0.2222222222222222,u,0.061132922041503085,S,Barlow,6/08/2016,0.28690228690228686,0.01842374616171938,0.1,0.125,0.2,0.0007182215817502437,0.002111647759182298,0.9233576642335766,Hobsons Bay,0.4035425441203131,0.34945273813656286,Western Metropolitan,0.23606373533947012
Altona,5/35 Grieve Pde,0.1111111111111111,u,0.03600673022994952,SP,hockingstuart,6/08/2016,0.28690228690228686,0.01842374616171938,0.1,0.125,0.1,0.00015011061997995446,,,Hobsons Bay,0.40470530477248445,0.3520108904197343,Western Metropolitan,0.23606373533947012
Altona,156 Maidstone St,0.2222222222222222,h,0.06449803701626472,VB,Greg,7/05/2016,0.28690228690228686,0.01842374616171938,0.15000000000000002,0.125,0.1,0.0013902552804297321,0.0027631135572279007,0.9233576642335766,Hobsons Bay,0.4146533681300184,0.34698594843496267,Western Metropolitan,0.23606373533947012
Altona,11 Keeshan Ct,0.2222222222222222,h,0.06713404374649468,S,Greg,7/11/2016,0.28690228690228686,0.01842374616171938,0.15000000000000002,0.125,0.1,0.0012239789013750134,,,Hobsons Bay,0.41749567194646175,0.35191952783819147,Western Metropolitan,0.23606373533947012
Altona,1/136 Queen St,0.1111111111111111,u,0.05552439708356703,S,Barlow,8/10/2016,0.28690228690228686,0.01842374616171938,0.1,0.125,0.1,0.0005196136845459962,0.0020891834213186567,0.9635036496350364,Hobsons Bay,0.40431771788843207,0.36105578599227783,Western Metropolitan,0.23606373533947012
Altona,173 Queen St,0.2222222222222222,h,0.14021312394840157,S,hockingstuart,8/10/2016,0.28690228690228686,0.01842374616171938,0.15000000000000002,0.125,0.4,0.0017943992572988403,0.0004942154330001123,0.920924574209246,Hobsons Bay,0.40418852226040514,0.35913717177993476,Western Metropolitan,0.23606373533947012
Altona,1/265 Queen St,0.2222222222222222,t,0.0802019068984857,SP,hockingstuart,8/10/2016,0.28690228690228686,0.01842374616171938,0.15000000000000002,0.25,0.2,0.0006466303629905731,,0.9744525547445255,Hobsons Bay,0.39940828402367146,0.34945273813656286,Western Metropolitan,0.23606373533947012
Altona,3/26 Grieve Pde,0.1111111111111111,u,0.04767246214245653,S,Village,10/09/2016,0.28690228690228686,0.01842374616171938,0.1,0.125,0.1,0.00029329305749929566,0.0017072896776367517,0.9659367396593674,Hobsons Bay,0.40560967416863036,0.35301587881664886,Western Metropolitan,0.23606373533947012
Altona,261 Queen St,0.3333333333333333,h,0.11048794167134045,S,Barlow,10/09/2016,0.28690228690228686,0.01842374616171938,0.2,0.25,0.2,0.0016050289367087439,,,Hobsons Bay,0.3995374796516913,0.34981818846273427,Western Metropolitan,0.23606373533947012
Altona,4/5 Rose St,0.1111111111111111,u,0.03813796971396523,S,hockingstuart,10/09/2016,0.28690228690228686,0.01842374616171938,0.1,0.125,0.2,0.00026558032765684254,0.0012804672582275639,0.9537712895377128,Hobsons Bay,0.40250897909614736,0.35328996656130585,Western Metropolitan,0.23606373533947012
Altona,1/60 David St,0.2222222222222222,u,0.05832865956253505,S,Jas,10/12/2016,0.28690228690228686,0.01842374616171938,0.15000000000000002,0.25,0.2,0.0005311606553136851,,,Hobsons Bay,0.41077749928942353,0.36105578599227783,Western Metropolitan,0.23606373533947012
Altona,1A Merritt Ct,0.2222222222222222,t,0.06954570947840719,S,hockingstuart,11/02/2017,0.28690228690228686,0.01842374616171938,0.15000000000000002,0.25,0.2,0.0004549506482469389,0.0034145793552735034,,Hobsons Bay,0.4194336063667592,0.352924516235106,Western Metropolitan,0.23606373533947012
Altona,4/31 Millers Rd,0.1111111111111111,u,0.0343241727425687,SP,Greg,11/02/2017,0.28690228690228686,0.01842374616171938,0.1,0.125,0.1,0.0,0.0014601819611366955,0.9355231143552312,Hobsons Bay,0.4066432391927819,0.37147112028799256,Western Metropolitan,0.23606373533947012
Altona,111/112 Pier St,0.1111111111111111,u,0.039820527201346045,SP,hockingstuart,11/02/2017,0.28690228690228686,0.01842374616171938,0.1,0.125,0.1,0.0,,,Hobsons Bay,0.40909795612516575,0.36471028925396354,Western Metropolitan,0.23606373533947012
Altona,24 Wren St,0.3333333333333333,h,0.08524957936062816,S,hockingstuart,11/02/2017,0.28690228690228686,0.01842374616171938,0.2,0.125,0.2,0.0017204986443856319,0.002920363922273391,0.9172749391727495,Hobsons Bay,0.4092271517531856,0.3505490891150487,Western Metropolitan,0.23606373533947012
Altona,1/152 Blyth St,0.2222222222222222,t,0.07380818844643859,SP,Gunn&Co,12/11/2016,0.28690228690228686,0.01842374616171938,0.15000000000000002,0.25,0.2,0.0004872821663964676,0.003953723464000899,,Hobsons Bay,0.4040593266323924,0.35100590202276294,Western Metropolitan,0.23606373533947012
Altona,4/57 Blyth St,0.2222222222222222,u,0.07234997195737522,SP,Barlow,13/08/2016,0.28690228690228686,0.01842374616171938,0.15000000000000002,0.25,0.1,0.00015934819659410552,0.003167471638773447,0.9951338199513382,Hobsons Bay,0.40638484793674223,0.36251758729693506,Western Metropolitan,0.23606373533947012
Altona,164 Maidstone St,0.2222222222222222,h,0.0616937745372967,S,Sweeney,14/05/2016,0.28690228690228686,0.01842374616171938,0.15000000000000002,0.125,0.4,0.0014433713459611006,,0.9294403892944041,Hobsons Bay,0.41529934627012466,0.34680322327187696,Western Metropolitan,0.23606373533947012
Altona,3/25 Rayner St,0.1111111111111111,u,0.06001121704991588,SP,hockingstuart,14/05/2016,0.28690228690228686,0.01842374616171938,0.1,0.125,0.1,0.00038797821779434384,,,Hobsons Bay,0.40690163044882155,0.35484313044750593,Western Metropolitan,0.23606373533947012
Altona,3/46 Sargood St,0.1111111111111111,u,0.04060572069545709,S,Burnham,15/10/2016,0.28690228690228686,0.01842374616171938,0.1,0.125,0.1,0.0003163869990346733,0.001729754015500393,0.9659367396593674,Hobsons Bay,0.4096147386372522,0.36370530085699215,Western Metropolitan,0.23606373533947012
Altona,1/57 Blyth St,0.2222222222222222,u,0.07234997195737522,SP,Barlow,16/04/2016,0.28690228690228686,0.01842374616171938,0.15000000000000002,0.25,0.1,0.00016165759074764327,,,Hobsons Bay,0.40638484793674223,0.3626089498784779,Western Metropolitan,0.23606373533947012
Altona,22 Fenfield St,0.2222222222222222,h,0.0665171060011217,S,hockingstuart,16/04/2016,0.28690228690228686,0.01842374616171938,0.15000000000000002,0.125,0.2,0.0013994928570438831,0.001954397394136808,0.9172749391727495,Hobsons Bay,0.41568693315418415,0.34771684908727707,Western Metropolitan,0.23606373533947012
Altona,5/8 David St,0.1111111111111111,u,0.05552439708356703,PI,Biggin,16/07/2016,0.28690228690228686,0.01842374616171938,0.1,0.25,0.1,0.00040414397686910816,0.0017072896776367517,0.9939172749391727,Hobsons Bay,0.40548047854061053,0.3608730608291921,Western Metropolitan,0.23606373533947012
Altona,1/28 Seves St,0.2222222222222222,h,0.07033090297251823,S,hockingstuart,17/09/2016,0.28690228690228686,0.01842374616171938,0.15000000000000002,0.125,0.2,0.0008383100777342073,,,Hobsons Bay,0.4071600217048612,0.3706488570541069,Western Metropolitan,0.23606373533947012
Altona,27 McIntyre Dr,0.2222222222222222,h,0.08468872686483456,SP,Greg,18/03/2017,0.28690228690228686,0.01842374616171938,0.15000000000000002,0.25,0.2,0.0012332164779891644,0.0030551499494552397,0.9355231143552312,Hobsons Bay,0.4167204981783428,0.35877172145376335,Western Metropolitan,0.23606373533947012
Altona,4 Boyd St,0.2222222222222222,h,0.10039259674705553,S,Barlow,19/11/2016,0.28690228690228686,0.01842374616171938,0.15000000000000002,0.125,0.2,0.001672001367161339,,,Hobsons Bay,0.40741841296090797,0.35191952783819147,Western Metropolitan,0.23606373533947012
Altona,12 Spear Ct,0.2222222222222222,t,0.058339876612450936,S,hockingstuart,22/05/2016,0.28690228690228686,0.01842374616171938,0.15000000000000002,0.25,0.0,0.0006119894506875067,,,Hobsons Bay,0.4189168238546799,0.3521022530012772,Western Metropolitan,0.23606373533947012
Altona,185 Queen St,0.2222222222222222,h,0.08917554683118341,PI,Barlow,22/08/2016,0.28690228690228686,0.01842374616171938,0.15000000000000002,0.375,0.1,0.0013325204265912881,,,Hobsons Bay,0.4039301310043655,0.3578580956383348,Western Metropolitan,0.23606373533947012
Altona,3/20 Mulga St,0.2222222222222222,u,0.05518788558609086,S,Williams,23/04/2016,0.28690228690228686,0.01842374616171938,0.15000000000000002,0.25,0.1,0.000473425801475241,0.002538470178591486,0.9866180048661801,Hobsons Bay,0.4058680654246629,0.35009227620736283,Western Metropolitan,0.23606373533947012
Altona,51 Millers Rd,0.3333333333333333,h,0.1060011217049916,S,Barlow,25/02/2017,0.28690228690228686,0.01842374616171938,0.2,0.125,0.0,0.0018405871403695956,,,Hobsons Bay,0.40858117361308643,0.3717452080325927,Western Metropolitan,0.23606373533947012
Altona,2/119 Railway St N,0.2222222222222222,u,0.05832865956253505,S,Barlow,25/02/2017,0.28690228690228686,0.01842374616171938,0.15000000000000002,0.125,0.2,0.0004180003417903348,,,Hobsons Bay,0.40909795612516575,0.35648765691524886,Western Metropolitan,0.23606373533947012
Altona,24 McIntyre Dr,0.2222222222222222,h,0.07492989343802581,S,Barlow,27/06/2016,0.28690228690228686,0.01842374616171938,0.15000000000000002,0.25,0.2,0.0012216695072214756,,,Hobsons Bay,0.41517015064211193,0.35895444661684905,Western Metropolitan,0.23606373533947012
Altona,104 Maidstone St,0.1111111111111111,h,0.08659562535053282,SP,hockingstuart,27/11/2016,0.28690228690228686,0.01842374616171938,0.1,0.25,0.1,0.0015588410536379886,0.002246433786364147,0.9172749391727495,Hobsons Bay,0.40987312989329183,0.34817366199499133,Western Metropolitan,0.23606373533947012
Altona,49 Bent St,0.2222222222222222,h,0.15872125630959058,S,Barlow,28/05/2016,0.28690228690228686,0.01842374616171938,0.15000000000000002,0.125,0.1,0.00214542716863658,,,Hobsons Bay,0.4101315211493315,0.3656239150693352,Western Metropolitan,0.23606373533947012
Altona,5/57 Blyth St,0.2222222222222222,u,0.07234997195737522,SP,Barlow,28/05/2016,0.28690228690228686,0.01842374616171938,0.15000000000000002,0.25,0.1,0.00016165759074764327,6.73930135909244e-05,0.9951338199513382,Hobsons Bay,0.40638484793674223,0.3624262247153922,Western Metropolitan,0.23606373533947012
Altona,15 Kookaburra St,0.2222222222222222,h,0.09141895681435783,S,Sweeney,28/05/2016,0.28690228690228686,0.01842374616171938,0.15000000000000002,0.125,0.4,0.0016096477250158194,,,Hobsons Bay,0.40250897909614736,0.34324008259179095,Western Metropolitan,0.23606373533947012
Altona,219 Civic Pde,0.2222222222222222,h,0.07347167694896242,S,Greg,28/08/2016,0.28690228690228686,0.01842374616171938,0.15000000000000002,0.125,0.2,0.0013948740687368076,,,Hobsons Bay,0.41271543370972097,0.35420359237670596,Western Metropolitan,0.23606373533947012
Altona,3 Curtin Ct,0.3333333333333333,h,0.09489624228827818,S,Sweeney,28/08/2016,0.28690228690228686,0.01842374616171938,0.2,0.25,0.30000000000000004,0.001228597689682089,,0.9416058394160582,Hobsons Bay,0.411940259941602,0.3697352312387068,Western Metropolitan,0.23606373533947012
Altona,2/60 David St,0.1111111111111111,h,0.050544026920919805,SP,Compton,30/07/2016,0.28690228690228686,0.01842374616171938,0.1,0.125,0.1,0.0003556466996448152,0.002044254745591374,0.97323600973236,Hobsons Bay,0.41077749928942353,0.36123851115536354,Western Metropolitan,0.23606373533947012
Altona North,45 Hearn St,0.4444444444444445,h,0.11217049915872127,S,FN,3/09/2016,0.23076923076923073,0.025588536335721557,0.25,0.375,0.6000000000000001,0.0013671613388943546,0.005638548803774009,0.9355231143552312,Hobsons Bay,0.444109971318575,0.38819047270999363,Western Metropolitan,0.2281669080884071
Altona North,4 Knapp St,0.2222222222222222,h,0.07807066741447,S,Jas,3/09/2016,0.23076923076923073,0.025588536335721557,0.15000000000000002,0.125,0.2,0.0012309070838356266,0.002628327530046052,0.9416058394160582,Hobsons Bay,0.45664194723651264,0.3683647925155924,Western Metropolitan,0.2281669080884071
Altona North,21 Hatherley Gr,0.2222222222222222,h,0.07459338194054964,SP,Jas,4/03/2017,0.23076923076923073,0.025588536335721557,0.15000000000000002,0.125,0.30000000000000004,0.0012794043610599196,,,Hobsons Bay,0.4362290380093512,0.38206917974673615,Western Metropolitan,0.2281669080884071
Altona North,3/66 Marion St,0.1111111111111111,t,0.037689287717330336,S,hockingstuart,4/03/2017,0.23076923076923073,0.025588536335721557,0.1,0.125,0.1,0.0001778233498224076,0.001729754015500393,0.9890510948905111,Hobsons Bay,0.4488902095553158,0.3847186946114505,Western Metropolitan,0.2281669080884071
Altona North,153 Mills St,0.2222222222222222,h,0.14806505888951207,S,Sweeney,4/03/2017,0.23076923076923073,0.025588536335721557,0.15000000000000002,0.125,0.30000000000000004,0.0015126531705672334,,,Hobsons Bay,0.45056975271957356,0.38773365980227936,Western Metropolitan,0.2281669080884071
Altona North,33 Carthy St,0.2222222222222222,h,0.06707795849691532,S,FN,4/06/2016,0.23076923076923073,0.025588536335721557,0.15000000000000002,0.125,0.2,0.0012332164779891644,0.0037515444232281256,0.9379562043795622,Hobsons Bay,0.45754631663264433,0.36882160542327824,Western Metropolitan,0.2281669080884071
Altona North,16 Harris St,0.2222222222222222,h,0.06034772854739204,S,Sweeney,4/06/2016,0.23076923076923073,0.025588536335721557,0.15000000000000002,0.125,0.30000000000000004,0.001247072842910391,,,Hobsons Bay,0.45974264230898143,0.37000931898333533,Western Metropolitan,0.2281669080884071
Altona North,1/5 Little St,0.2222222222222222,h,0.071228266965788,VB,Greg,6/08/2016,0.23076923076923073,0.025588536335721557,0.15000000000000002,0.25,0.1,0.0,0.002920363922273391,0.9927007299270072,Hobsons Bay,0.44527273197075345,0.3896522740146793,Western Metropolitan,0.2281669080884071
Altona North,1/95 Mills St,0.2222222222222222,h,0.0564217610768368,S,Williams,7/05/2016,0.23076923076923073,0.025588536335721557,0.15000000000000002,0.125,0.1,0.0007574812823603856,0.0026507918679096933,0.9416058394160582,Hobsons Bay,0.4451435363427336,0.3870941217315078,Western Metropolitan,0.2281669080884071
Altona North,5 Binns St,0.2222222222222222,h,0.07010656197420079,PI,Village,7/11/2016,0.23076923076923073,0.025588536335721557,0.15000000000000002,0.125,0.30000000000000004,0.001247072842910391,0.0026058631921824105,0.9294403892944041,Hobsons Bay,0.45625436035244604,0.370922944798707,Western Metropolitan,0.2281669080884071
Altona North,25 Allan St,0.3333333333333333,h,0.0886146943353898,SP,Jas,8/10/2016,0.23076923076923073,0.025588536335721557,0.15000000000000002,0.125,0.4,0.0012909513318276084,0.0037964730989554084,0.9355231143552312,Hobsons Bay,0.43635823363737813,0.3847186946114505,Western Metropolitan,0.2281669080884071
Altona North,21 Hatherley Gr,0.2222222222222222,h,0.06898485698261357,VB,Jas,10/12/2016,0.23076923076923073,0.025588536335721557,0.15000000000000002,0.125,0.30000000000000004,0.0012794043610599196,,,Hobsons Bay,0.4362290380093512,0.38206917974673615,Western Metropolitan,0.2281669080884071
Altona North,1/256 Mason St,0.1111111111111111,t,0.0622546270330903,S,Williams,11/03/2017,0.23076923076923073,0.025588536335721557,0.1,0.125,0.1,0.0005819673266915158,,0.9355231143552312,Hobsons Bay,0.4429472106663894,0.39138816306393664,Western Metropolitan,0.2281669080884071
Altona North,21 Allan St,0.3333333333333333,h,0.06337633202467752,SP,Williams,12/06/2016,0.23076923076923073,0.025588536335721557,0.2,0.125,0.4,0.0012886419376740706,,,Hobsons Bay,0.43597064675331154,0.3847186946114505,Western Metropolitan,0.2281669080884071
Altona North,2/36 May St,0.2222222222222222,h,0.06618059450364555,S,hockingstuart,14/05/2016,0.23076923076923073,0.025588536335721557,0.15000000000000002,0.25,0.2,0.00039490640025495715,0.0024486128271369203,0.9927007299270072,Hobsons Bay,0.4506989483475863,0.38700275914996496,Western Metropolitan,0.2281669080884071
Altona North,11 Beevers St,0.2222222222222222,h,0.06988222097588334,S,Greg,15/10/2016,0.23076923076923073,0.025588536335721557,0.15000000000000002,0.125,0.2,0.0013509955798195901,0.0021790407727732227,0.9294403892944041,Hobsons Bay,0.460905402961167,0.38417051912219335,Western Metropolitan,0.2281669080884071
Altona North,10 Murphy St,0.3333333333333333,h,0.09871003925967471,SP,Gunn&Co,15/10/2016,0.23076923076923073,0.025588536335721557,0.2,0.125,0.4,0.0019652944246606346,,,Hobsons Bay,0.44966538332343475,0.37695287518045006,Western Metropolitan,0.2281669080884071
Altona North,16 Beevers St,0.2222222222222222,h,0.06674144699943915,S,Sweeney,19/11/2016,0.23076923076923073,0.025588536335721557,0.15000000000000002,0.125,0.30000000000000004,0.0012724761785993064,,,Hobsons Bay,0.4614221854732463,0.3833482558883361,Western Metropolitan,0.2281669080884071
Altona North,21 Neal Ct,0.2222222222222222,h,0.07683679192372407,SP,hockingstuart,19/11/2016,0.23076923076923073,0.025588536335721557,0.15000000000000002,0.125,0.30000000000000004,0.0013902552804297321,0.013545995731775807,,Hobsons Bay,0.4519909046277846,0.3775924132512216,Western Metropolitan,0.2281669080884071
Altona North,31 Duosa Rd,0.2222222222222222,h,0.09399887829500841,S,Greg,22/05/2016,0.23076923076923073,0.025588536335721557,0.15000000000000002,0.125,0.2,0.0017089516736179431,,,Hobsons Bay,0.4594842510529418,0.377957863577393,Western Metropolitan,0.2281669080884071
Altona North,252 Millers Rd,0.3333333333333333,h,0.06819966348850252,SP,Raine&Horne,22/05/2016,0.23076923076923073,0.025588536335721557,0.2,0.25,0.4,0.0007274591583643947,0.00381893743681905,0.9878345498783456,Hobsons Bay,0.4437223844345084,0.37905421455587884,Western Metropolitan,0.2281669080884071
Altona North,1/156 Chambers Rd,0.2222222222222222,h,0.06001121704991588,SP,Hunter,22/08/2016,0.23076923076923073,0.025588536335721557,0.25,0.25,0.2,0.0006373927863764221,0.002246433786364147,0.9902676399026766,Hobsons Bay,0.4603886204490877,0.3768615125989072,Western Metropolitan,0.2281669080884071
Altona North,2 Gadsden St,0.2222222222222222,h,0.07218171620863713,S,Jas,22/08/2016,0.23076923076923073,0.025588536335721557,0.15000000000000002,0.125,0.1,0.0012262882955285511,0.003526901044591711,0.9294403892944041,Hobsons Bay,0.45845068602878314,0.3715624828695354,Western Metropolitan,0.2281669080884071
Altona North,24 Hansen St,0.2222222222222222,h,0.09489624228827818,S,hockingstuart,22/08/2016,0.23076923076923073,0.025588536335721557,0.15000000000000002,0.25,0.1,0.0013625425505872791,0.0035942940581826354,0.9172749391727495,Hobsons Bay,0.44488514508669397,0.3956822043963655,Western Metropolitan,0.2281669080884071
Altona North,4 Prismall St,0.2222222222222222,h,0.1012899607403253,S,Sweeney,22/08/2016,0.23076923076923073,0.025588536335721557,0.15000000000000002,0.125,0.4,0.0016512168197794991,,0.9878345498783456,Hobsons Bay,0.43958812433787386,0.3941290405101654,Western Metropolitan,0.2281669080884071
Altona North,122 McIntosh Rd,0.2222222222222222,h,0.056646102075154234,S,Village,23/04/2016,0.23076923076923073,0.025588536335721557,0.15000000000000002,0.125,0.2,0.001295570120134684,,,Hobsons Bay,0.43687501614945745,0.3812469165128789,Western Metropolitan,0.2281669080884071
Altona North,35 May St,0.1111111111111111,h,0.058889512058328666,S,RT,24/09/2016,0.23076923076923073,0.025588536335721557,0.1,0.125,0.2,0.0015957913600945929,,,Hobsons Bay,0.4503113614635268,0.3869113965684221,Western Metropolitan,0.2281669080884071
Altona North,6 Hill St,0.2222222222222222,h,0.08188446438586652,S,hockingstuart,25/02/2017,0.23076923076923073,0.025588536335721557,0.15000000000000002,0.25,0.30000000000000004,0.0012817137552134574,0.002920363922273391,0.9294403892944041,Hobsons Bay,0.45315366527997014,0.37183657061413555,Western Metropolitan,0.2281669080884071
Altona North,84 May St,0.3333333333333333,h,0.09927089175546831,S,Greg,25/02/2017,0.23076923076923073,0.025588536335721557,0.2,0.125,0.2,0.0016350510607047349,,,Hobsons Bay,0.4516033177437322,0.38152100425750746,Western Metropolitan,0.2281669080884071
Altona North,155 Chambers Rd,0.3333333333333333,h,0.07571508693213685,S,Hunter,27/06/2016,0.23076923076923073,0.025588536335721557,0.2,0.125,0.30000000000000004,0.0015426752945632244,,,Hobsons Bay,0.4603886204490877,0.3764960622727358,Western Metropolitan,0.2281669080884071
Altona North,268d Mason St,0.3333333333333333,t,0.08553000560852496,S,RT,27/06/2016,0.23076923076923073,0.025588536335721557,0.2,0.375,0.1,0.0005819673266915158,,,Hobsons Bay,0.44346399317846874,0.3882818352915365,Western Metropolitan,0.2281669080884071
Altona North,5 Cresser St,0.3333333333333333,h,0.1250701065619742,SP,RT,27/11/2016,0.23076923076923073,0.025588536335721557,0.2,0.125,0.4,0.0014618464991894026,0.003549365382455352,0.9294403892944041,Hobsons Bay,0.44578951448283277,0.38581504558990787,Western Metropolitan,0.2281669080884071
Altona North,107 McIntosh Rd,0.2222222222222222,h,0.06898485698261357,SP,Hunter,27/11/2016,0.23076923076923073,0.025588536335721557,0.15000000000000002,0.125,0.1,0.0012863325435205329,,,Hobsons Bay,0.43726260303351694,0.3825259926544504,Western Metropolitan,0.2281669080884071
Altona North,10 Knapp St,0.2222222222222222,h,0.060572069545709484,PI,Hunter,28/05/2016,0.23076923076923073,0.025588536335721557,0.15000000000000002,0.125,0.1,0.00123783526629624,,,Hobsons Bay,0.4574171210046316,0.36845615509713525,Western Metropolitan,0.2281669080884071
Altona North,4/221 Blackshaws Rd,0.1111111111111111,u,0.0232192933258553,S,Jas,28/08/2016,0.23076923076923073,0.025588536335721557,0.1,0.125,0.1,0.0003533373054912774,0.0015725036504549029,0.9416058394160582,Hobsons Bay,0.45134492648769253,0.3956822043963655,Western Metropolitan,0.2281669080884071
Armadale,8/19 Mercer Rd,0.1111111111111111,u,0.05765563656758273,S,Jellis,3/09/2016,0.13097713097713096,0.1463664278403276,0.1,0.125,0.1,0.0,0.0017072896776367517,0.9343065693430657,Stonnington,0.42408464897548015,0.5430500484221454,Southern Metropolitan,0.21433577870192982
Armadale,1/42 Adelaide St,0.1111111111111111,u,0.05215928210880538,VB,Noel,3/12/2016,0.13097713097713096,0.1463664278403276,0.1,0.125,0.0,0.001988388366196012,,,Stonnington,0.42460143148755947,0.5450600252160882,Southern Metropolitan,0.21433577870192982
Armadale,14/71 Denbigh Rd,0.2222222222222222,u,0.10207515423443635,S,Marshall,3/12/2016,0.13097713097713096,0.1463664278403276,0.15000000000000002,0.25,0.2,0.0,0.002246433786364147,0.975669099756691,Stonnington,0.4229218883232946,0.5337310651049734,Southern Metropolitan,0.21433577870192982
Armadale,4/769 High St,0.2222222222222222,t,0.1256309590577678,S,Jellis,3/12/2016,0.13097713097713096,0.1463664278403276,0.15000000000000002,0.25,0.2,0.00023324880950731386,0.0023587554756823543,0.978102189781022,Stonnington,0.42447223585953964,0.5314470005664305,Southern Metropolitan,0.21433577870192982
Armadale,7 Llaneast St,0.2222222222222222,h,0.20796410544026922,S,Jellis,3/12/2016,0.13097713097713096,0.1463664278403276,0.15000000000000002,0.25,0.2,0.0006835806694471773,0.0033696506795462206,0.8430656934306568,Stonnington,0.41491175938605807,0.5441463994006597,Southern Metropolitan,0.21433577870192982
Armadale,9/55 Northcote Rd,0.0,u,0.037745372966909704,S,Biggin,3/12/2016,0.13097713097713096,0.1463664278403276,0.05,0.125,0.0,0.0,,,Stonnington,0.42576419213973793,0.5343706031757449,Southern Metropolitan,0.21433577870192982
Armadale,28 Cambridge St,0.2222222222222222,h,0.20022434099831746,S,Hodges,4/03/2017,0.13097713097713096,0.1463664278403276,0.15000000000000002,0.125,0.1,0.0005011385313176941,0.0026058631921824105,0.8418491484184913,Stonnington,0.4177540632025014,0.5357410418988877,Southern Metropolitan,0.21433577870192982
Armadale,3/16 Fulton St,0.1111111111111111,u,0.0665171060011217,S,hockingstuart,4/03/2017,0.13097713097713096,0.1463664278403276,0.1,0.125,0.2,0.0,,,Stonnington,0.4247306271155793,0.5307160999141161,Southern Metropolitan,0.21433577870192982
Armadale,3/20 Mercer Rd,0.2222222222222222,t,0.20560852495793608,SP,Jellis,4/03/2017,0.13097713097713096,0.1463664278403276,0.15000000000000002,0.25,0.2,0.0,0.0037066157475008424,0.9720194647201945,Stonnington,0.4248598227435991,0.5435068613298881,Southern Metropolitan,0.21433577870192982
Armadale,1/77 Wattletree Rd,0.1111111111111111,u,0.06449803701626472,SP,hockingstuart,4/03/2017,0.13097713097713096,0.1463664278403276,0.1,0.125,0.1,0.0,,,Stonnington,0.414265781245966,0.5425932355144596,Southern Metropolitan,0.21433577870192982
Armadale,12 Willis St,0.2222222222222222,h,0.22041503084688727,S,Marshall,4/03/2017,0.13097713097713096,0.1463664278403276,0.15000000000000002,0.25,0.1,0.000473425801475241,0.0026058631921824105,0.8686131386861315,Stonnington,0.42007958450686544,0.5447859374714312,Southern Metropolitan,0.21433577870192982
Armadale,8/71 Denbigh Rd,0.1111111111111111,u,0.06898485698261357,VB,Jellis,4/06/2016,0.13097713097713096,0.1463664278403276,0.1,0.125,0.2,0.0,,,Stonnington,0.4229218883232946,0.5337310651049734,Southern Metropolitan,0.21433577870192982
Armadale,11/17 Myamyn St,0.1111111111111111,u,0.39708356702187325,S,Jellis,4/06/2016,0.13097713097713096,0.1463664278403276,0.15000000000000002,0.25,0.2,0.0,,0.9854014598540146,Stonnington,0.4225343014392422,0.5456995632868598,Southern Metropolitan,0.21433577870192982
Armadale,526 Orrong Rd,0.3333333333333333,h,0.32697700504767246,VB,Jellis,4/06/2016,0.13097713097713096,0.1463664278403276,0.2,0.25,0.2,0.0036511521567432004,,0.8978102189781023,Stonnington,0.41930441073874647,0.5292542986094588,Southern Metropolitan,0.21433577870192982
Armadale,553 Dandenong Rd,0.4444444444444445,h,0.16152551878855861,PI,Jellis,7/05/2016,0.13097713097713096,0.1463664278403276,0.4,0.25,0.2,0.0016004101484016684,,,Stonnington,0.41181106431358927,0.5400350832313165,Southern Metropolitan,0.21433577870192982
Armadale,9/19 Mercer Rd,0.2222222222222222,u,0.07291082445316882,PI,Marshall,7/05/2016,0.13097713097713096,0.1463664278403276,0.15000000000000002,0.25,0.1,0.004879749846425289,0.00031450073009098057,0.9416058394160582,Stonnington,0.42408464897548015,0.5430500484221454,Southern Metropolitan,0.21433577870192982
Armadale,6/26 Mercer Rd,0.1111111111111111,u,0.08300616937745374,S,Jellis,7/05/2016,0.13097713097713096,0.1463664278403276,0.1,0.125,0.1,0.0,,,Stonnington,0.4260225833957776,0.543598223911431,Southern Metropolitan,0.21433577870192982
Armadale,538a Orrong Rd,0.2222222222222222,t,0.16836791923724062,S,RT,7/05/2016,0.13097713097713096,0.1463664278403276,0.1,0.25,0.2,0.0005681109617702892,,,Stonnington,0.4211131495310241,0.5297111115171447,Southern Metropolitan,0.21433577870192982
Armadale,18/41 Kooyong Rd,0.1111111111111111,u,0.0628154795288839,S,Marshall,8/10/2016,0.13097713097713096,0.1463664278403276,0.15000000000000002,0.125,0.1,0.0,,0.9294403892944041,Stonnington,0.4172372806904221,0.5372028432035449,Southern Metropolitan,0.21433577870192982
Armadale,10 William St,0.0,h,0.1514301738642737,SP,Jellis,8/10/2016,0.13097713097713096,0.1463664278403276,0.1,0.25,0.1,0.0003325527581094376,0.002403684151409637,0.856447688564477,Stonnington,0.42137154078706374,0.5399437206497737,Southern Metropolitan,0.21433577870192982
Armadale,15/405 Dandenong Rd,0.0,u,0.021873247335950644,PI,hockingstuart,10/09/2016,0.13097713097713096,0.1463664278403276,0.05,0.125,0.1,0.0,0.0008536448388183758,0.9476885644768858,Stonnington,0.414265781245966,0.5360151296434879,Southern Metropolitan,0.21433577870192982
Armadale,1/2 Armadale St,0.0,u,0.035333707234997194,PI,hockingstuart,10/12/2016,0.13097713097713096,0.1463664278403276,0.05,0.125,0.1,0.0,,,Stonnington,0.41607452003824363,0.5360151296434879,Southern Metropolitan,0.21433577870192982
Armadale,4/20 Mercer Rd,0.1111111111111111,h,0.19012899607403252,S,Marshall,10/12/2016,0.13097713097713096,0.1463664278403276,0.1,0.25,0.2,0.0,,,Stonnington,0.4248598227435991,0.5435068613298881,Southern Metropolitan,0.21433577870192982
Armadale,8/58 Sutherland Rd,0.1111111111111111,u,0.056926528323051034,S,hockingstuart,10/12/2016,0.13097713097713096,0.1463664278403276,0.1,0.125,0.1,0.0,0.0016398966640458273,0.9416058394160582,Stonnington,0.42007958450686544,0.5350101412465733,Southern Metropolitan,0.21433577870192982
Armadale,40 New St,0.1111111111111111,h,0.1261918115535614,S,Marshall,12/11/2016,0.13097713097713096,0.1463664278403276,0.1,0.125,0.0,0.0005750391442309025,0.002156576434909581,0.8686131386861315,Stonnington,0.42408464897548015,0.5337310651049734,Southern Metropolitan,0.21433577870192982
Armadale,35 Northcote Rd,0.3333333333333333,h,0.30465507571508693,S,Marshall,12/11/2016,0.13097713097713096,0.1463664278403276,0.2,0.25,0.2,0.0014410619518075629,0.004987083005728406,0.856447688564477,Stonnington,0.42498901837161895,0.534918778665002,Southern Metropolitan,0.21433577870192982
Armadale,7/53 Wattletree Rd,0.0,u,0.03421200224340998,S,Jellis,14/05/2016,0.13097713097713096,0.1463664278403276,0.05,0.125,0.0,0.0020345762492667676,,,Stonnington,0.41491175938605807,0.5393955451605166,Southern Metropolitan,0.21433577870192982
Armadale,791 High St,0.2222222222222222,h,0.19237240605720696,PI,RT,15/10/2016,0.13097713097713096,0.1463664278403276,0.15000000000000002,0.25,0.2,0.0009353046321827932,0.002718184881500618,0.8686131386861315,Stonnington,0.4238262577194405,0.532360626381859,Southern Metropolitan,0.21433577870192982
Armadale,25 Llaneast St,0.3333333333333333,h,0.23724060572069547,PI,Jellis,15/10/2016,0.13097713097713096,0.1463664278403276,0.2,0.125,0.2,0.0011431501060011917,0.0036616870717735596,0.856447688564477,Stonnington,0.415040955014085,0.5432327735852596,Southern Metropolitan,0.21433577870192982
Armadale,8/569 Orrong Rd,0.0,u,0.02680874929893438,S,Jellis,16/04/2016,0.13097713097713096,0.1463664278403276,0.05,0.125,0.1,0.0,,,Stonnington,0.4248598227435991,0.5295283863540874,Southern Metropolitan,0.21433577870192982
Armadale,367 Dandenong Rd,0.5555555555555556,h,0.6102075154234435,S,Marshall,17/09/2016,0.13097713097713096,0.1463664278403276,0.25,0.375,0.4,0.0034433066829248015,0.011591598337638998,0.8990267639902678,Stonnington,0.4164621069223031,0.5309901876587446,Southern Metropolitan,0.21433577870192982
Armadale,34a Rose St,0.1111111111111111,h,0.1166573191250701,S,RT,17/09/2016,0.13097713097713096,0.1463664278403276,0.15000000000000002,0.125,0.2,0.0003902876119478816,,,Stonnington,0.4283481047001416,0.5338224276865162,Southern Metropolitan,0.21433577870192982
Armadale,42 Rose St,0.2222222222222222,h,0.2428491306786315,S,Marshall,17/09/2016,0.13097713097713096,0.1463664278403276,0.15000000000000002,0.375,0.1,0.0006951276402148661,,,Stonnington,0.4282189090721147,0.5343706031757449,Southern Metropolitan,0.21433577870192982
Armadale,12 Auburn Gr,0.2222222222222222,h,0.25518788558609085,S,hockingstuart,18/03/2017,0.13097713097713096,0.1463664278403276,0.15000000000000002,0.25,0.0,0.0007759564355886877,,,Stonnington,0.4221467145551756,0.5328174392895448,Southern Metropolitan,0.21433577870192982
Armadale,31 Hume St,0.1111111111111111,h,0.2035894559730791,VB,Jellis,18/03/2017,0.13097713097713096,0.1463664278403276,0.1,0.25,0.0,0.0004780445897823165,,,Stonnington,0.4204671713909178,0.5395782703236023,Southern Metropolitan,0.21433577870192982
Armadale,10/581 Orrong Rd,0.0,u,0.039820527201346045,SP,Jellis,18/03/2017,0.13097713097713096,0.1463664278403276,0.05,0.125,0.1,0.0,0.0011906099067729979,0.9416058394160582,Stonnington,0.4256349965117252,0.5296197489356302,Southern Metropolitan,0.21433577870192982
Armadale,7/579 Dandenong Rd,0.1111111111111111,u,0.04542905215928211,PI,Ray,18/06/2016,0.13097713097713096,0.1463664278403276,0.1,0.125,0.1,0.0,,0.9367396593673967,Stonnington,0.41077749928942353,0.5416796096990595,Southern Metropolitan,0.21433577870192982
Armadale,19 Glassford St,0.2222222222222222,h,0.2557487380818845,S,Marshall,18/06/2016,0.13097713097713096,0.1463664278403276,0.15000000000000002,0.25,0.1,0.0007297685525179324,,,Stonnington,0.4269269527919164,0.5364719425512021,Southern Metropolitan,0.21433577870192982
Armadale,14 New St,0.2222222222222222,h,0.13628715647784634,VB,Jellis,18/06/2016,0.13097713097713096,0.1463664278403276,0.1,0.125,0.2,0.0004895915605500053,0.0023812198135459957,0.856447688564477,Stonnington,0.4242138446035,0.5327260767080304,Southern Metropolitan,0.21433577870192982
Armadale,7/501 Orrong Rd,0.2222222222222222,u,0.07257431295569265,S,Gary,18/06/2016,0.13097713097713096,0.1463664278403276,0.15000000000000002,0.25,0.2,0.0,,,Stonnington,0.4171080850624094,0.5286147605386873,Southern Metropolitan,0.21433577870192982
Armadale,6/51 Armadale St,0.1111111111111111,u,0.06943353897924846,SP,Greg,19/11/2016,0.13097713097713096,0.1463664278403276,0.1,0.125,0.1,0.0,0.0016623610019094687,0.9403892944038932,Stonnington,0.42020878013487817,0.5361064922250307,Southern Metropolitan,0.21433577870192982
Armadale,12/41 Kooyong Rd,0.1111111111111111,u,0.06001121704991588,VB,Marshall,19/11/2016,0.13097713097713096,0.1463664278403276,0.15000000000000002,0.125,0.1,0.0,0.002201505110636864,0.9416058394160582,Stonnington,0.4172372806904221,0.5372028432035449,Southern Metropolitan,0.21433577870192982
Armadale,63 Denbigh Rd,0.2222222222222222,h,0.2035894559730791,S,Marshall,22/05/2016,0.13097713097713096,0.1463664278403276,0.15000000000000002,0.125,0.2,0.0007574812823603856,0.002426148489273279,0.856447688564477,Stonnington,0.4220175189271629,0.5335483399419161,Southern Metropolitan,0.21433577870192982
Armadale,13/56 Sutherland Rd,0.0,u,0.025799214806505887,SP,Fletchers,22/08/2016,0.13097713097713096,0.1463664278403276,0.05,0.125,0.1,0.0,,,Stonnington,0.4199503888788385,0.5350101412465733,Southern Metropolitan,0.21433577870192982
Armadale,7/22 Derby St,0.0,u,0.04094223219293326,PI,hockingstuart,24/09/2016,0.13097713097713096,0.1463664278403276,0.05,0.125,0.1,0.0,,,Stonnington,0.42847730032815434,0.5376596561112308,Southern Metropolitan,0.21433577870192982
Armadale,10/51 Armadale St,0.1111111111111111,u,0.07010656197420079,S,Jellis,25/02/2017,0.13097713097713096,0.1463664278403276,0.1,0.125,0.1,0.005706512953391808,0.0017971470290913177,0.9416058394160582,Stonnington,0.42020878013487817,0.5361064922250307,Southern Metropolitan,0.21433577870192982
Armadale,2/377 Dandenong Rd,0.1111111111111111,u,0.08827818283791364,S,Jellis,25/02/2017,0.13097713097713096,0.1463664278403276,0.1,0.125,0.1,0.0027574166193240868,,0.920924574209246,Stonnington,0.41620371566626346,0.5325433515449447,Southern Metropolitan,0.21433577870192982
Armadale,1/14 Denbigh Rd,0.1111111111111111,u,0.057543466068424004,S,hockingstuart,25/02/2017,0.13097713097713096,0.1463664278403276,0.1,0.125,0.1,0.0,0.0019768617320004493,0.9416058394160582,Stonnington,0.4176248675744887,0.5333656147788304,Southern Metropolitan,0.21433577870192982
Armadale,75 Sutherland Rd,0.2222222222222222,h,0.1346045989904655,S,Marshall,25/02/2017,0.13097713097713096,0.1463664278403276,0.15000000000000002,0.125,0.2,0.00042954731255802353,0.0017971470290913177,0.8807785888077861,Stonnington,0.4226634970672549,0.534918778665002,Southern Metropolitan,0.21433577870192982
Armadale,61 Union St,0.3333333333333333,h,0.4010095344924285,S,Jellis,25/02/2017,0.13097713097713096,0.1463664278403276,0.2,0.375,0.2,0.0009722549386393974,,,Stonnington,0.4176248675744887,0.5442377619822025,Southern Metropolitan,0.21433577870192982
Armadale,1/403 Dandenong Rd,0.1111111111111111,u,0.04879416713404375,S,hockingstuart,27/06/2016,0.13097713097713096,0.1463664278403276,0.05,0.125,0.1,0.0,0.0017072896776367517,0.9416058394160582,Stonnington,0.41439497687397875,0.5358324044804306,Southern Metropolitan,0.21433577870192982
Armadale,44 Denbigh Rd,0.3333333333333333,h,0.39708356702187325,S,Jellis,27/11/2016,0.13097713097713096,0.1463664278403276,0.2,0.125,0.2,0.0016373604548582726,0.005638548803774009,0.856447688564477,Stonnington,0.42007958450686544,0.5337310651049734,Southern Metropolitan,0.21433577870192982
Armadale,44 Hampden Rd,0.3333333333333333,h,0.46158160403813797,VB,Kay,27/11/2016,0.13097713097713096,0.1463664278403276,0.2,0.375,0.30000000000000004,0.0013001889084417594,0.00748062450859261,0.978102189781022,Stonnington,0.4190460194827068,0.5317210883110874,Southern Metropolitan,0.21433577870192982
Armadale,3/769 High St,0.2222222222222222,t,0.1139652271452608,S,Jellis,27/11/2016,0.13097713097713096,0.1463664278403276,0.15000000000000002,0.125,0.2,0.00023786759781438939,6.73930135909244e-05,0.978102189781022,Stonnington,0.4242138446035,0.5314470005664305,Southern Metropolitan,0.21433577870192982
Armadale,4 Mercer Rd,0.2222222222222222,h,0.3844643858665171,S,Marshall,27/11/2016,0.13097713097713096,0.1463664278403276,0.15000000000000002,0.25,0.2,0.0014248961927327986,0.0064023362911378185,0.975669099756691,Stonnington,0.42227591018320254,0.5432327735852596,Southern Metropolitan,0.21433577870192982
Armadale,17 Kooyong Rd,0.3333333333333333,h,0.2148065058889512,PI,Marshall,28/05/2016,0.13097713097713096,0.1463664278403276,0.2,0.375,0.4,0.001256310419524542,,,Stonnington,0.41529934627012466,0.5369287554589164,Southern Metropolitan,0.21433577870192982
Armadale,1/31 Mercer Rd,0.2222222222222222,u,0.08794167134043747,S,Jellis,28/05/2016,0.13097713097713096,0.1463664278403276,0.1,0.125,0.1,0.0,0.002044254745591374,0.9051094890510949,Stonnington,0.42576419213973793,0.5432327735852596,Southern Metropolitan,0.21433577870192982
Armadale,16 Llaneast St,0.4444444444444445,h,0.30566461020751545,S,Marshall,28/08/2016,0.13097713097713096,0.1463664278403276,0.25,0.25,0.2,0.0014248961927327986,,,Stonnington,0.41529934627012466,0.5438723116560311,Southern Metropolitan,0.21433577870192982
Armadale,2/532 Orrong Rd,0.1111111111111111,u,0.0538418395961862,S,Ray,28/08/2016,0.13097713097713096,0.1463664278403276,0.15000000000000002,0.125,0.1,0.0,,,Stonnington,0.42020878013487817,0.5293456611910017,Southern Metropolitan,0.21433577870192982
Armadale,5/555 Orrong Rd,0.0,u,0.054066180594503646,S,hockingstuart,28/08/2016,0.13097713097713096,0.1463664278403276,0.05,0.125,0.1,0.0,0.0011906099067729979,0.9939172749391727,Stonnington,0.4233094752073612,0.5294370237725445,Southern Metropolitan,0.21433577870192982
Armadale,3/50 Denbigh Rd,0.1111111111111111,u,0.051710600112170504,SP,hockingstuart,30/07/2016,0.13097713097713096,0.1463664278403276,0.1,0.0,0.0,0.0,,,Stonnington,0.4208547582749844,0.5338224276865162,Southern Metropolitan,0.21433577870192982
Armadale,7/844 Malvern Rd,0.1111111111111111,u,0.04335389792484577,S,Ray,30/07/2016,0.13097713097713096,0.1463664278403276,0.1,0.125,0.1,0.0,,0.9537712895377128,Stonnington,0.4292524740962804,0.5360151296434879,Southern Metropolitan,0.21433577870192982
Ascot Vale,2/43 Roxburgh St,0.1111111111111111,u,0.04150308468872686,S,Nelson,3/09/2016,0.12266112266112265,0.032753326509723735,0.15000000000000002,0.125,0.2,0.0,,,Moonee Valley,0.5257616082271852,0.44282529647159663,Western Metropolitan,0.2952198495397411
Ascot Vale,30 Rothwell St,0.2222222222222222,h,0.09590577678070668,S,Nelson,3/12/2016,0.12266112266112265,0.032753326509723735,0.15000000000000002,0.125,0.2,0.0006881994577542528,0.002426148489273279,0.8807785888077861,Moonee Valley,0.5230485000387546,0.44556617391779696,Western Metropolitan,0.2952198495397411
Ascot Vale,9/5 Rothwell St,0.1111111111111111,u,0.042849130678631525,SP,Brad,3/12/2016,0.12266112266112265,0.032753326509723735,0.1,0.125,0.1,0.0,0.001392788947545771,0.9537712895377128,Moonee Valley,0.525115630087079,0.4461143494070541,Western Metropolitan,0.2952198495397411
Ascot Vale,7 Francis St,0.2222222222222222,h,0.14526079641054404,SP,Nelson,4/03/2017,0.12266112266112265,0.032753326509723735,0.15000000000000002,0.25,0.2,0.0006397021805299598,0.003908794788273616,0.8686131386861315,Moonee Valley,0.5230485000387546,0.4479416010378827,Western Metropolitan,0.2952198495397411
Ascot Vale,2/21 Harold St,0.1111111111111111,u,0.04542905215928211,VB,Jellis,4/03/2017,0.12266112266112265,0.032753326509723735,0.1,0.125,0.1,0.000976873726946473,0.001392788947545771,0.9416058394160582,Moonee Valley,0.5283455207875747,0.42912090924039603,Western Metropolitan,0.2952198495397411
Ascot Vale,44 The Parade,0.3333333333333333,h,0.19798093101514302,S,Brad,4/03/2017,0.12266112266112265,0.032753326509723735,0.2,0.375,0.1,0.0011038904053910497,0.006065371223183197,0.856447688564477,Moonee Valley,0.5292498901837206,0.44410437261316815,Western Metropolitan,0.2952198495397411
Ascot Vale,97 Walter St,0.2222222222222222,h,0.1344924284913068,S,Woodards,4/03/2017,0.12266112266112265,0.032753326509723735,0.15000000000000002,0.125,0.2,0.0014387525576540251,,0.9026763990267639,Moonee Valley,0.5255032169711455,0.4358817402744535,Western Metropolitan,0.2952198495397411
Ascot Vale,98 Epsom Rd,0.2222222222222222,h,0.09938306225462704,SP,Nelson,4/06/2016,0.12266112266112265,0.032753326509723735,0.15000000000000002,0.25,0.2,0.0006581773337582619,0.002875435246546108,0.856447688564477,Moonee Valley,0.5265367819953042,0.4360644654375392,Western Metropolitan,0.2952198495397411
Ascot Vale,8 Geddes St,0.1111111111111111,h,0.07010656197420079,PI,Nelson,4/06/2016,0.12266112266112265,0.032753326509723735,0.1,0.125,0.1,0.0004942103488570808,0.001729754015500393,0.8442822384428224,Moonee Valley,0.5231776956667815,0.44072395709613943,Western Metropolitan,0.2952198495397411
Ascot Vale,75 Maribyrnong Rd,0.5555555555555556,h,0.26247896803140774,PI,Brad,4/06/2016,0.12266112266112265,0.032753326509723735,0.30000000000000004,0.375,0.2,0.00234172567168729,0.00977198697068404,0.8406326034063263,Moonee Valley,0.5302834552078721,0.444561185520854,Western Metropolitan,0.2952198495397411
Ascot Vale,119 Roseberry St,0.1111111111111111,h,0.07459338194054964,SP,Maddison,4/06/2016,0.12266112266112265,0.032753326509723735,0.1,0.125,0.1,0.000521923078699534,0.0020667190834550153,0.8807785888077861,Moonee Valley,0.5271827601353962,0.4362471906006249,Western Metropolitan,0.2952198495397411
Ascot Vale,10 Fenton St,0.1111111111111111,h,0.10858104318564218,S,Nelson,6/08/2016,0.12266112266112265,0.032753326509723735,0.1,0.125,0.1,0.0006212270273016577,0.0024486128271369203,0.856447688564477,Moonee Valley,0.5267951732513438,0.4542456191642259,Western Metropolitan,0.2952198495397411
Ascot Vale,10 McCully St,0.2222222222222222,h,0.14492428491306786,S,Nelson,6/08/2016,0.12266112266112265,0.032753326509723735,0.15000000000000002,0.125,0.1,0.0009630173620252463,0.003774008761091767,0.856447688564477,Moonee Valley,0.5257616082271852,0.44675388747785405,Western Metropolitan,0.2952198495397411
Ascot Vale,120 Epsom Rd,0.2222222222222222,h,0.09927089175546831,S,Brad,7/05/2016,0.12266112266112265,0.032753326509723735,0.15000000000000002,0.125,0.2,0.0008082879537382163,0.0028080422329551835,0.861313868613139,Moonee Valley,0.5253740213431186,0.43688672867139644,Western Metropolitan,0.2952198495397411
Ascot Vale,47 Hurtle St,0.1111111111111111,h,0.09590577678070668,S,Nelson,7/05/2016,0.12266112266112265,0.032753326509723735,0.1,0.125,0.1,0.0007621000706674612,,,Moonee Valley,0.5291206945556937,0.4322272370127962,Western Metropolitan,0.2952198495397411
Ascot Vale,63 Kent St,0.1111111111111111,h,0.07470555243970836,PI,Nelson,7/05/2016,0.12266112266112265,0.032753326509723735,0.1,0.125,0.1,0.0002725085101174558,0.001774682691227676,0.8442822384428224,Moonee Valley,0.5191726311981597,0.4540628940011402,Western Metropolitan,0.2952198495397411
Ascot Vale,4 The Parade,0.1111111111111111,h,0.0970274817722939,SP,Raine,7/05/2016,0.12266112266112265,0.032753326509723735,0.1,0.125,0.1,0.00039952518856203265,0.00229136246209143,0.856447688564477,Moonee Valley,0.5289914989276809,0.44657116231476834,Western Metropolitan,0.2952198495397411
Ascot Vale,1/17 Epsom Rd,0.1111111111111111,u,0.06730229949523275,S,Brad,7/11/2016,0.12266112266112265,0.032753326509723735,0.1,0.125,0.2,0.0005265418670066095,0.002021790407727732,0.9720194647201945,Moonee Valley,0.5306710420919387,0.4337804008989963,Western Metropolitan,0.2952198495397411
Ascot Vale,41 Monash St,0.2222222222222222,h,0.12843522153673584,S,Nelson,8/10/2016,0.12266112266112265,0.032753326509723735,0.2,0.125,0.2,0.0013717801272014301,0.0033247220038189374,0.9294403892944041,Moonee Valley,0.5176222836619218,0.43359767573591057,Western Metropolitan,0.2952198495397411
Ascot Vale,2/78 Ormond Rd,0.1111111111111111,h,0.06186203028603478,S,Jellis,8/10/2016,0.12266112266112265,0.032753326509723735,0.1,0.125,0.1,0.0,,,Moonee Valley,0.528087129531535,0.45927056114899756,Western Metropolitan,0.2952198495397411
Ascot Vale,83 Roseberry St,0.2222222222222222,h,0.09254066180594504,S,Raine,8/10/2016,0.12266112266112265,0.032753326509723735,0.15000000000000002,0.125,0.0,0.0007320779466714702,,,Moonee Valley,0.5270535645073764,0.4379830796499107,Western Metropolitan,0.2952198495397411
Ascot Vale,51 Francis St,0.1111111111111111,h,0.07683679192372407,PI,Nelson,10/09/2016,0.12266112266112265,0.032753326509723735,0.1,0.125,0.1,0.000521923078699534,0.001954397394136808,0.856447688564477,Moonee Valley,0.5234360869228212,0.4447439106839397,Western Metropolitan,0.2952198495397411
Ascot Vale,33 Dalgety Dr,0.2222222222222222,h,0.0981491867638811,S,Walshe,10/12/2016,0.12266112266112265,0.032753326509723735,0.15000000000000002,0.25,0.2,0.0005288512611601473,,0.9914841849148417,Moonee Valley,0.5229193044107419,0.4336890383174534,Western Metropolitan,0.2952198495397411
Ascot Vale,12 Mirams St,0.3333333333333333,h,0.09029725182277061,SP,Raine,10/12/2016,0.12266112266112265,0.032753326509723735,0.2,0.125,0.1,0.0006928182460613283,0.004155902504773672,0.8442822384428224,Moonee Valley,0.5244696519469798,0.4408153196776823,Western Metropolitan,0.2952198495397411
Ascot Vale,2 The Parade,0.1111111111111111,h,0.09871003925967471,S,Nelson,10/12/2016,0.12266112266112265,0.032753326509723735,0.1,0.125,0.1,0.0003925970061014194,,,Moonee Valley,0.528862303299654,0.44657116231476834,Western Metropolitan,0.2952198495397411
Ascot Vale,78 The Parade,0.2222222222222222,h,0.1519910263600673,S,Nelson,11/02/2017,0.12266112266112265,0.032753326509723735,0.15000000000000002,0.125,0.1,0.0011246749527728897,0.0029428282601370328,0.856447688564477,Moonee Valley,0.5297666726957999,0.44108940742231084,Western Metropolitan,0.2952198495397411
Ascot Vale,11 Ascot St,0.1111111111111111,h,0.0975883342680875,S,Woodards,11/03/2017,0.12266112266112265,0.032753326509723735,0.1,0.125,0.0,0.0005888955091521291,,,Moonee Valley,0.5168471098938028,0.44675388747785405,Western Metropolitan,0.2952198495397411
Ascot Vale,24/54 Epsom Rd,0.1111111111111111,u,0.04094223219293326,VB,Nelson,12/11/2016,0.12266112266112265,0.032753326509723735,0.1,0.125,0.1,0.0,,0.9902676399026766,Moonee Valley,0.5289914989276809,0.4345113015513391,Western Metropolitan,0.2952198495397411
Ascot Vale,2 Farncomb St,0.2222222222222222,h,0.08031407739764443,S,Jellis,12/11/2016,0.12266112266112265,0.032753326509723735,0.15000000000000002,0.125,0.2,0.000995348880174775,,0.9172749391727495,Moonee Valley,0.5187850443141073,0.4466625248963112,Western Metropolitan,0.2952198495397411
Ascot Vale,26 Newsom St,0.2222222222222222,h,0.10263600673022995,PI,Brad,12/11/2016,0.12266112266112265,0.032753326509723735,0.15000000000000002,0.25,0.2,0.001016133427556615,0.0026957205436369766,0.9233576642335766,Moonee Valley,0.5270535645073764,0.43058271054505326,Western Metropolitan,0.2952198495397411
Ascot Vale,8 Pentland St,0.2222222222222222,h,0.1514301738642737,S,Nelson,12/11/2016,0.12266112266112265,0.032753326509723735,0.15000000000000002,0.25,0.2,0.001228597689682089,0.003302257665955296,0.9172749391727495,Moonee Valley,0.528216325159562,0.43140497377893894,Western Metropolitan,0.2952198495397411
Ascot Vale,8/129 The Parade,0.0,u,0.03421200224340998,S,Alexkarbon,12/11/2016,0.12266112266112265,0.032753326509723735,0.05,0.125,0.1,0.0,0.0013029315960912053,0.9440389294403893,Moonee Valley,0.5300250639518396,0.43633855318216774,Western Metropolitan,0.2952198495397411
Ascot Vale,52 Monash St,0.2222222222222222,h,0.15030846887268648,PI,Jellis,13/08/2016,0.12266112266112265,0.032753326509723735,0.15000000000000002,0.25,0.2,0.0011431501060011917,0.0031225429630461644,0.8807785888077861,Moonee Valley,0.5173638924058821,0.4327754125020533,Western Metropolitan,0.2952198495397411
Ascot Vale,58 Fenton St,0.3333333333333333,h,0.14077397644419518,S,Nelson,14/05/2016,0.12266112266112265,0.032753326509723735,0.15000000000000002,0.25,0.2,0.0015773162068662909,0.005211726384364821,0.9513381995133823,Moonee Valley,0.5265367819953042,0.4569864966104831,Western Metropolitan,0.2952198495397411
Ascot Vale,70 Munro St,0.2222222222222222,h,0.0975883342680875,S,Brad,14/05/2016,0.12266112266112265,0.032753326509723735,0.15000000000000002,0.125,0.1,0.0006073706623804312,0.002628327530046052,0.8686131386861315,Moonee Valley,0.5261491951112376,0.43834852997605367,Western Metropolitan,0.2952198495397411
Ascot Vale,125 Epsom Rd,0.3333333333333333,h,0.11385305664610208,VB,Nelson,15/10/2016,0.12266112266112265,0.032753326509723735,0.2,0.25,0.5,0.0012909513318276084,0.004380545883410087,0.8807785888077861,Moonee Valley,0.5212397612464841,0.4401757816068823,Western Metropolitan,0.2952198495397411
Ascot Vale,33 Hockey La,0.2222222222222222,h,0.13123948401570387,S,Nelson,15/10/2016,0.12266112266112265,0.032753326509723735,0.15000000000000002,0.25,0.2,0.0007112933992896304,,,Moonee Valley,0.5253740213431186,0.45863102307816916,Western Metropolitan,0.2952198495397411
Ascot Vale,3/28 Ormond Rd,0.1111111111111111,u,0.038923163208076275,S,Biggin,15/10/2016,0.12266112266112265,0.032753326509723735,0.1,0.125,0.1,0.0,0.001392788947545771,0.9513381995133823,Moonee Valley,0.5291206945556937,0.45543333272422615,Western Metropolitan,0.2952198495397411
Ascot Vale,7 Angler Pde,0.3333333333333333,h,0.17442512619181155,S,Raine,16/04/2016,0.12266112266112265,0.032753326509723735,0.2,0.375,0.2,0.0012978795142882216,0.00458272492418286,0.8442822384428224,Moonee Valley,0.517493088033909,0.4304913479635104,Western Metropolitan,0.2952198495397411
Ascot Vale,26 Ayr St,0.5555555555555556,h,0.15086932136848008,S,Nelson,16/04/2016,0.12266112266112265,0.032753326509723735,0.2,0.25,0.1,0.001064630704780908,0.006424800629001461,0.856447688564477,Moonee Valley,0.5200770005942985,0.45470243207191174,Western Metropolitan,0.2952198495397411
Ascot Vale,2/127 Epsom Rd,0.1111111111111111,u,0.058889512058328666,SP,Brad,16/04/2016,0.12266112266112265,0.032753326509723735,0.1,0.125,0.1,0.0006951276402148661,0.002336291137818713,0.9720194647201945,Moonee Valley,0.5212397612464841,0.4405412319330253,Western Metropolitan,0.2952198495397411
Ascot Vale,57 The Parade,0.2222222222222222,h,0.09590577678070668,S,Nelson,16/04/2016,0.12266112266112265,0.032753326509723735,0.15000000000000002,0.375,0.1,0.0011339125293870407,0.0028529709086824668,0.9172749391727495,Moonee Valley,0.5295082814397603,0.4401757816068823,Western Metropolitan,0.2952198495397411
Ascot Vale,62 Mirams St,0.2222222222222222,h,0.09029725182277061,SP,Brad,16/07/2016,0.12266112266112265,0.032753326509723735,0.15000000000000002,0.125,0.1,0.0005588733851561382,0.0024710771650005617,0.8807785888077861,Moonee Valley,0.5245988475749996,0.43816580481296796,Western Metropolitan,0.2952198495397411
Ascot Vale,67 Hurtle St,0.2222222222222222,h,0.12282669657879977,SP,Brad,17/09/2016,0.12266112266112265,0.032753326509723735,0.15000000000000002,0.25,0.2,0.0014248961927327986,0.003347186341682579,0.8929440389294403,Moonee Valley,0.5275703470194557,0.4332322254097676,Western Metropolitan,0.2952198495397411
Ascot Vale,95 Walter St,0.3333333333333333,h,0.15647784632641615,S,Raine,17/09/2016,0.12266112266112265,0.032753326509723735,0.2,0.25,0.2,0.0013787083096620434,0.004043580815455464,0.9038929440389294,Moonee Valley,0.5256324125991583,0.4357903776929106,Western Metropolitan,0.2952198495397411
Ascot Vale,15 Bayview Tce,0.1111111111111111,h,0.11946158160403814,S,Brad,18/03/2017,0.12266112266112265,0.032753326509723735,0.1,0.125,0.1,0.0008937355374191135,,,Moonee Valley,0.5286039120436143,0.44520072359162555,Western Metropolitan,0.2952198495397411
Ascot Vale,57 Monash St,0.2222222222222222,h,0.1418956814357824,S,Brad,18/03/2017,0.12266112266112265,0.032753326509723735,0.15000000000000002,0.125,0.30000000000000004,0.0013279016382842126,,,Moonee Valley,0.5164595230097433,0.4322272370127962,Western Metropolitan,0.2952198495397411
Ascot Vale,54 South St,0.4444444444444445,h,0.2041503084688727,S,Nelson,18/03/2017,0.12266112266112265,0.032753326509723735,0.25,0.25,0.2,0.0012031943539931734,,,Moonee Valley,0.5229193044107419,0.4515961042995116,Western Metropolitan,0.2952198495397411
Ascot Vale,3/8 Walter St,0.1111111111111111,t,0.08749298934380259,SP,Nelson,18/03/2017,0.12266112266112265,0.032753326509723735,0.1,0.25,0.1,0.0003371715464165131,0.002965292598000674,0.9963503649635037,Moonee Valley,0.531317020232045,0.43122224861585323,Western Metropolitan,0.2952198495397411
Ascot Vale,2/225 Maribyrnong Rd,0.1111111111111111,t,0.06954570947840719,S,Brad,18/06/2016,0.12266112266112265,0.032753326509723735,0.1,0.25,0.1,0.000260961539349767,,0.975669099756691,Moonee Valley,0.5314462158600577,0.4357903776929106,Western Metropolitan,0.2952198495397411
Ascot Vale,12/9 Milton St,0.1111111111111111,u,0.04004486819966349,S,Alexkarbon,18/06/2016,0.12266112266112265,0.032753326509723735,0.1,0.125,0.1,0.0,0.001392788947545771,0.9476885644768858,Moonee Valley,0.5287331076716413,0.447758875874797,Western Metropolitan,0.2952198495397411
Ascot Vale,107/8 Burrowes St,0.1111111111111111,u,0.051037577117218166,S,Jellis,19/11/2016,0.12266112266112265,0.032753326509723735,0.1,0.25,0.1,0.0,,,Moonee Valley,0.5218857393865832,0.44063259451456815,Western Metropolitan,0.2952198495397411
Ascot Vale,21A Geddes St,0.2222222222222222,h,0.106842400448682,S,Alexkarbon,19/11/2016,0.12266112266112265,0.032753326509723735,0.15000000000000002,0.125,0.2,0.0011685534416901071,0.0024710771650005617,0.8807785888077861,Moonee Valley,0.5227901087827149,0.43990169386225375,Western Metropolitan,0.2952198495397411
Ascot Vale,1/20 Newsom St,0.2222222222222222,t,0.10824453168816602,S,Jellis,19/11/2016,0.12266112266112265,0.032753326509723735,0.15000000000000002,0.25,0.2,0.0007343873408250081,0.0035942940581826354,0.9939172749391727,Moonee Valley,0.527311955763416,0.4309481608712531,Western Metropolitan,0.2952198495397411
Ascot Vale,4/27 Roseberry St,0.1111111111111111,u,0.039820527201346045,S,McDonald,19/11/2016,0.12266112266112265,0.032753326509723735,0.1,0.125,0.1,0.0,0.0014601819611366955,0.9416058394160582,Moonee Valley,0.5266659776233169,0.44026714418842516,Western Metropolitan,0.2952198495397411
Ascot Vale,126 The Parade,0.1111111111111111,h,0.10375771172181716,S,Brad,19/11/2016,0.12266112266112265,0.032753326509723735,0.1,0.125,0.1,0.0007505530998997723,,,Moonee Valley,0.5301542595798594,0.4384398925575965,Western Metropolitan,0.2952198495397411
Ascot Vale,43 Bloomfield Rd,0.3333333333333333,h,0.15086932136848008,S,Nelson,22/05/2016,0.12266112266112265,0.032753326509723735,0.2,0.25,0.0,0.0009653267561787842,0.003549365382455352,0.856447688564477,Moonee Valley,0.5244696519469798,0.44483527326548256,Western Metropolitan,0.2952198495397411
Ascot Vale,6/17 Geddes St,0.1111111111111111,u,0.054402692091979815,VB,Nelson,22/05/2016,0.12266112266112265,0.032753326509723735,0.1,0.125,0.1,0.0,,,Moonee Valley,0.5227901087827149,0.44026714418842516,Western Metropolitan,0.2952198495397411
Ascot Vale,1/60 The Parade,0.1111111111111111,u,0.06786315199102637,S,Brad,22/05/2016,0.12266112266112265,0.032753326509723735,0.1,0.125,0.1,0.0,,,Moonee Valley,0.5293790858117404,0.4431907467977396,Western Metropolitan,0.2952198495397411
Ascot Vale,45 Bloomfield Rd,0.2222222222222222,h,0.13527762198541785,S,Brad,23/04/2016,0.12266112266112265,0.032753326509723735,0.15000000000000002,0.125,0.2,0.000956089179564633,,,Moonee Valley,0.5244696519469798,0.44465254810239685,Western Metropolitan,0.2952198495397411
Ascot Vale,21 Middle St,0.2222222222222222,h,0.1172181716208637,S,Nelson,23/04/2016,0.12266112266112265,0.032753326509723735,0.15000000000000002,0.25,0.1,0.000628155209762271,0.003526901044591711,0.856447688564477,Moonee Valley,0.5234360869228212,0.45333199334879737,Western Metropolitan,0.2952198495397411
Ascot Vale,78 Francis St,0.2222222222222222,h,0.11777902411665733,S,Brad,24/09/2016,0.12266112266112265,0.032753326509723735,0.15000000000000002,0.125,0.1,0.0006835806694471773,0.002336291137818713,0.8686131386861315,Moonee Valley,0.5239528694349005,0.44383028486851117,Western Metropolitan,0.2952198495397411
Ascot Vale,25 Geddes St,0.3333333333333333,h,0.0970274817722939,PI,Nelson,24/09/2016,0.12266112266112265,0.032753326509723735,0.2,0.25,0.1,0.0006881994577542528,0.003302257665955296,0.8807785888077861,Moonee Valley,0.5229193044107419,0.43971896869916804,Western Metropolitan,0.2952198495397411
Ascot Vale,106/246 Union Rd,0.2222222222222222,u,0.07908020190689849,PI,Weda,24/09/2016,0.12266112266112265,0.032753326509723735,0.15000000000000002,0.25,0.1,0.0,0.0033247220038189374,,Moonee Valley,0.5301542595798594,0.4426425713085109,Western Metropolitan,0.2952198495397411
Ascot Vale,18/54 Epsom Rd,0.1111111111111111,u,0.03421200224340998,PI,Jellis,25/02/2017,0.12266112266112265,0.032753326509723735,0.1,0.125,0.1,0.004519484358473398,0.0015500393125912615,0.9927007299270072,Moonee Valley,0.5289914989276809,0.4345113015513391,Western Metropolitan,0.2952198495397411
Ascot Vale,15 Mirams St,0.3333333333333333,h,0.14133482893998878,S,Jellis,25/02/2017,0.12266112266112265,0.032753326509723735,0.2,0.125,0.1,0.0012747855727528441,0.003481972368864428,0.8807785888077861,Moonee Valley,0.5240820650629203,0.440358506769968,Western Metropolitan,0.2952198495397411
Ascot Vale,44 Walter St,0.2222222222222222,h,0.14542905215928212,S,Barry,25/02/2017,0.12266112266112265,0.032753326509723735,0.15000000000000002,0.25,0.2,0.0009607079678717085,0.003774008761091767,0.856447688564477,Moonee Valley,0.5295082814397603,0.4327754125020533,Western Metropolitan,0.2952198495397411
Ascot Vale,25 Dalgety Dr,0.2222222222222222,h,0.09590577678070668,S,Jellis,26/07/2016,0.12266112266112265,0.032753326509723735,0.15000000000000002,0.25,0.2,0.0006581773337582619,0.003863866112546333,0.9914841849148417,Moonee Valley,0.5229193044107419,0.43332358799131043,Western Metropolitan,0.2952198495397411
Ascot Vale,7 Dalgety Dr,0.2222222222222222,h,0.10207515423443635,S,Nelson,26/07/2016,0.12266112266112265,0.032753326509723735,0.15000000000000002,0.25,0.1,0.0007251497642108569,0.00397618780186454,0.9902676399026766,Moonee Valley,0.5229193044107419,0.43158769894202464,Western Metropolitan,0.2952198495397411
